     3.03           OBSERVATION DATA    M (MIXED)           RINEX VERSION / TYPE
BJPP                CNES                20241031 174225 UTC PGM / RUN BY / DATE 
MARKER                                                      MARKER NAME         
SPACECRAFT                                                  MARKER TYPE         
OBSERVER            CNES                                    OBSERVER / AGENCY   
RECNUM              BLACKJACK           RECVERS             REC # / TYPE / VERS 
ANTNUM              BLACKJACK                               ANT # / TYPE        
        0.0000        0.0000        0.0000                  ANTENNA: DELTA H/E/N
G   12 C1C C1W C2W C2X L1C L1W L2X L2W S1C S1W S2W S2X      SYS / # / OBS TYPES 
DBHZ                                                        SIGNAL STRENGTH UNIT
This rinex produced from the following file(s):             COMMENT             
/tmp/mesos_work/slaves/d197f515-9ebc-49f2-8adc-fe7a9d3e6458-COMMENT             
S5/frameworks/8c1b9f46-52ed-4aff-9edf-38d17bf6761e-3334/execCOMMENT             
utors/toil-87042/runs/ab2cd8b9-5db4-4d99-9f41-b489670acbfd/9COMMENT             
ad536c9c257557f8d73427d2f90b66d/8a4d/ab35/tmpxdzdrv99ki6w16sCOMMENT             
l/stg71253989-f3ca-410f-8ce2-ec7b24ec55a5/SWOT_IVK_20241031TCOMMENT             
170632_20241031T155349_20241031T172139_O_APID1280.PTM_0     COMMENT             
  2024    10    31    15    53   20.0000000                 TIME OF FIRST OBS   
G L1C                                                       SYS / PHASE SHIFT   
G L1W -0.25000                                              SYS / PHASE SHIFT   
G L2W                                                       SYS / PHASE SHIFT   
G L2X  0.25000                                              SYS / PHASE SHIFT   
                                                            END OF HEADER       
> 2024 10 31 15 53 20.0000000  0  1
G13  22461627.060    22461626.052    22461627.816                   -12220678.828 8 -12220678.822 6                  -9522621.911 7       203.000          28.000          57.000                  
> 2024 10 31 15 53 30.0000000  0 10
G10  24969573.852    24969572.993    24969577.891                      363916.969 7    363916.982 6                    283564.213 7       100.000          30.000          80.000                  
G12  19996777.325    19996776.827    19996777.227                   -25442580.557 9 -25442580.558 9                 -19825385.714 9       797.000        1494.000        1427.000                  
G13  22407290.015    22407288.874    22407290.289                   -12506223.232 8 -12506223.249 6                  -9745124.085 7       210.000          34.000          62.000                  
G15  20686417.777    20686417.491    20686418.931                   -17507085.561 9 -17507085.561 9                 -13641884.269 9       594.000         791.000         924.000                  
G17  24316616.706    24316615.950    24316617.063                    -3470164.700 8  -3470164.690 6                  -2704030.594 7       142.000          45.000          94.000                  
G19  21514675.312    21514673.242    21514673.205                   -17147267.842 8 -17147267.842 8                 -13361509.382 8       353.000         120.000         149.000                  
G22  25285970.266    25285967.989    25285971.243                     1674408.453 7   1674408.442 6                   1304724.249 6        77.000          25.000          19.000                  
G23  23838556.930    23838555.737    23838557.975                    -2854728.199 8  -2854728.214 6                  -2224467.827 6       128.000          26.000          28.000                  
G24  19729526.683    19729526.380    19729529.234                   -20383963.109 9 -20383963.110 9                 -15883612.726 9       788.000        1512.000        1941.000                  
G25  22573891.660    22573890.346    22573895.400                   -10403486.432 8 -10403486.434 8                  -8106615.760 8       205.000         103.000         138.000                  
> 2024 10 31 15 53 40.0000000  0 10
G10  25017647.512    25017644.941    25017649.954                      616534.124 8    616534.121 6                    480408.449 7       101.000          30.000          76.000                  
G12  20011362.113    20011361.620    20011362.075                   -25365937.435 9 -25365937.436 9                 -19765663.874 9       775.000        1432.000        1504.000                  
G13  22353276.155    22353275.162    22353276.649                   -12790068.218 8 -12790068.226 6                  -9966302.035 7       211.000          31.000          65.000                  
G15  20646924.695    20646924.380    20646925.813                   -17714623.436 9 -17714623.437 9                 -13803602.148 9       581.000         766.000         992.000                  
G17  24368456.411    24368456.148    24368456.997                    -3197743.353 8  -3197743.361 6                  -2491754.380 7       130.000          49.000          89.000                  
G19  21539843.882    21539842.496    21539841.988                   -17015004.278 8 -17015004.277 8                 -13258446.967 8       350.000         128.000         150.000                  
G22  25326519.131    25326513.907    25326517.275                     1887479.627 7   1887479.621 6                   1470753.590 6        74.000          21.000          22.000                  
G23  23846522.672    23846521.211    23846524.617                    -2812869.611 8  -2812869.605 6                  -2191850.963 6       125.000          33.000          28.000                  
G24  19760230.313    19760230.238    19760233.110                   -20222613.654 9 -20222613.655 9                 -15757885.958 9       767.000        1418.000        1990.000                  
G25  22565453.792    22565453.171    22565457.596                   -10447827.308 8 -10447827.309 8                  -8141167.214 8       202.000         105.000         145.000                  
> 2024 10 31 15 53 50.0000000  0 10
G10  25065739.969    25065738.295    25065742.899                      869263.678 7    869263.693 6                    677340.232 7       100.000          31.000          72.000                  
G12  20026990.431    20026989.820    20026990.303                   -25283811.157 9 -25283811.159 9                 -19701669.447 9       785.000        1466.000        1554.000                  
G13  22299590.976    22299589.698    22299590.994                   -13072186.122 8 -13072186.125 6                 -10186134.215 7       221.000          38.000          72.000                  
G15  20607977.536    20607977.326    20607978.746                   -17919291.850 9 -17919291.850 9                 -13963084.084 9       570.000         732.000        1060.000                  
G17  24420694.307    24420693.006    24420693.446                    -2923237.267 8  -2923237.276 6                  -2277853.719 7       126.000          39.000          75.000                  
G19  21565888.942    21565887.159    21565887.032                   -16878137.832 8 -16878137.830 8                 -13151797.888 8       345.000         115.000         154.000                  
G22  25367256.809    25367255.374    25367257.397                     2101568.685 7   2101568.681 6                   1637575.951 6        75.000          22.000          16.000                  
G23  23854640.692    23854639.925    23854642.679                    -2770205.907 8  -2770205.918 6                  -2158606.761 6       126.000          29.000          32.000                  
G24  19791678.672    19791678.440    19791681.354                   -20057352.463 9 -20057352.464 9                 -15629111.088 9       764.000        1407.000        2095.000                  
G25  22557653.831    22557653.280    22557657.864                   -10488815.155 8 -10488815.155 7                  -8173105.926 8       205.000         100.000         144.000                  
> 2024 10 31 15 54  0.0000000  0 10
G10  25113845.805    25113845.708    25113849.794                     1122066.613 8   1122066.595 6                    874329.167 7       104.000          30.000          79.000                  
G12  20043655.297    20043654.997    20043655.608                   -25196234.787 9 -25196234.789 9                 -19633428.210 9       768.000        1403.000        1613.000                  
G13  22246237.209    22246236.754    22246239.171                   -13352557.358 8 -13352557.354 6                 -10404605.362 7       230.000          39.000          78.000                  
G15  20569580.462    20569579.884    20569581.468                   -18121071.208 9 -18121071.210 9                 -14120314.810 9       569.000         734.000        1125.000                  
G17  24473313.907    24473313.665    24473314.882                    -2646714.021 8  -2646714.018 6                  -2062381.266 7       119.000          35.000          74.000                  
G19  21592799.536    21592797.726    21592797.679                   -16736722.375 8 -16736722.377 8                 -13041604.147 8       348.000         118.000         164.000                  
G22  25408179.874    25408176.782    25408180.625                     2316622.141 7   2316622.147 6                   1805149.708 6        70.000          20.000          21.000                  
G23  23862908.499    23862908.373    23862911.601                    -2726756.084 8  -2726756.082 6                  -2124750.032 6       124.000          32.000          33.000                  
G24  19823861.943    19823861.746    19823864.785                   -19888228.276 9 -19888228.279 9                 -15497326.098 9       760.000        1402.000        2249.000                  
G25  22550493.427    22550492.289    22550496.754                   -10526447.117 8 -10526447.116 8                  -8202429.679 8       208.000         111.000         155.000                  
> 2024 10 31 15 54 10.0000000  0 10
G10  25161968.866    25161967.521    25161971.996                     1374945.562 8   1374945.580 6                   1071377.306 7       103.000          35.000          75.000                  
G12  20061359.291    20061358.767    20061359.341                   -25103201.509 9 -25103201.510 9                 -19560934.846 9       772.000        1409.000        1672.000                  
G13  22193228.580    22193228.303    22193230.166                   -13631121.062 8 -13631121.065 6                 -10621668.042 7       245.000          42.000          80.000                  
G15  20531744.221    20531744.018    20531745.583                   -18319900.541 9 -18319900.542 9                 -14275246.816 9       588.000         787.000        1232.000                  
G17  24526314.435    24526312.840    24526314.356                    -2368199.809 8  -2368199.805 6                  -1845357.408 7       112.000          35.000          79.000                  
G19  21620573.164    21620571.630    21620571.615                   -16590771.293 8 -16590771.297 8                 -12927876.160 8       339.000         107.000         180.000                  
G22  25449284.164    25449281.424    25449286.809                     2532628.172 7   2532628.201 6                   1973465.842 6        68.000          17.000          22.000                  
G23  23871331.649    23871330.288    23871334.353                    -2682497.653 8  -2682497.650 6                  -2090263.203 6       124.000          22.000          34.000                  
G24  19856778.727    19856778.668    19856781.748                   -19715249.052 9 -19715249.054 9                 -15362537.185 9       754.000        1393.000        2406.000                  
G25  22543978.844    22543978.199    22543983.102                   -10560679.595 8 -10560679.603 8                  -8229104.484 8       210.000         115.000         175.000                  
> 2024 10 31 15 54 20.0000000  0 10
G10  25210092.872    25210092.336    25210096.745                     1627842.042 8   1627842.037 6                   1268439.067 7       101.000          34.000          70.000                  
G12  20080090.661    20080090.225    20080090.806                   -25004767.251 9 -25004767.252 9                 -19484232.925 9       760.000        1373.000        1624.000                  
G13  22140563.683    22140562.993    22140564.706                   -13907877.585 8 -13907877.580 6                 -10837322.528 7       257.000          48.000          86.000                  
G15  20494469.613    20494469.373    20494470.901                   -18515780.641 9 -18515780.642 9                 -14427880.719 9       615.000         859.000        1292.000                  
G17  24579675.512    24579674.827    24579676.601                    -2087782.116 8  -2087782.115 6                  -1626850.369 7       109.000          34.000          72.000                  
G19  21649195.482    21649193.974    21649193.771                   -16440360.275 8 -16440360.275 8                 -12810672.907 8       329.000         107.000         194.000                  
G22  25490557.964    25490554.228    25490556.557                     2749513.613 7   2749513.601 6                   2142467.216 6        66.000          29.000          20.000                  
G23  23879899.511    23879899.441    23879902.713                    -2637469.529 8  -2637469.519 6                  -2055176.650 6       122.000          29.000          30.000                  
G24  19890416.129    19890415.813    19890418.903                   -19538484.633 9 -19538484.634 9                 -15224798.773 9       741.000        1335.000        2491.000                  
G25  22538108.357    22538107.362    22538112.424                   -10591531.019 8 -10591531.020 8                  -8253144.704 8       214.000         118.000         192.000                  
> 2024 10 31 15 54 30.0000000  0 11
G10  25258221.843    25258222.721    25258226.875                     1880765.635 8   1880765.619 6                   1465521.909 7       101.000          33.000          72.000                  
G11  25049736.645    25049733.490    25049742.915                     -321603.525 8   -321603.539 6                   -250601.987 6       127.000          26.000          21.000                  
G12  20099851.951    20099851.479    20099852.095                   -24900921.507 9 -24900921.509 9                 -19403314.265 9       766.000        1370.000        1588.000                  
G13  22088255.655    22088254.915    22088257.082                   -14182759.318 8 -14182759.327 6                 -11051516.143 7       272.000          49.000          90.000                  
G15  20457768.944    20457768.695    20457770.220                   -18708644.456 9 -18708644.457 9                 -14578164.271 9       648.000         951.000        1312.000                  
G17  24633396.541    24633395.390    24633396.828                    -1805480.552 8  -1805480.558 6                  -1406875.386 7       107.000          28.000          75.000                  
G19  21678665.244    21678662.966    21678663.434                   -16285498.122 8 -16285498.123 8                 -12690001.245 8       326.000         106.000         205.000                  
G22  25531995.648    25531993.108    25531995.564                     2967273.323 7   2967273.332 6                   2312148.716 6        62.000          20.000          19.000                  
G23  23888620.288    23888620.328    23888623.408                    -2591642.622 8  -2591642.622 6                  -2019467.691 6       120.000          26.000          32.000                  
G24  19924772.901    19924772.859    19924775.975                   -19357937.583 9 -19357937.583 9                 -15084112.864 9       737.000        1319.000        2505.000                  
G25  22532890.665    22532889.423    22532894.113                   -10618952.706 8 -10618952.711 8                  -8274512.413 8       218.000         118.000         208.000                  
> 2024 10 31 15 54 40.0000000  0 11
G10  25306349.453    25306348.002    25306352.940                     2133667.162 7   2133667.166 6                   1662587.526 7        98.000          31.000          65.000                  
G11  24986478.255    24986478.161    24986480.466                     -654019.497 8   -654019.521 6                   -509626.016 6       124.000          29.000          24.000                  
G12  20120633.372    20120633.007    20120633.596                   -24791714.140 9 -24791714.141 9                 -19318217.722 9       766.000        1390.000        1493.000                  
G13  22036305.904    22036305.703    22036306.749                   -14455757.747 8 -14455757.722 6                 -11264242.249 7       287.000          50.000          96.000                  
G15  20421643.694    20421643.355    20421644.856                   -18898484.625 9 -18898484.627 9                 -14726091.737 9       668.000        1001.000        1275.000                  
G17  24687459.865    24687459.308    24687460.669                    -1521373.742 8  -1521373.751 6                  -1185493.744 7       106.000          31.000          67.000                  
G19  21708968.064    21708966.126    21708966.901                   -16126253.538 8 -16126253.531 7                 -12565914.713 8       312.000          93.000         209.000                  
G22  25573587.359    25573586.117    25573589.838                     3185843.378 7   3185843.372 6                   2482469.728 6        59.000          19.000          21.000                  
G23  23897488.142    23897486.596    23897490.798                    -2545046.866 8  -2545046.885 6                  -1983159.599 6       119.000          23.000          34.000                  
G24  19959838.113    19959837.921    19959841.053                   -19173669.916 9 -19173669.917 9                 -14940527.778 9       723.000        1281.000        2388.000                  
G25  22528322.359    22528322.038    22528326.678                   -10642955.650 8 -10642955.654 8                  -8293216.172 8       220.000         117.000         212.000                  
> 2024 10 31 15 54 50.0000000  0 11
G10  25354466.834    25354466.987    25354471.630                     2386529.071 7   2386529.069 6                   1859622.234 7        99.000          27.000          63.000                  
G11  24923502.175    24923501.178    24923504.459                     -984964.386 8   -984964.391 6                   -767505.149 6       129.000          29.000          26.000                  
G12  20142431.515    20142431.143    20142431.699                   -24677165.052 9 -24677165.053 9                 -19228958.806 9       780.000        1444.000        1465.000                  
G13  21984722.003    21984721.601    21984723.074                   -14726832.793 8 -14726832.798 7                 -11475469.627 7       290.000          60.000          94.000                  
G15  20386100.983    20386100.790    20386102.278                   -19085262.326 9 -19085262.328 9                 -14871632.864 9       681.000        1058.000        1279.000                  
G17  24741857.722    24741857.969    24741859.006                    -1235508.831 8  -1235508.834 6                   -962742.169 7       103.000          25.000          63.000                  
G19  21740097.981    21740096.304    21740096.923                   -15962664.655 8 -15962664.657 7                 -12438443.011 8       302.000          90.000         209.000                  
G22  25615328.651    25615328.176    25615328.553                     3405191.318 7   3405191.311 6                   2653389.856 6        60.000          19.000          22.000                  
G23  23906501.500    23906500.795    23906503.899                    -2497680.729 8  -2497680.724 6                  -1946251.244 6       117.000          23.000          36.000                  
G24  19995605.201    19995604.970    19995608.228                   -18985712.817 9 -18985712.818 9                 -14794067.811 9       708.000        1218.000        2330.000                  
G25  22524409.528    22524408.668    22524413.585                   -10663520.123 8 -10663520.124 8                  -8309240.607 8       224.000         119.000         215.000                  
> 2024 10 31 15 55  0.0000000  0 11
G10  25402577.466    25402577.860    25402582.638                     2639351.443 7   2639351.424 6                   2056626.071 7        95.000          33.000          61.000                  
G11  24860818.922    24860818.444    24860822.180                    -1314365.828 8  -1314365.805 6                  -1024181.672 6       129.000          27.000          21.000                  
G12  20165245.166    20165244.838    20165245.494                   -24557278.261 9 -24557278.262 9                 -19135540.648 9       784.000        1447.000        1441.000                  
G13  21933515.067    21933514.643    21933516.056                   -14995927.092 8 -14995927.091 7                 -11685153.559 8       293.000          55.000         105.000                  
G15  20351151.994    20351151.592    20351153.130                   -19268921.632 9 -19268921.634 9                 -15014744.075 9       697.000        1104.000        1303.000                  
G17  24796586.429    24796585.695    24796586.817                     -947915.373 8   -947915.389 6                   -738643.705 7       105.000          35.000          61.000                  
G19  21772050.808    21772048.930    21772049.595                   -15794753.032 8 -15794753.034 7                 -12307602.946 8       293.000          84.000         221.000                  
G22  25657215.510    25657213.463    25657218.445                     3625301.611 7   3625301.653 6                   2824903.244 6        53.000          16.000          18.000                  
G23  23915665.962    23915664.986    23915667.930                    -2449525.250 8  -2449525.239 6                  -1908727.796 6       116.000          26.000          36.000                  
G24  20032071.754    20032071.505    20032074.715                   -18794080.511 9 -18794080.513 9                 -14644744.053 9       695.000        1172.000        2233.000                  
G25  22521157.946    22521156.771    22521161.870                   -10680609.792 8 -10680609.786 8                  -8322557.409 8       220.000         124.000         226.000                  
> 2024 10 31 15 55 10.0000000  0 10
G10  25450670.669    25450668.474    25450674.549                     2892070.532 7   2892070.536 6                   2253549.401 7        88.000          25.000          52.000                  
G11  24798432.050    24798430.859    24798434.462                    -1642215.441 8  -1642215.430 6                  -1279648.963 6       132.000          27.000          26.000                  
G12  20189061.629    20189061.285    20189061.783                   -24432123.154 9 -24432123.155 9                 -19038017.311 9       820.000        1589.000        1428.000                  
G13  21882683.597    21882683.083    21882684.975                   -15263047.154 8 -15263047.161 7                 -11893299.131 8       295.000          52.000         111.000                  
G15  20316794.544    20316794.385    20316795.873                   -19449470.985 9 -19449470.986 9                 -15155431.953 9       706.000        1117.000        1309.000                  
G17  24851625.504    24851623.807    24851625.496                     -658687.220 8   -658687.234 6                   -513271.485 7       101.000          29.000          62.000                  
G19  21804809.524    21804807.851    21804808.121                   -15622605.232 8 -15622605.243 7                 -12173461.975 8       285.000          82.000         221.000                  
G23  23924971.269    23924971.027    23924973.628                    -2400625.513 8  -2400625.522 6                  -1870624.454 6       119.000          27.000          37.000                  
G24  20069222.550    20069222.393    20069225.613                   -18598851.800 9 -18598851.802 9                 -14492617.906 9       683.000        1132.000        2051.000                  
G25  22518561.987    22518560.914    22518565.940                   -10694253.080 8 -10694253.079 8                  -8333188.720 8       221.000         123.000         223.000                  
> 2024 10 31 15 55 20.0000000  0 10
G10  25498741.502    25498739.857    25498745.901                     3144684.348 7   3144684.362 6                   2450390.620 7        88.000          33.000          51.000                  
G11  24736352.625    24736351.785    24736355.096                    -1968443.096 8  -1968443.088 6                  -1533852.342 6       134.000          28.000          29.000                  
G12  20213878.956    20213878.362    20213879.041                   -24301708.713 9 -24301708.715 9                 -18936395.794 9       831.000        1631.000        1499.000                  
G13  21832238.930    21832238.071    21832240.236                   -15528138.140 8 -15528138.144 7                 -12099863.618 8       302.000          59.000         104.000                  
G15  20283039.074    20283038.784    20283040.394                   -19626857.625 9 -19626857.626 9                 -15293655.384 9       707.000        1130.000        1380.000                  
G17  24906968.637    24906967.386    24906969.122                     -367856.063 7   -367856.075 6                   -286650.191 7        97.000          29.000          59.000                  
G19  21838369.489    21838367.644    21838368.442                   -15446246.924 8 -15446246.925 7                 -12036040.101 8       278.000          86.000         226.000                  
G23  23934421.914    23934420.556    23934424.539                    -2350964.974 8  -2350964.968 6                  -1831928.252 6       119.000          23.000          39.000                  
G24  20107054.759    20107054.289    20107057.528                   -18400044.335 9 -18400044.337 9                 -14337703.124 9       671.000        1111.000        1984.000                  
G25  22516627.785    22516627.020    22516631.747                   -10704417.586 8 -10704417.590 8                  -8341109.304 8       222.000         122.000         229.000                  
> 2024 10 31 15 55 30.0000000  0 10
G10  25546791.116    25546790.604    25546796.998                     3397191.701 7   3397191.697 6                   2647148.812 6        80.000          27.000          50.000                  
G11  24674596.000    24674595.289    24674598.588                    -2292978.041 8  -2292978.025 6                  -1786736.826 6       132.000          33.000          29.000                  
G12  20239695.067    20239694.558    20239695.202                   -24166044.757 9 -24166044.758 9                 -18830683.754 9       844.000        1690.000        1542.000                  
G13  21782190.230    21782189.874    21782191.700                   -15791144.391 8 -15791144.383 7                 -12304803.641 8       318.000          60.000         114.000                  
G15  20249895.256    20249895.216    20249896.878                   -19801028.522 9 -19801028.523 9                 -15429373.049 9       709.000        1140.000        1404.000                  
G17  24962610.354    24962610.220    24962613.039                      -75453.220 7    -75453.225 6                    -58804.270 7        92.000          29.000          64.000                  
G19  21872725.504    21872724.099    21872724.828                   -15265704.061 8 -15265704.057 7                 -11895357.549 8       273.000          71.000         215.000                  
G23  23944019.789    23944019.530    23944023.189                    -2300526.486 8  -2300526.464 6                  -1792625.888 6       119.000          29.000          36.000                  
G24  20145564.191    20145563.932    20145567.136                   -18197675.621 9 -18197675.623 9                 -14180013.355 9       667.000        1091.000        1873.000                  
G25  22515361.554    22515360.816    22515365.568                   -10711071.102 8 -10711071.102 8                  -8346294.064 8       222.000         124.000         228.000                  
> 2024 10 31 15 55 40.0000000  0 10
G10  25594811.555    25594810.914    25594816.414                     3649531.921 7   3649531.931 6                   2843776.707 6        78.000          26.000          44.000                  
G11  24613162.521    24613162.993    24613166.204                    -2615809.156 8  -2615809.150 6                  -2038293.649 6       130.000          29.000          34.000                  
G12  20266496.602    20266496.155    20266496.810                   -24025201.942 9 -24025201.943 9                 -18720936.249 9       833.000        1645.000        1493.000                  
G13  21732537.845    21732537.154    21732539.160                   -16052070.127 8 -16052070.136 7                 -12508122.485 8       319.000          62.000         111.000                  
G15  20217362.492    20217362.224    20217364.029                   -19971990.622 9 -19971990.623 9                 -15562590.362 9       717.000        1162.000        1366.000                  
G17  25018535.625    25018534.533    25018536.995                      218430.429 7    218430.411 6                    170195.537 6        93.000          28.000          47.000                  
G19  21907862.131    21907860.323    21907861.207                   -15081063.118 8 -15081063.122 7                 -11751481.705 8       266.000          75.000         198.000                  
G23  23953757.369    23953758.596    23953761.964                    -2249352.647 8  -2249352.662 6                  -1752750.579 6       119.000          29.000          36.000                  
G24  20184736.527    20184736.527    20184739.680                   -17991823.344 9 -17991823.344 9                 -14019609.127 9       660.000        1069.000        1721.000                  
G25  22514757.902    22514757.600    22514762.594                   -10714241.900 8 -10714241.904 8                  -8348765.027 8       219.000         116.000         224.000                  
> 2024 10 31 15 55 50.0000000  0 11
G10  25642799.335    25642799.782    25642805.931                     3901716.052 7   3901716.051 6                   3040282.917 6        72.000          27.000          44.000                  
G11  24552070.788    24552069.854    24552073.770                    -2936853.679 8  -2936853.668 6                  -2288458.327 6       136.000          30.000          38.000                  
G12  20294283.383    20294283.026    20294283.888                   -23879181.098 9 -23879181.100 9                 -18607153.925 9       814.000        1561.000        1532.000                  
G13  21683294.355    21683293.621    21683295.906                   -16310847.956 8 -16310847.950 7                 -12709767.644 8       330.000          70.000         116.000                  
G15  20185452.110    20185452.136    20185453.833                   -20139679.788 9 -20139679.791 9                 -15693257.346 9       721.000        1176.000        1412.000                  
G17  25074737.975    25074736.999    25074740.236                      513775.670 7    513775.689 6                    400334.182 6        93.000          27.000          50.000                  
G19  21943774.776    21943773.027    21943774.108                   -14892339.671 8 -14892339.671 7                 -11604424.701 8       260.000          74.000         178.000                  
G23  23963642.044    23963641.678    23963645.490                    -2197414.398 8  -2197414.381 6                  -1712279.609 6       120.000          24.000          42.000                  
G24  20224570.832    20224570.697    20224573.897                   -17782493.972 9 -17782493.975 9                 -13856495.488 9       654.000        1049.000        1666.000                  
G25  22514825.452    22514825.078    22514830.155                   -10713887.470 8 -10713887.469 8                  -8348489.072 8       216.000         115.000         223.000                  
G29  24989484.570    24989486.022    24989523.885                     -602993.415 8   -602993.427 6                   -469870.120 6       107.000          27.000          19.000                  
> 2024 10 31 15 56  0.0000000  0 11
G10  25690751.400    25690748.868    25690755.992                     4153689.874 7   4153689.868 6                   3236625.123 6        72.000          24.000          42.000                  
G11  24491320.665    24491320.396    24491324.827                    -3256094.316 8  -3256094.321 6                  -2537217.381 6       141.000          29.000          40.000                  
G12  20323042.824    20323042.511    20323043.430                   -23728049.411 9 -23728049.412 9                 -18489389.136 9       794.000        1488.000        1579.000                  
G13  21634459.519    21634458.994    21634460.774                   -16567476.050 8 -16567476.058 7                 -12909737.694 8       345.000          71.000         126.000                  
G15  20154164.692    20154164.465    20154166.221                   -20304097.912 9 -20304097.914 9                 -15821375.471 9       730.000        1207.000        1495.000                  
G17  25131202.900    25131201.963    25131204.845                      810497.591 7    810497.579 6                    631545.554 6        94.000          28.000          50.000                  
G19  21980449.394    21980447.604    21980448.545                   -14699615.510 8 -14699615.507 7                 -11454250.269 8       259.000          67.000         177.000                  
G23  23973665.456    23973664.401    23973666.746                    -2144748.239 8  -2144748.232 6                  -1671241.452 6       120.000          27.000          37.000                  
G24  20265052.863    20265052.716    20265056.017                   -17569759.972 9 -17569759.973 9                 -13690728.900 9       640.000         991.000        1718.000                  
G25  22515559.574    22515559.130    22515564.183                   -10710031.556 8 -10710031.558 8                  -8345484.692 8       213.000         116.000         233.000                  
G29  24921063.488    24921062.749    24921067.034                     -962550.201 8   -962550.202 6                   -750040.522 7       114.000          33.000          67.000                  
> 2024 10 31 15 56 10.0000000  0 11
G10  25738661.120    25738659.952    25738667.769                     4405458.051 7   4405458.073 6                   3432807.012 6        72.000          26.000          35.000                  
G11  24430929.192    24430928.534    24430932.389                    -3573455.047 8  -3573455.046 6                  -2784511.602 6       152.000          35.000          42.000                  
G12  20352773.429    20352772.850    20352773.685                   -23571816.598 9 -23571816.599 9                 -18367649.450 9       787.000        1466.000        1566.000                  
G13  21586045.489    21586044.978    21586046.958                   -16821894.036 8 -16821894.037 7                 -13107985.582 8       364.000          84.000         129.000                  
G15  20123510.243    20123510.072    20123511.781                   -20465188.618 9 -20465188.620 9                 -15946900.806 9       741.000        1233.000        1599.000                  
G17  25187924.390    25187924.104    25187926.412                     1108570.647 7   1108570.660 6                    863809.675 6        86.000          21.000          46.000                  
G19  22017880.617    22017878.722    22017879.640                   -14502914.443 8 -14502914.438 7                 -11300976.961 8       252.000          63.000         193.000                  
G23  23983829.252    23983828.885    23983832.555                    -2091331.936 8  -2091331.952 6                  -1629618.821 6       119.000          28.000          33.000                  
G24  20306180.392    20306179.980    20306183.424                   -17353635.406 9 -17353635.407 9                 -13522320.323 9       630.000         962.000        1773.000                  
G25  22516966.610    22516965.739    22516971.074                   -10702640.076 8 -10702640.073 8                  -8339725.341 8       207.000         107.000         249.000                  
G29  24852796.992    24852796.666    24852800.723                    -1321290.153 8  -1321290.161 6                  -1029578.074 7       116.000          38.000          91.000                  
> 2024 10 31 15 56 20.0000000  0 11
G10  25786528.452    25786525.071    25786532.850                     4656987.552 7   4656987.541 6                   3628802.775 6        64.000          21.000          39.000                  
G11  24370903.256    24370901.823    24370906.075                    -3888897.730 8  -3888897.716 6                  -3030311.246 6       156.000          34.000          47.000                  
G12  20383464.772    20383464.398    20383465.270                   -23410531.797 9 -23410531.799 9                 -18241973.160 9       748.000        1324.000        1518.000                  
G13  21538056.246    21538055.814    21538057.837                   -17074079.426 8 -17074079.431 7                 -13304493.796 8       378.000          93.000         142.000                  
G15  20093492.504    20093492.259    20093494.031                   -20622933.587 9 -20622933.589 9                 -16069819.078 9       753.000        1283.000        1667.000                  
G17  25244891.173    25244890.944    25244893.365                     1407931.279 7   1407931.278 6                   1097077.056 6        87.000          21.000          45.000                  
G19  22056056.816    22056054.393    22056056.134                   -14302298.830 8 -14302298.842 7                 -11144653.381 8       237.000          61.000         186.000                  
G23  23994134.394    23994134.048    23994137.767                    -2037181.101 8  -2037181.127 6                  -1587423.835 6       119.000          25.000          40.000                  
G24  20347942.670    20347942.488    20347945.903                   -17134172.651 9 -17134172.653 9                 -13351310.569 9       612.000         908.000        1734.000                  
G25  22519045.173    22519044.399    22519049.820                   -10691717.565 8 -10691717.569 8                  -8331214.552 8       203.000         105.000         245.000                  
G29  24784695.938    24784694.856    24784699.531                    -1679167.594 8  -1679167.597 6                  -1308443.559 7       125.000          44.000          86.000                  
> 2024 10 31 15 56 30.0000000  0 11
G10  25834341.804    25834339.618    25834347.573                     4908248.664 7   4908248.646 6                   3824589.320 6        68.000          22.000          37.000                  
G11  24311248.963    24311248.028    24311252.425                    -4202381.033 8  -4202381.037 6                  -3274584.101 6       162.000          44.000          47.000                  
G12  20415108.847    20415108.280    20415109.363                   -23244241.974 9 -23244241.975 9                 -18112396.865 9       724.000        1237.000        1467.000                  
G13  21490496.837    21490496.288    21490498.320                   -17324006.658 8 -17324006.658 8                 -13499242.409 8       406.000         106.000         150.000                  
G15  20064115.466    20064115.163    20064116.876                   -20777311.887 9 -20777311.889 9                 -16190113.973 9       757.000        1290.000        1741.000                  
G17  25302092.918    25302091.323    25302093.746                     1708519.078 7   1708519.070 6                   1331300.620 6        83.000          26.000          49.000                  
G19  22094966.355    22094964.120    22094965.486                   -14097828.546 8 -14097828.546 7                 -10985326.171 8       231.000          60.000         178.000                  
G23  24004576.436    24004576.293    24004579.952                    -1982308.248 8  -1982308.253 6                  -1544666.276 6       120.000          30.000          40.000                  
G24  20390331.146    20390330.773    20390334.207                   -16911421.266 9 -16911421.267 9                 -13177738.255 9       590.000         853.000        1675.000                  
G25  22521795.711    22521794.229    22521799.951                   -10677266.262 8 -10677266.266 7                  -8319954.072 8       204.000          98.000         238.000                  
G29  24716766.563    24716766.426    24716770.956                    -2036133.261 8  -2036133.255 6                  -1586598.579 7       130.000          42.000          95.000                  
> 2024 10 31 15 56 40.0000000  0 11
G10  25882105.347    25882102.936    25882112.005                     5159242.790 7   5159242.799 6                   4020167.670 6        66.000          21.000          35.000                  
G11  24251981.777    24251980.554    24251985.874                    -4513832.782 8  -4513832.767 6                  -3517273.936 6       166.000          42.000          45.000                  
G12  20447702.163    20447701.648    20447702.684                   -23072964.289 9 -23072964.290 9                 -17978933.932 9       736.000        1298.000        1381.000                  
G13  21443377.628    21443377.192    21443378.995                   -17571619.418 8 -17571619.417 8                 -13692187.544 8       424.000         110.000         159.000                  
G15  20035388.501    20035388.387    20035390.179                   -20928272.224 9 -20928272.226 9                 -16307745.524 9       750.000        1269.000        1767.000                  
G17  25359519.416    25359519.623    25359522.510                     2010304.756 7   2010304.755 6                   1566457.486 6        76.000          23.000          46.000                  
G19  22134603.891    22134601.857    22134603.081                   -13889533.169 8 -13889533.170 7                 -10823018.385 8       228.000          56.000         187.000                  
G23  24015160.655    24015159.089    24015163.666                    -1926694.963 8  -1926694.966 6                  -1501331.766 6       118.000          29.000          37.000                  
G24  20433341.420    20433341.327    20433344.783                   -16685400.258 9 -16685400.259 9                 -13001618.197 9       575.000         788.000        1629.000                  
G25  22525222.313    22525221.442    22525227.009                   -10659258.326 8 -10659258.332 8                  -8305922.205 8       201.000         104.000         237.000                  
G29  24649027.538    24649027.005    24649031.358                    -2392106.753 8  -2392106.742 6                  -1863980.484 8       133.000          46.000         112.000                  
> 2024 10 31 15 56 50.0000000  0 11
G10  25929810.066    25929807.550    25929815.476                     5409926.213 7   5409926.216 6                   4215503.747 6        59.000          22.000          28.000                  
G11  24193106.694    24193105.874    24193109.875                    -4823226.021 8  -4823226.016 6                  -3758359.739 7       175.000          41.000          51.000                  
G12  20481232.321    20481231.894    20481232.849                   -22896762.302 9 -22896762.304 9                 -17841633.886 9       741.000        1317.000        1254.000                  
G13  21396701.156    21396700.691    21396702.575                   -17816906.659 8 -17816906.660 8                 -13883320.583 8       444.000         123.000         158.000                  
G15  20007313.298    20007313.192    20007314.966                   -21075808.976 9 -21075808.978 9                 -16422709.346 9       748.000        1263.000        1761.000                  
G17  25417162.726    25417161.522    25417166.021                     2313213.944 7   2313213.955 6                   1802489.742 6        74.000          24.000          42.000                  
G19  22174954.978    22174952.822    22174954.014                   -13677488.114 8 -13677488.125 7                 -10657788.792 8       226.000          54.000         186.000                  
G23  24025879.197    24025877.704    24025882.971                    -1870368.077 8  -1870368.103 6                  -1457441.241 6       118.000          30.000          34.000                  
G24  20476961.805    20476961.804    20476965.273                   -16456174.169 9 -16456174.170 9                 -12823000.681 9       561.000         766.000        1554.000                  
G25  22529322.384    22529321.866    22529327.476                   -10637711.941 8 -10637711.940 7                  -8289133.122 8       199.000          95.000         231.000                  
G29  24581483.926    24581483.232    24581487.226                    -2747052.506 8  -2747052.517 6                  -2140561.534 8       145.000          48.000         116.000                  
> 2024 10 31 15 57  0.0000000  0 12
G06  24440579.648    24440577.400    24440596.065                      -64169.305 7    -64169.320 6                    -50004.972 6        89.000          32.000          34.000                  
G10  25977455.939    25977451.850    25977462.802                     5660299.510 7   5660299.533 6                   4410598.127 6        54.000          20.000          32.000                  
G11  24134635.726    24134634.932    24134639.317                    -5130490.294 8  -5130490.304 6                  -3997786.593 7       181.000          44.000          56.000                  
G12  20515695.777    20515695.311    20515696.195                   -22715657.197 9 -22715657.198 9                 -17700513.248 9       765.000        1398.000        1177.000                  
G13  21350477.600    21350477.403    21350479.290                   -18059813.944 8 -18059813.936 8                 -14072599.110 8       465.000         130.000         166.000                  
G15  19979899.014    19979898.760    19979900.481                   -21219873.419 9 -21219873.420 9                 -16534967.478 9       741.000        1235.000        1805.000                  
G17  25475013.674    25475011.934    25475015.704                     2617216.043 7   2617216.048 6                   2039373.508 6        72.000          26.000          41.000                  
G19  22216013.035    22216010.922    22216012.825                   -13461725.748 8 -13461725.746 6                 -10489662.607 8       224.000          50.000         195.000                  
G23  24036737.257    24036736.231    24036740.293                    -1813310.857 8  -1813310.825 6                  -1412981.645 6       115.000          25.000          39.000                  
G24  20521188.480    20521188.123    20521191.597                   -16223764.308 9 -16223764.308 9                 -12641902.318 9       556.000         751.000        1524.000                  
G25  22534101.465    22534100.216    22534106.045                   -10612602.573 8 -10612602.570 7                  -8269567.695 8       199.000          97.000         234.000                  
G29  24514150.278    24514149.882    24514154.181                    -3100891.060 8  -3100891.062 7                  -2416279.841 8       151.000          57.000         122.000                  
> 2024 10 31 15 57 10.0000000  0 11
G06  24426868.883    24426866.840    24426875.561                     -136222.359 7   -136222.350 6                   -106147.808 7        90.000          27.000          65.000                  
G11  24076577.625    24076577.062    24076581.917                    -5435588.373 8  -5435588.349 6                  -4235525.501 7       188.000          40.000          51.000                  
G12  20551081.569    20551081.088    20551082.048                   -22529704.400 9 -22529704.400 9                 -17555615.196 9       764.000        1388.000        1155.000                  
G13  21304711.031    21304710.635    21304712.517                   -18300320.041 8 -18300320.039 8                 -14260006.586 8       479.000         140.000         172.000                  
G15  19953148.035    19953147.837    19953149.697                   -21360450.466 9 -21360450.467 9                 -16644508.156 9       729.000        1208.000        1840.000                  
G17  25533060.302    25533057.935    25533062.026                     2922247.428 7   2922247.391 6                   2277059.214 6        67.000          26.000          45.000                  
G19  22257766.447    22257764.834    22257766.542                   -13242312.236 8 -13242312.240 6                 -10318691.389 8       225.000          49.000         204.000                  
G23  24047731.437    24047729.509    24047734.827                    -1755539.760 8  -1755539.750 6                  -1367965.765 6       117.000          33.000          34.000                  
G24  20566010.120    20566009.813    20566013.419                   -15988225.417 9 -15988225.420 9                 -12458365.760 9       554.000         755.000        1498.000                  
G25  22539556.005    22539555.088    22539560.762                   -10583939.688 8 -10583939.694 7                  -8247233.301 8       195.000          98.000         244.000                  
G29  24447036.130    24447036.447    24447040.431                    -3453575.805 8  -3453575.802 7                  -2691099.063 8       160.000          59.000         129.000                  
> 2024 10 31 15 57 20.0000000  0 11
G06  24413707.289    24413706.313    24413713.891                     -205385.523 7   -205385.524 6                   -160041.750 7        88.000          40.000          62.000                  
G11  24018940.396    24018940.148    24018944.028                    -5738474.832 8  -5738474.820 6                  -4471541.051 7       195.000          47.000          61.000                  
G12  20587380.670    20587380.186    20587381.296                   -22338952.059 9 -22338952.060 9                 -17406977.243 9       756.000        1364.000        1132.000                  
G13  21259406.739    21259406.360    21259408.212                   -18538395.762 8 -18538395.761 8                 -14445520.259 8       495.000         146.000         185.000                  
G15  19927065.042    19927064.968    19927066.893                   -21497517.470 9 -21497517.472 9                 -16751313.733 9       733.000        1202.000        1920.000                  
G17  25591290.827    25591289.952    25591294.412                     3228252.802 7   3228252.819 6                   2515503.812 6        66.000          26.000          39.000                  
G19  22300204.087    22300201.408    22300203.504                   -13019305.986 8 -13019305.995 6                 -10144920.651 8       228.000          50.000         192.000                  
G23  24058859.159    24058857.725    24058863.227                    -1697062.936 8  -1697062.925 6                  -1322400.012 6       115.000          27.000          36.000                  
G24  20611418.464    20611418.088    20611421.750                   -15749604.269 9 -15749604.270 9                 -12272427.451 9       548.000         741.000        1465.000                  
G25  22545686.640    22545685.477    22545691.266                   -10551725.306 8 -10551725.308 7                  -8222131.512 8       192.000          88.000         246.000                  
G29  24380154.109    24380152.953    24380157.069                    -3805051.472 8  -3805051.474 7                  -2964976.139 8       170.000          60.000         147.000                  
> 2024 10 31 15 57 30.0000000  0 11
G06  24401103.275    24401101.011    24401109.415                     -271626.264 7   -271626.253 6                   -211658.468 7        89.000          28.000          59.000                  
G11  23961738.535    23961737.713    23961741.662                    -6039076.411 8  -6039076.410 6                  -4705776.143 7       201.000          45.000          53.000                  
G12  20624588.968    20624588.625    20624589.906                   -22143421.447 9 -22143421.448 9                 -17254615.967 9       749.000        1352.000        1075.000                  
G13  21214576.088    21214575.310    21214577.445                   -18773983.987 9 -18773983.988 8                 -14629095.621 8       507.000         157.000         189.000                  
G15  19901659.778    19901659.494    19901661.508                   -21631024.384 9 -21631024.386 9                 -16855345.215 9       746.000        1260.000        1960.000                  
G17  25649703.367    25649701.638    25649707.758                     3535205.007 7   3535204.991 6                   2754686.033 6        65.000          23.000          43.000                  
G19  22343318.249    22343316.931    22343318.065                   -12792737.822 8 -12792737.838 7                  -9968374.416 8       228.000          56.000         190.000                  
G23  24070125.283    24070124.549    24070129.635                    -1637860.689 8  -1637860.696 6                  -1276268.995 6       116.000          26.000          41.000                  
G24  20657409.585    20657409.350    20657412.984                   -15507920.002 9 -15507920.004 9                 -12084102.308 9       545.000         720.000        1419.000                  
G25  22552497.778    22552496.591    22552502.591                   -10515934.411 8 -10515934.415 7                  -8194242.833 8       194.000         100.000         241.000                  
G29  24313515.144    24313514.976    24313519.177                    -4155234.551 8  -4155234.547 7                  -3237845.977 8       177.000          74.000         156.000                  
> 2024 10 31 15 57 40.0000000  0 11
G06  24389049.790    24389047.492    24389055.738                     -334971.382 7   -334971.416 6                   -261018.842 7        85.000          29.000          64.000                  
G11  23904972.455    23904972.790    23904976.995                    -6337378.604 8  -6337378.592 7                  -4938219.498 7       206.000          55.000          63.000                  
G12  20662691.280    20662691.014    20662692.208                   -21943193.445 9 -21943193.446 9                 -17098594.385 9       760.000        1362.000        1087.000                  
G13  21170217.925    21170217.724    21170219.595                   -19007086.458 9 -19007086.460 8                 -14810734.026 8       521.000         168.000         204.000                  
G15  19876930.053    19876929.890    19876931.842                   -21760980.239 9 -21760980.241 9                 -16956609.634 9       774.000        1343.000        2068.000                  
G17  25708278.090    25708277.162    25708283.793                     3843018.428 7   3843018.416 6                   2994539.239 6        62.000          21.000          37.000                  
G19  22387094.092    22387091.941    22387093.583                   -12562698.187 8 -12562698.193 7                  -9789123.150 8       228.000          59.000         183.000                  
G23  24081522.699    24081521.944    24081526.570                    -1577971.959 8  -1577971.947 6                  -1229603.037 6       112.000          28.000          37.000                  
G24  20703968.724    20703968.505    20703972.303                   -15263250.613 9 -15263250.613 9                 -11893451.099 9       532.000         694.000        1401.000                  
G25  22559982.437    22559981.350    22559987.508                   -10476601.402 8 -10476601.406 7                  -8163594.067 8       193.000          94.000         260.000                  
G29  24247128.542    24247127.986    24247132.489                    -4504100.012 8  -4504100.011 7                  -3509689.074 8       179.000          80.000         167.000                  
> 2024 10 31 15 57 50.0000000  0 11
G06  24377554.462    24377552.255    24377561.384                     -395380.378 7   -395380.395 6                   -308091.336 7        83.000          28.000          62.000                  
G11  23848661.149    23848661.073    23848664.756                    -6633299.121 8  -6633299.123 7                  -5168806.964 7       212.000          54.000          68.000                  
G12  20701685.087    20701684.498    20701685.818                   -21738282.008 9 -21738282.011 9                 -16938923.375 9       734.000        1279.000        1108.000                  
G13  21126345.702    21126345.353    21126347.287                   -19237637.309 9 -19237637.307 8                 -14990384.142 8       532.000         171.000         219.000                  
G15  19852887.363    19852887.046    19852889.027                   -21887326.821 9 -21887326.823 9                 -17055061.627 9       801.000        1443.000        2088.000                  
G17  25767016.183    25767012.836    25767020.982                     4151675.581 7   4151675.581 6                   3235049.755 6        61.000          20.000          33.000                  
G19  22431525.657    22431523.357    22431525.716                   -12329209.628 8 -12329209.623 7                  -9607184.421 8       230.000          54.000         171.000                  
G23  24093055.101    24093054.372    24093059.588                    -1517367.788 8  -1517367.773 6                  -1182379.600 6       112.000          27.000          40.000                  
G24  20751093.997    20751093.855    20751097.620                   -15015606.422 9 -15015606.423 9                 -11700481.869 9       522.000         678.000        1377.000                  
G25  22568147.955    22568146.634    22568153.160                   -10433693.697 8 -10433693.709 7                  -8130159.812 8       191.000          87.000         259.000                  
G29  24181009.925    24181009.194    24181013.627                    -4851554.607 8  -4851554.604 7                  -3780432.780 8       188.000          83.000         174.000                  
> 2024 10 31 15 58  0.0000000  0 12
G05  24900619.842    24900629.932    24900647.973                     -455656.445 7   -455656.440 6                   -355059.463 6        60.000          20.000          20.000                  
G06  24366612.324    24366611.709    24366619.966                     -452878.231 7   -452878.213 6                   -352895.369 7        79.000          26.000          63.000                  
