     3.03           OBSERVATION DATA    M (MIXED)           RINEX VERSION / TYPE
BJPP                CNES                20241031 125225 UTC PGM / RUN BY / DATE 
MARKER                                                      MARKER NAME         
SPACECRAFT                                                  MARKER TYPE         
OBSERVER            CNES                                    OBSERVER / AGENCY   
RECNUM              BLACKJACK           RECVERS             REC # / TYPE / VERS 
ANTNUM              BLACKJACK                               ANT # / TYPE        
        0.0000        0.0000        0.0000                  ANTENNA: DELTA H/E/N
G   12 C1C C1W C2W C2X L1C L1W L2X L2W S1C S1W S2W S2X      SYS / # / OBS TYPES 
DBHZ                                                        SIGNAL STRENGTH UNIT
This rinex produced from the following file(s):             COMMENT             
/tmp/mesos_work/slaves/d197f515-9ebc-49f2-8adc-fe7a9d3e6458-COMMENT             
S15/frameworks/8c1b9f46-52ed-4aff-9edf-38d17bf6761e-3070/exeCOMMENT             
cutors/toil-66051/runs/9fb8f170-d816-4fe9-9098-4c1ac0faab9a/COMMENT             
9b82b6994c695e6395b0617e637f801b/dccf/125b/tmpjq27ev_067lbovCOMMENT             
f3/stgc84c623b-3521-463e-858c-837d318f693a/SWOT_KRX_20241031COMMENT             
T120547_20241031T095959_20241031T104519_O_APID1280.PTM_0    COMMENT             
  2024    10    31     9    59   40.0000000                 TIME OF FIRST OBS   
G L1C                                                       SYS / PHASE SHIFT   
G L1W -0.25000                                              SYS / PHASE SHIFT   
G L2W                                                       SYS / PHASE SHIFT   
G L2X  0.25000                                              SYS / PHASE SHIFT   
                                                            END OF HEADER       
> 2024 10 31 09 59 40.0000000  0 12
G05  23876479.036    23876478.582    23876492.494                     -518882.931 8   -518882.914 6                   -404328.838 6       123.000          40.000          19.000                  
G06  24278129.925    24278129.595    24278134.281                    -3612743.876 8  -3612743.892 7                  -2815125.776 7       117.000          52.000          79.000                  
G10  26692711.146    26692710.652    26692712.294                    10228144.395 6  10228144.421 6                   7969993.376 6        49.000          20.000          18.000                  
G11  23164133.074    23164132.487    23164134.434                    -9463015.868 8  -9463015.862 7                  -7373776.982 8       257.000          85.000         149.000                  
G12  21572069.828    21572069.535    21572069.805                   -18139433.793 9 -18139433.795 9                 -14134619.881 9       502.000         609.000         770.000                  
G13  20134004.171    20134003.629    20134004.556                   -20862812.454 9 -20862812.455 8                 -16256733.279 8       716.000         305.000         384.000                  
G15  19389815.643    19389815.492    19389816.262                   -27970670.767 9 -27970670.770 9                 -21795320.175 9       833.000        1566.000        2650.000                  
G19  23123559.822    23123558.103    23123558.219                    -6616086.111 8  -6616086.106 6                  -5155389.889 8       210.000          47.000         147.000                  
G23  24520651.076    24520650.238    24520652.318                    -1885384.523 7  -1885384.542 6                  -1469125.668 6        71.000          24.000          19.000                  
G24  22011824.822    22011824.691    22011828.059                   -10181705.037 8 -10181705.039 8                  -7933795.591 9       350.000         303.000        1576.000                  
G25  23033317.417    23033316.177    23033320.323                    -6117380.499 8  -6117380.493 7                  -4766785.319 8       183.000          86.000         299.000                  
G29  23429635.896    23429634.758    23429635.738                    -7839978.181 8  -7839978.184 7                  -6109075.178 8       206.000          96.000         264.000                  
> 2024 10 31 09 59 50.0000000  0 12
G05  23809630.242    23809629.463    23809630.385                     -870173.197 8   -870173.201 6                   -678057.901 6       125.000          41.000          44.000                  
G06  24271908.195    24271908.035    24271912.773                    -3645437.929 8  -3645437.929 6                  -2840601.655 7       115.000          44.000          80.000                  
G10  26738337.088    26738340.833    26738344.098                    10467932.677 6  10467932.648 6                   8156841.287 6        47.000          21.000          19.000                  
G11  23113060.698    23113059.999    23113061.762                    -9731404.662 8  -9731404.656 7                  -7582911.064 8       255.000          78.000         146.000                  
G12  21622253.946    21622253.482    21622253.681                   -17875715.873 8 -17875715.875 9                 -13929125.423 9       477.000         549.000         754.000                  
G13  20098132.528    20098132.012    20098132.715                   -21051319.361 9 -21051319.362 8                 -16403621.761 8       737.000         322.000         368.000                  
G15  19379203.287    19379203.121    19379203.807                   -28026439.557 9 -28026439.560 9                 -21838776.378 9       832.000        1567.000        2659.000                  
G19  23177035.448    23177033.575    23177033.598                    -6335070.791 8  -6335070.791 6                  -4936416.955 8       201.000          42.000         137.000                  
G23  24534280.907    24534277.958    24534280.852                    -1813764.434 7  -1813764.418 6                  -1413317.866 6        72.000          24.000          19.000                  
G24  22066208.733    22066208.314    22066211.747                    -9895917.293 8  -9895917.294 8                  -7711103.884 9       340.000         290.000        1521.000                  
G25  23052434.671    23052433.540    23052437.406                    -6016918.370 8  -6016918.366 7                  -4688503.159 8       189.000          83.000         298.000                  
G29  23367512.491    23367512.071    23367512.728                    -8166436.085 8  -8166436.089 8                  -6363457.915 8       216.000         107.000         266.000                  
> 2024 10 31 10 00  0.0000000  0 11
G05  23742921.390    23742921.108    23742921.271                    -1220730.626 8  -1220730.628 7                   -951219.461 7       136.000          53.000          57.000                  
G06  24266260.615    24266259.362    24266264.291                    -3675123.343 8  -3675123.336 6                  -2863733.139 7       115.000          42.000          89.000                  
G11  23062559.054    23062558.957    23062560.396                    -9996790.364 8  -9996790.365 7                  -7789705.073 8       259.000          92.000         159.000                  
G12  21673179.193    21673178.546    21673178.935                   -17608101.805 8 -17608101.806 9                 -13720595.003 9       458.000         501.000         742.000                  
G13  20062843.140    20062842.359    20062843.090                   -21236767.531 9 -21236767.531 8                 -16548126.811 8       755.000         329.000         366.000                  
G15  19369333.602    19369333.385    19369334.166                   -28078304.958 9 -28078304.961 9                 -21879190.967 9       839.000        1583.000        2719.000                  
G19  23230983.328    23230981.208    23230981.828                    -6051573.090 8  -6051573.096 6                  -4715509.750 8       197.000          34.000         128.000                  
G23  24548028.381    24548027.477    24548029.238                    -1741513.228 7  -1741513.244 6                  -1357018.215 6        72.000          19.000          21.000                  
G24  22121023.743    22121023.433    22121027.017                    -9607861.381 8  -9607861.380 8                  -7486644.774 9       332.000         267.000        1466.000                  
G25  23072210.652    23072209.805    23072213.858                    -5912992.968 8  -5912992.969 7                  -4607522.350 8       186.000          91.000         291.000                  
G29  23305796.941    23305796.448    23305796.969                    -8490753.971 8  -8490753.970 8                  -6616173.124 8       222.000         117.000         286.000                  
> 2024 10 31 10 00 10.0000000  0 11
G05  23676360.058    23676359.632    23676359.556                    -1570513.865 8  -1570513.867 6                  -1223777.782 7       141.000          50.000          66.000                  
G06  24261183.052    24261182.895    24261187.627                    -3701800.091 8  -3701800.083 6                  -2884520.226 7       114.000          46.000          89.000                  
G11  23012638.392    23012638.084    23012639.828                   -10259124.994 8 -10259124.987 7                  -7994121.623 8       264.000          95.000         161.000                  
G12  21724834.939    21724834.676    21724835.129                   -17336647.508 8 -17336647.508 8                 -13509072.202 9       438.000         453.000         717.000                  
G13  20028140.884    20028140.436    20028141.126                   -21419127.519 9 -21419127.520 8                 -16690225.477 8       775.000         355.000         367.000                  
G15  19360208.704    19360208.616    19360209.448                   -28126255.838 9 -28126255.841 9                 -21916555.287 9       838.000        1580.000        2764.000                  
G19  23285391.874    23285390.256    23285391.194                    -5765651.434 8  -5765651.442 6                  -4492713.722 8       191.000          40.000         122.000                  
G23  24561896.704    24561895.080    24561898.421                    -1668634.567 7  -1668634.587 6                  -1300229.697 6        74.000          21.000          22.000                  
G24  22176261.994    22176261.974    22176265.553                    -9317581.313 8  -9317581.312 8                  -7260452.564 9       327.000         262.000        1406.000                  
G25  23092643.719    23092642.726    23092646.869                    -5805617.876 8  -5805617.874 7                  -4523853.468 8       185.000          92.000         277.000                  
G29  23244501.219    23244500.175    23244500.749                    -8812867.789 8  -8812867.793 8                  -6867170.835 8       224.000         116.000         309.000                  
> 2024 10 31 10 00 20.0000000  0 11
G05  23609957.909    23609957.478    23609957.955                    -1919458.767 8  -1919458.762 7                  -1495682.868 7       151.000          58.000          75.000                  
G06  24256683.804    24256682.986    24256687.819                    -3725445.812 8  -3725445.806 6                  -2902945.468 7       115.000          43.000          77.000                  
G11  22963311.508    22963311.513    22963312.952                   -10518337.895 8 -10518337.886 7                  -8196105.656 8       265.000          82.000         174.000                  
G12  21777215.533    21777215.122    21777215.443                   -17061386.634 8 -17061386.636 8                 -13294583.240 9       426.000         438.000         674.000                  
G13  19994036.579    19994036.145    19994036.694                   -21598347.345 9 -21598347.347 8                 -16829877.270 8       801.000         382.000         368.000                  
G15  19351835.412    19351835.155    19351835.969                   -28170258.817 9 -28170258.820 9                 -21950843.322 9       842.000        1598.000        2821.000                  
G19  23340256.084    23340254.254    23340254.463                    -5477341.352 8  -5477341.351 6                  -4268056.560 8       192.000          36.000         110.000                  
G23  24575888.009    24575886.411    24575889.941                    -1595109.128 7  -1595109.145 6                  -1242937.098 6        73.000          22.000          20.000                  
G24  22231919.897    22231919.812    22231923.293                    -9025097.894 8  -9025097.895 8                  -7032543.451 9       320.000         251.000        1344.000                  
G25  23113735.111    23113733.632    23113737.680                    -5694784.500 8  -5694784.499 7                  -4437489.819 8       180.000          82.000         276.000                  
G29  23183640.707    23183640.027    23183640.482                    -9132690.409 8  -9132690.415 8                  -7116383.170 8       231.000         120.000         329.000                  
> 2024 10 31 10 00 30.0000000  0 11
G05  23543716.323    23543716.240    23543716.869                    -2267559.274 8  -2267559.273 7                  -1766929.968 7       159.000          66.000          82.000                  
G06  24252754.526    24252753.053    24252757.531                    -3746097.476 8  -3746097.463 6                  -2919037.689 7       113.000          37.000          80.000                  
G11  22914582.167    22914581.453    22914582.563                   -10774417.396 8 -10774417.398 7                  -8395648.085 8       264.000          92.000         184.000                  
G12  21830302.719    21830302.315    21830302.597                   -16782411.755 8 -16782411.756 8                 -13077200.253 9       411.000         412.000         630.000                  
G13  19960528.403    19960527.919    19960528.283                   -21774434.041 9 -21774434.041 8                 -16967087.667 8       799.000         380.000         371.000                  
G15  19344208.164    19344207.946    19344208.833                   -28210340.064 9 -28210340.066 9                 -21982075.470 9       848.000        1611.000        2900.000                  
G19  23395556.456    23395553.928    23395554.726                    -5186737.153 8  -5186737.149 6                  -4041611.790 8       188.000          33.000         103.000                  
G23  24589995.433    24589993.717    24589997.112                    -1520976.174 7  -1520976.169 6                  -1185171.237 6        74.000          21.000          19.000                  
G24  22287982.217    22287981.872    22287985.199                    -8730490.746 8  -8730490.747 8                  -6802979.487 9       315.000         245.000        1256.000                  
G25  23135474.591    23135473.099    23135477.185                    -5580543.593 8  -5580543.588 7                  -4348470.949 8       180.000          83.000         273.000                  
G29  23123221.733    23123221.101    23123221.587                    -9450193.518 8  -9450193.517 8                  -7363788.132 8       236.000         122.000         352.000                  
> 2024 10 31 10 00 40.0000000  0 11
G05  23477649.866    23477649.885    23477649.971                    -2614740.921 8  -2614740.920 7                  -2037461.077 7       164.000          64.000          94.000                  
G06  24249399.629    24249398.543    24249403.668                    -3763724.496 8  -3763724.480 6                  -2932773.042 7       117.000          43.000          82.000                  
G11  22866462.337    22866462.242    22866463.700                   -11027283.989 8 -11027283.988 7                  -8592686.943 8       270.000          94.000         181.000                  
G12  21884091.925    21884091.712    21884091.787                   -16499747.729 8 -16499747.731 8                 -12856942.607 9       400.000         384.000         597.000                  
G13  19927627.987    19927627.585    19927628.017                   -21947326.824 9 -21947326.823 8                 -17101809.294 8       780.000         351.000         381.000                  
G15  19337334.924    19337334.863    19337335.787                   -28246458.155 9 -28246458.157 9                 -22010219.429 9       846.000        1609.000        2933.000                  
G19  23451287.494    23451285.582    23451286.178                    -4893864.782 8  -4893864.791 6                  -3813399.622 7       181.000          36.000          95.000                  
G23  24604224.748    24604222.288    24604225.389                    -1446206.804 7  -1446206.792 6                  -1126909.350 6        76.000          21.000          20.000                  
G24  22344445.843    22344445.535    22344449.064                    -8433771.148 8  -8433771.149 8                  -6571769.458 9       308.000         226.000        1146.000                  
G25  23157864.741    23157863.922    23157867.946                    -5462878.468 8  -5462878.466 7                  -4256783.860 8       175.000          81.000         274.000                  
G29  23063262.115    23063261.666    23063262.478                    -9765280.390 8  -9765280.390 8                  -7609310.321 8       237.000         124.000         364.000                  
> 2024 10 31 10 00 50.0000000  0 11
G05  23411760.186    23411760.412    23411761.005                    -2960991.857 8  -2960991.856 7                  -2307266.957 8       164.000          74.000         109.000                  
G06  24246614.573    24246613.490    24246618.397                    -3778359.605 8  -3778359.609 6                  -2944177.028 7       117.000          47.000          76.000                  
G11  22818958.128    22818957.925    22818959.501                   -11276921.140 8 -11276921.130 7                  -8787209.354 8       269.000          94.000         203.000                  
G12  21938566.202    21938566.181    21938566.367                   -16213482.467 8 -16213482.470 8                 -12633878.807 9       385.000         356.000         606.000                  
G13  19895334.854    19895334.336    19895334.940                   -22117027.661 9 -22117027.661 8                 -17234043.688 8       753.000         337.000         416.000                  
G15  19331211.965    19331211.775    19331212.664                   -28278635.303 9 -28278635.307 9                 -22035292.520 9       855.000        1637.000        3008.000                  
G19  23507434.157    23507432.235    23507432.671                    -4598812.844 8  -4598812.849 6                  -3583489.106 7       175.000          35.000          88.000                  
G23  24618566.800    24618565.047    24618568.498                    -1370834.677 7  -1370834.682 6                  -1068179.850 6        79.000          21.000          19.000                  
G24  22401297.795    22401297.438    22401300.913                    -8135012.994 8  -8135012.994 8                  -6338970.949 9       308.000         233.000        1075.000                  
G25  23180898.920    23180897.377    23180901.693                    -5341835.732 8  -5341835.729 7                  -4162464.860 8       173.000          76.000         277.000                  
G29  23003769.463    23003769.154    23003769.892                   -10077916.411 8 -10077916.411 8                  -7852922.765 8       236.000         124.000         402.000                  
> 2024 10 31 10 01  0.0000000  0 12
G05  23346061.230    23346060.352    23346060.736                    -3306248.502 8  -3306248.504 7                  -2576298.064 8       166.000          70.000         107.000                  
G06  24244401.509    24244401.554    24244406.173                    -3789985.480 8  -3789985.487 6                  -2953236.163 7       118.000          48.000          82.000                  
G11  22772081.257    22772080.640    22772082.119                   -11523262.002 8 -11523262.001 7                  -8979163.229 8       277.000          93.000         200.000                  
G12  21993719.461    21993718.650    21993719.220                   -15923653.185 8 -15923653.187 8                 -12408037.847 9       367.000         322.000         603.000                  
G13  19863658.441    19863657.915    19863658.675                   -22283488.409 9 -22283488.409 8                 -17363753.341 8       740.000         328.000         456.000                  
G15  19325844.177    19325843.934    19325844.816                   -28306843.406 9 -28306843.408 9                 -22057272.846 9       861.000        1668.000        3021.000                  
G19  23563988.207    23563986.438    23563987.049                    -4301619.093 8  -4301619.099 6                  -3351909.630 7       170.000          35.000          79.000                  
G20  24659710.630    24659699.297    24659710.662                     -366459.365 7   -366459.335 6                   -285555.009 6        83.000          21.000          19.000                  
G23  24633027.556    24633026.378    24633028.666                    -1294842.738 7  -1294842.764 6                  -1008965.426 6        81.000          18.000          21.000                  
G24  22458533.172    22458532.858    22458536.159                    -7834239.334 8  -7834239.338 8                  -6104601.919 9       306.000         239.000        1005.000                  
G25  23204575.976    23204574.753    23204578.809                    -5217412.016 8  -5217412.016 7                  -4065511.334 8       172.000          74.000         271.000                  
G29  22944760.037    22944758.716    22944759.796                   -10388016.442 8 -10388016.445 8                  -8094559.107 8       234.000         127.000         439.000                  
> 2024 10 31 10 01 10.0000000  0 12
G05  23280557.904    23280557.545    23280558.098                    -3650466.463 8  -3650466.466 7                  -2844519.807 8       168.000          69.000         114.000                  
G06  24242762.804    24242761.274    24242766.305                    -3798604.389 8  -3798604.393 6                  -2959952.200 7       123.000          48.000          84.000                  
G11  22725840.434    22725839.887    22725841.183                   -11766259.020 8 -11766259.016 7                  -9168511.508 8       272.000          96.000         214.000                  
G12  22049539.436    22049538.729    22049539.489                   -15630316.521 8 -15630316.525 8                 -12179463.869 9       346.000         288.000         608.000                  
G13  19832604.047    19832603.505    19832604.253                   -22446680.354 9 -22446680.353 8                 -17490915.870 8       738.000         325.000         491.000                  
G15  19321233.056    19321232.970    19321233.813                   -28331074.270 9 -28331074.272 9                 -22076154.031 9       868.000        1695.000        3044.000                  
G19  23620939.806    23620937.623    23620938.097                    -4002340.275 8  -4002340.269 6                  -3118705.413 7       169.000          35.000          76.000                  
G20  24594584.392    24594574.752    24594584.795                     -708700.733 7   -708700.691 6                   -552236.317 6        88.000          25.000          25.000                  
G23  24647606.482    24647606.100    24647607.453                    -1218232.814 7  -1218232.788 6                   -949269.433 6        86.000          22.000          20.000                  
G24  22516144.061    22516144.113    22516147.166                    -7531492.110 8  -7531492.111 8                  -5868695.049 9       307.000         233.000         939.000                  
G25  23228893.080    23228891.951    23228896.166                    -5089623.569 8  -5089623.570 7                  -3965935.934 8       174.000          77.000         282.000                  
G29  22886244.459    22886243.983    22886245.053                   -10695514.171 8 -10695514.174 8                  -8334167.693 8       234.000         121.000         470.000                  
> 2024 10 31 10 01 20.0000000  0 12
G05  23215257.707    23215256.970    23215257.489                    -3993622.339 8  -3993622.340 7                  -3111913.939 8       170.000          69.000         115.000                  
G06  24241690.190    24241688.928    24241693.716                    -3804240.793 8  -3804240.795 6                  -2964344.218 7       123.000          48.000          83.000                  
G11  22680240.828    22680240.061    22680241.795                   -12005886.638 8 -12005886.635 7                  -9355234.283 8       270.000          98.000         231.000                  
G12  22106011.724    22106011.290    22106012.042                   -15333550.993 8 -15333550.995 8                 -11948218.045 9       330.000         269.000         609.000                  
G13  19802172.863    19802172.440    19802173.278                   -22606596.585 9 -22606596.584 8                 -17615525.897 9       746.000         329.000         531.000                  
G15  19317376.391    19317376.144    19317376.969                   -28351342.052 9 -28351342.056 9                 -22091947.111 9       885.000        1744.000        3053.000                  
G19  23678272.072    23678270.222    23678271.235                    -3701054.611 8  -3701054.605 6                  -2883937.441 7       164.000          37.000          80.000                  
G20  24529626.238    24529619.141    24529627.323                    -1050054.293 7  -1050054.294 6                   -818226.027 6        90.000          20.000          20.000                  
G23  24662298.273    24662297.506    24662298.100                    -1141028.270 7  -1141028.258 6                   -889110.063 6        85.000          28.000          20.000                  
G24  22574118.833    22574118.347    22574121.659                    -7226834.658 8  -7226834.656 8                  -5631299.697 9       302.000         224.000         870.000                  
G25  23253842.675    23253842.189    23253846.631                    -4958508.826 8  -4958508.830 7                  -3863768.624 8       174.000          77.000         284.000                  
G29  22828233.104    22828232.374    22828233.774                   -11000364.840 8 -11000364.839 8                  -8571713.636 9       234.000         120.000         520.000                  
> 2024 10 31 10 01 30.0000000  0 12
G05  23150173.043    23150172.591    23150173.470                    -4335642.385 8  -4335642.378 7                  -3378422.995 8       172.000          74.000         133.000                  
G06  24241189.792    24241189.310    24241193.604                    -3806869.272 8  -3806869.281 7                  -2966392.381 7       127.000          55.000          88.000                  
G11  22635296.802    22635296.323    22635297.838                   -12242069.231 8 -12242069.225 7                  -9539272.615 8       270.000          91.000         233.000                  
G12  22163131.655    22163131.095    22163131.876                   -15033384.852 8 -15033384.854 8                 -11714322.394 9       322.000         252.000         615.000                  
G13  19772375.868    19772375.562    19772376.302                   -22763180.265 9 -22763180.266 8                 -17737539.138 9       746.000         339.000         551.000                  
G15  19314280.515    19314280.267    19314281.051                   -28367611.114 9 -28367611.117 9                 -22104624.304 9       890.000        1783.000        3014.000                  
G19  23735982.173    23735979.366    23735980.072                    -3397789.514 8  -3397789.518 6                  -2647627.051 7       157.000          29.000          81.000                  
G20  24464850.599    24464845.446    24464849.533                    -1390449.944 7  -1390449.971 6                  -1083469.224 6        95.000          20.000          20.000                  
G23  24677106.795    24677106.915    24677107.676                    -1063201.942 7  -1063201.960 6                   -828466.209 6        88.000          26.000          23.000                  
G24  22632453.867    22632453.893    22632457.152                    -6920279.731 8  -6920279.730 8                  -5392425.784 9       290.000         204.000         807.000                  
G25  23279428.913    23279427.881    23279432.027                    -4824056.431 8  -4824056.442 7                  -3759000.539 8       174.000          67.000         285.000                  
G29  22770743.631    22770743.365    22770744.434                   -11302473.081 8 -11302473.081 8                  -8807122.614 9       241.000         130.000         556.000                  
> 2024 10 31 10 01 40.0000000  0 12
G05  23085307.800    23085307.048    23085307.285                    -4676513.922 8  -4676513.936 7                  -3644037.129 8       176.000          79.000         134.000                  
G06  24241254.550    24241254.000    24241259.043                    -3806526.644 8  -3806526.640 7                  -2966125.407 7       131.000          53.000          85.000                  
G11  22591010.123    22591010.286    22591011.727                   -12474793.151 8 -12474793.145 7                  -9720615.878 8       264.000          91.000         236.000                  
G12  22220881.195    22220880.733    22220881.735                   -14729907.876 8 -14729907.876 8                 -11477846.865 9       312.000         231.000         618.000                  
G13  19743212.320    19743211.842    19743212.642                   -22916436.368 9 -22916436.367 8                 -17856959.462 9       768.000         361.000         571.000                  
G15  19311940.397    19311940.161    19311941.024                   -28379908.127 9 -28379908.130 9                 -22114206.392 9       894.000        1811.000        2976.000                  
G19  23794050.838    23794048.808    23794049.571                    -3092634.019 8  -3092634.023 6                  -2409843.606 7       156.000          32.000          79.000                  
G20  24400261.276    24400255.787    24400258.980                    -1729878.885 7  -1729878.913 6                  -1347959.306 6        99.000          26.000          19.000                  
G23  24692029.691    24692029.002    24692029.885                     -984788.147 7   -984788.156 6                   -767364.544 6        89.000          19.000          22.000                  
G24  22691136.329    22691136.276    22691139.615                    -6611901.493 8  -6611901.493 8                  -5152131.101 9       276.000         189.000         738.000                  
G25  23305640.026    23305638.923    23305643.190                    -4686317.225 8  -4686317.217 7                  -3651671.309 8       176.000          83.000         280.000                  
G29  22713782.997    22713782.399    22713783.537                   -11601804.890 8 -11601804.887 8                  -9040368.124 9       243.000         138.000         571.000                  
> 2024 10 31 10 01 50.0000000  0 12
G05  23020670.699    23020670.420    23020670.763                    -5016182.085 8  -5016182.086 7                  -3908713.577 8       182.000          88.000         143.000                  
G06  24241886.711    24241885.793    24241890.771                    -3803208.466 8  -3803208.468 7                  -2963539.823 7       133.000          59.000          89.000                  
G11  22547393.119    22547392.805    22547394.224                   -12704003.399 8 -12704003.402 7                  -9899221.223 8       257.000          77.000         245.000                  
G12  22279252.075    22279251.516    22279252.390                   -14423168.300 8 -14423168.302 8                 -11238829.052 9       307.000         219.000         624.000                  
G13  19714688.772    19714688.291    19714689.170                   -23066328.497 9 -23066328.496 8                 -17973758.507 9       779.000         358.000         607.000                  
G15  19310358.941    19310358.837    19310359.495                   -28388218.781 9 -28388218.784 9                 -22120682.217 9       906.000        1853.000        3016.000                  
G19  23852470.339    23852468.664    23852470.193                    -2785635.172 8  -2785635.170 6                  -2170623.813 7       151.000          26.000          71.000                  
G20  24335861.363    24335858.929    24335861.504                    -2068290.246 8  -2068290.251 6                  -1611656.426 6       104.000          21.000          22.000                  
G23  24707063.622    24707063.521    24707065.023                     -905779.325 7   -905779.310 6                   -705799.201 6        93.000          25.000          22.000                  
G24  22750159.858    22750159.342    22750162.958                    -6301732.166 8  -6301732.165 8                  -4910440.773 9       266.000         178.000         684.000                  
G25  23332474.669    23332473.258    23332477.582                    -4545300.806 8  -4545300.803 7                  -3541788.398 8       176.000          73.000         274.000                  
G29  22657364.743    22657364.123    22657365.082                   -11898284.735 8 -11898284.738 8                  -9271391.341 9       254.000         148.000         600.000                  
> 2024 10 31 10 02  0.0000000  0 12
G05  22956274.805    22956274.487    22956274.875                    -5354585.049 8  -5354585.044 7                  -4172404.169 8       192.000          83.000         160.000                  
G06  24243085.334    24243085.808    24243090.051                    -3796904.011 8  -3796904.028 7                  -2958627.258 7       131.000          53.000          93.000                  
G11  22504456.623    22504455.899    22504457.428                   -12929638.486 8 -12929638.479 7                 -10075040.722 8       247.000          82.000         246.000                  
G12  22338235.651    22338235.191    22338236.080                   -14113207.542 8 -14113207.541 8                 -10997301.221 9       308.000         233.000         590.000                  
G13  19686813.612    19686813.072    19686813.796                   -23212813.841 9 -23212813.842 8                 -18087902.905 9       792.000         380.000         618.000                  
G15  19309540.149    19309539.897    19309540.560                   -28392522.471 9 -28392522.474 9                 -22124035.742 9       916.000        1902.000        2976.000                  
G19  23911234.101    23911231.886    23911232.722                    -2476832.860 8  -2476832.872 6                  -1929998.709 7       145.000          31.000          69.000                  
G20  24271670.304    24271667.362    24271668.179                    -2405626.254 8  -2405626.249 6                  -1874515.526 6       109.000          24.000          22.000                  
G23  24722214.829    24722215.057    24722216.830                     -826160.928 7   -826160.960 6                   -643758.962 6        91.000          20.000          17.000                  
G24  22809519.237    22809518.857    22809522.392                    -5989796.829 8  -5989796.832 8                  -4667374.327 9       267.000         170.000         626.000                  
G25  23359931.948    23359931.097    23359935.074                    -4401010.481 8  -4401010.477 7                  -3429354.404 8       179.000          77.000         266.000                  
G29  22601504.825    22601504.508    22601505.246                   -12191829.912 8 -12191829.914 8                  -9500127.805 9       261.000         155.000         613.000                  
> 2024 10 31 10 02 10.0000000  0 12
G05  22892122.067    22892122.070    22892122.411                    -5691708.690 8  -5691708.687 7                  -4435097.851 8       198.000          90.000         170.000                  
G06  24244846.121    24244845.981    24244850.709                    -3787651.919 8  -3787651.932 7                  -2951417.824 7       128.000          51.000          92.000                  
G11  22462202.098    22462201.109    22462203.087                   -13151686.196 8 -13151686.195 7                 -10248064.860 8       246.000          82.000         255.000                  
G12  22397815.049    22397814.691    22397815.392                   -13800115.997 8 -13800116.000 8                 -10753333.821 9       311.000         233.000         552.000                  
G13  19659585.551    19659584.961    19659585.547                   -23355898.699 9 -23355898.702 8                 -18199397.572 9       827.000         415.000         611.000                  
G15  19309477.990    19309477.779    19309478.559                   -28392848.231 9 -28392848.234 9                 -22124289.574 9       915.000        1875.000        2962.000                  
G19  23970323.903    23970320.684    23970322.749                    -2166315.545 8  -2166315.531 6                  -1688037.266 7       139.000          30.000          70.000                  
G20  24207683.070    24207681.084    24207684.130                    -2741877.421 8  -2741877.434 6                  -2136529.320 6       116.000          25.000          23.000                  
G23  24737475.846    24737474.948    24737476.908                     -745967.146 7   -745967.178 6                   -581270.271 6        91.000          25.000          22.000                  
G24  22869200.662    22869200.271    22869203.867                    -5676169.128 8  -5676169.129 8                  -4422989.149 9       266.000         182.000         582.000                  
G25  23388002.264    23388001.312    23388005.483                    -4253498.939 8  -4253498.933 7                  -3314410.365 8       181.000          84.000         263.000                  
G29  22546210.305    22546209.487    22546210.286                   -12482406.454 8 -12482406.459 8                  -9726551.033 9       270.000         162.000         643.000                  
> 2024 10 31 10 02 20.0000000  0 12
G05  22828227.269    22828226.858    22828227.149                    -6027479.481 8  -6027479.476 7                  -4696737.380 8       202.000          98.000         183.000                  
G06  24247172.204    24247171.782    24247175.858                    -3775431.799 8  -3775431.791 7                  -2941895.646 7       126.000          53.000          89.000                  
G11  22420644.248    22420643.151    22420645.199                   -13370075.171 8 -13370075.170 7                 -10418238.042 8       244.000          77.000         251.000                  
G12  22457983.764    22457983.817    22457984.644                   -13483924.432 8 -13483924.432 8                 -10506950.816 9       305.000         227.000         511.000                  
G13  19633014.509    19633014.018    19633014.509                   -23495530.202 9 -23495530.200 8                 -18308201.311 9       850.000         430.000         625.000                  
G15  19310178.631    19310178.519    19310179.291                   -28389166.229 9 -28389166.232 9                 -22121420.484 9       917.000        1898.000        3015.000                  
G19  24029734.643    24029731.667    24029732.686                    -1854111.851 8  -1854111.842 6                  -1444761.748 7       136.000          33.000          66.000                  
G20  24143916.557    24143913.822    24143915.575                    -3076974.487 8  -3076974.491 6                  -2397643.801 6       118.000          22.000          20.000                  
G23  24752849.458    24752849.586    24752851.584                     -665172.430 7   -665172.433 6                   -518313.452 6        91.000          25.000          20.000                  
G24  22929201.620    22929201.304    22929204.509                    -5360862.992 8  -5360862.995 8                  -4177296.097 9       264.000         166.000         540.000                  
G25  23416687.025    23416686.269    23416690.392                    -4102759.783 8  -4102759.778 7                  -3196951.301 8       178.000          85.000         253.000                  
G29  22491497.771    22491497.564    22491498.178                   -12769920.872 8 -12769920.873 8                  -9950588.189 9       275.000         171.000         672.000                  
> 2024 10 31 10 02 30.0000000  0 12
G05  22764593.558    22764593.421    22764594.039                    -6361874.366 8  -6361874.367 7                  -4957304.772 8       202.000          96.000         185.000                  
G06  24250056.660    24250055.691    24250060.045                    -3760274.482 8  -3760274.481 7                  -2930084.749 7       130.000          58.000          92.000                  
G11  22379786.036    22379785.043    22379787.168                   -13584785.232 8 -13584785.230 7                 -10585544.538 8       247.000          81.000         262.000                  
G12  22518727.822    22518727.643    22518728.282                   -13164714.339 8 -13164714.342 8                 -10258215.714 8       307.000         229.000         472.000                  
G13  19607100.933    19607100.503    19607101.101                   -23631706.603 9 -23631706.604 8                 -18414312.763 9       859.000         428.000         622.000                  
G15  19311637.946    19311637.703    19311638.585                   -28381497.873 9 -28381497.876 9                 -22115445.132 9       913.000        1888.000        2998.000                  
G19  24089450.369    24089448.619    24089449.203                    -1540300.899 8  -1540300.905 6                  -1200233.819 7       133.000          28.000          64.000                  
G20  24080372.113    24080370.895    24080372.759                    -3410898.812 8  -3410898.825 6                  -2657844.519 6       124.000          24.000          23.000                  
G23  24768333.494    24768333.843    24768334.854                     -583801.823 7   -583801.826 6                   -454907.792 6        91.000          23.000          20.000                  
G24  22989509.249    22989509.229    22989512.504                    -5043942.730 8  -5043942.731 8                  -3930345.284 8       252.000         162.000         500.000                  
G25  23445977.440    23445976.704    23445980.748                    -3948837.883 8  -3948837.889 7                  -3077012.185 8       174.000          76.000         237.000                  
G29  22437376.585    22437375.833    22437376.969                   -13054330.508 8 -13054330.510 8                 -10172206.055 9       284.000         184.000         697.000                  
> 2024 10 31 10 02 40.0000000  0 12
G05  22701232.110    22701231.674    22701232.129                    -6694841.999 8  -6694841.994 8                  -5216760.020 8       202.000         109.000         195.000                  
G06  24253498.860    24253498.293    24253502.706                    -3742183.458 8  -3742183.468 7                  -2915987.831 7       123.000          53.000          87.000                  
G11  22339636.413    22339636.611    22339638.115                   -13795768.763 8 -13795768.758 7                 -10749947.240 8       249.000          81.000         267.000                  
G12  22580035.754    22580035.558    22580036.125                   -12842539.328 8 -12842539.328 8                 -10007170.286 8       307.000         227.000         439.000                  
G13  19581850.598    19581849.979    19581850.561                   -23764398.626 9 -23764398.626 8                 -18517709.112 9       853.000         432.000         622.000                  
G15  19313856.809    19313856.648    19313857.473                   -28369837.370 9 -28369837.373 9                 -22106359.018 9       901.000        1837.000        3010.000                  
G19  24149461.141    24149460.593    24149461.933                    -1224933.479 8  -1224933.489 6                   -954493.018 7       127.000          27.000          59.000                  
G20  24017060.242    24017058.446    24017060.770                    -3743603.316 8  -3743603.297 6                  -2917094.674 6       131.000          28.000          25.000                  
G23  24783928.442    24783927.853    24783928.661                     -501852.331 7   -501852.328 6                   -391051.101 6        88.000          24.000          20.000                  
G24  23050117.772    23050117.531    23050120.700                    -4725444.504 8  -4725444.500 8                  -3682164.899 8       243.000         139.000         461.000                  
G25  23475870.317    23475869.450    23475873.331                    -3791750.628 8  -3791750.620 7                  -2954606.556 8       172.000          75.000         232.000                  
G29  22383859.896    22383859.011    22383859.730                   -13335564.519 8 -13335564.515 8                 -10391349.372 9       292.000         201.000         733.000                  
> 2024 10 31 10 02 50.0000000  0 12
G05  22638153.253    22638152.902    22638153.591                    -7026323.850 8  -7026323.850 7                  -5475057.535 8       206.000          98.000         199.000                  
G06  24257499.705    24257499.871    24257504.333                    -3721155.981 8  -3721155.990 6                  -2899602.768 7       117.000          46.000          91.000                  
G11  22300207.056    22300206.855    22300208.613                   -14002971.972 8 -14002971.962 7                 -10911404.237 8       249.000          75.000         266.000                  
G12  22641899.252    22641898.908    22641899.399                   -12517446.334 8 -12517446.335 8                  -9753851.107 8       303.000         219.000         393.000                  
G13  19557269.629    19557269.210    19557269.783                   -23893570.840 9 -23893570.841 8                 -18618362.758 9       853.000         431.000         600.000                  
G15  19316837.647    19316837.421    19316838.290                   -28354172.998 9 -28354173.001 9                 -22094153.015 9       894.000        1804.000        2981.000                  
G19  24209763.346    24209760.666    24209761.649                     -908053.576 8   -908053.590 6                   -707573.711 7       121.000          22.000          54.000                  
G20  23953991.666    23953989.402    23953991.104                    -4075034.278 8  -4075034.264 6                  -3175352.502 6       135.000          26.000          34.000                  
G23  24799635.360    24799635.190    24799636.248                     -419314.143 7   -419314.143 6                   -326735.635 6        91.000          17.000          19.000                  
G24  23111020.667    23111020.404    23111023.696                    -4405397.481 8  -4405397.481 8                  -3432777.663 8       227.000         122.000         435.000                  
G25  23506362.721    23506362.022    23506366.421                    -3631509.295 8  -3631509.292 7                  -2829743.203 8       169.000          72.000         228.000                  
G29  22330961.094    22330960.796    22330961.573                   -13613545.744 8 -13613545.748 8                 -10607958.080 9       291.000         190.000         761.000                  
> 2024 10 31 10 03  0.0000000  0 12
G05  22575360.960    22575360.497    22575360.596                    -7356300.581 8  -7356300.579 8                  -5732182.206 8       208.000         116.000         208.000                  
G06  24262054.461    24262052.844    24262057.832                    -3697229.501 8  -3697229.489 6                  -2880958.748 7       117.000          49.000          93.000                  
G11  22261500.124    22261499.220    22261500.967                   -14206381.166 8 -14206381.164 7                 -11069904.861 8       244.000          75.000         259.000                  
G12  22704300.963    22704300.620    22704301.218                   -12189521.784 8 -12189521.786 8                  -9498325.519 8       290.000         201.000         361.000                  
G13  19533357.986    19533357.528    19533358.106                   -24019227.758 9 -24019227.758 8                 -18716277.218 9       850.000         428.000         598.000                  
G15  19320574.920    19320574.699    19320575.634                   -28334533.340 9 -28334533.343 9                 -22078849.386 9       878.000        1750.000        2980.000                  
G19  24270334.356    24270333.140    24270334.038                     -589744.349 8   -589744.347 6                   -459540.641 6       120.000          21.000          47.000                  
G20  23891167.614    23891164.938    23891168.287                    -4405177.181 8  -4405177.174 6                  -3432606.638 6       143.000          26.000          34.000                  
G23  24815448.694    24815447.912    24815449.844                     -336216.909 7   -336216.921 6                   -261984.526 6        89.000          19.000          20.000                  
G24  23172205.754    23172204.779    23172208.416                    -4083870.210 8  -4083870.212 8                  -3182236.994 8       216.000         115.000         397.000                  
G25  23537446.929    23537445.562    23537449.553                    -3468165.144 8  -3468165.151 7                  -2702462.072 8       163.000          62.000         218.000                  
G29  22278689.284    22278688.736    22278689.725                   -13888236.334 8 -13888236.331 8                 -10822002.635 9       291.000         192.000         774.000                  
> 2024 10 31 10 03 10.0000000  0 12
G05  22512868.962    22512868.598    22512868.992                    -7684696.598 8  -7684696.600 8                  -5988075.150 8       213.000         109.000         208.000                  
G06  24267162.217    24267160.545    24267165.708                    -3670385.488 8  -3670385.488 6                  -2860041.324 7       115.000          44.000          98.000                  
G11  22223527.499    22223527.342    22223528.711                   -14405926.764 8 -14405926.763 7                 -11225394.889 8       251.000          84.000         258.000                  
G12  22767236.355    22767235.858    22767236.236                   -11858795.410 8 -11858795.408 8                  -9240616.693 8       276.000         181.000         325.000                  
G13  19510124.876    19510124.464    19510125.015                   -24141317.886 9 -24141317.886 8                 -18811412.359 9       843.000         426.000         601.000                  
G15  19325073.920    19325073.650    19325074.539                   -28310891.269 9 -28310891.272 9                 -22060427.002 9       869.000        1699.000        2944.000                  
G19  24331174.617    24331171.961    24331172.973                     -270032.159 8   -270032.141 6                   -210414.337 6       120.000          26.000          49.000                  
G20  23828601.577    23828599.847    23828601.957                    -4733960.830 8  -4733960.831 6                  -3688801.631 6       154.000          30.000          30.000                  
G23  24831373.364    24831372.108    24831373.340                     -252533.726 7   -252533.723 6                   -196776.897 6        90.000          20.000          20.000                  
G24  23233669.617    23233668.844    23233672.658                    -3760874.455 8  -3760874.460 8                  -2930552.047 8       209.000         113.000         367.000                  
G25  23569120.796    23569120.358    23569124.372                    -3301713.523 8  -3301713.534 7                  -2572759.538 8       157.000          62.000         213.000                  
G29  22227061.266    22227060.778    22227061.920                   -14159542.339 8 -14159542.341 8                 -11033409.887 9       289.000         189.000         796.000                  
> 2024 10 31 10 03 20.0000000  0 12
G05  22450682.403    22450682.184    22450682.304                    -8011488.428 8  -8011488.428 8                  -6242718.089 8       224.000         117.000         214.000                  
G06  24272818.062    24272817.567    24272822.052                    -3640658.848 8  -3640658.842 6                  -2836877.706 8       110.000          45.000         105.000                  
G11  22186293.953    22186293.139    22186294.654                   -14601592.667 8 -14601592.666 7                 -11377861.782 8       264.000          85.000         261.000                  
G12  22830688.877    22830688.232    22830688.839                   -11525350.051 8 -11525350.051 8                  -8980789.183 8       261.000         162.000         303.000                  
G13  19487570.346    19487569.850    19487570.513                   -24259843.246 9 -24259843.245 8                 -18903769.763 9       850.000         419.000         636.000                  
G15  19330329.487    19330329.205    19330330.092                   -28283273.127 9 -28283273.130 9                 -22038906.371 9       859.000        1651.000        2860.000                  
G19  24392266.362    24392263.897    24392265.014                       51004.003 8     51003.995 6                     39743.618 6       123.000          33.000          43.000                  
G20  23766297.666    23766296.732    23766299.084                    -5061366.716 8  -5061366.730 6                  -3943923.022 6       158.000          25.000          31.000                  
G23  24847404.331    24847403.311    24847403.920                     -168290.439 7   -168290.432 6                   -131132.803 6        89.000          22.000          23.000                  
G24  23295400.585    23295400.393    23295404.057                    -3436474.632 8  -3436474.632 8                  -2677773.026 8       203.000         103.000         358.000                  
G25  23601377.275    23601377.142    23601381.134                    -3132203.141 8  -3132203.141 7                  -2440673.554 8       148.000          54.000         218.000                  
G29  22176085.299    22176084.935    22176085.879                   -14427422.851 8 -14427422.851 8                 -11242147.930 9       290.000         188.000         810.000                  
> 2024 10 31 10 03 30.0000000  0 12
G05  22388811.092    22388811.125    22388810.822                    -8336623.355 8  -8336623.353 8                  -6496069.928 8       233.000         140.000         229.000                  
G06  24279022.463    24279021.604    24279026.162                    -3608056.013 8  -3608056.002 6                  -2811472.893 8       109.000          41.000         102.000                  
G11  22149806.360    22149806.006    22149807.365                   -14793334.373 8 -14793334.370 7                 -11527270.857 8       276.000          94.000         253.000                  
G12  22894648.719    22894648.171    22894648.752                   -11189239.056 8 -11189239.057 8                  -8718884.547 8       255.000         154.000         294.000                  
G13  19465699.142    19465698.789    19465699.240                   -24374777.008 9 -24374777.008 8                 -18993328.522 9       850.000         423.000         653.000                  
G15  19336342.193    19336341.790    19336342.631                   -28251676.918 9 -28251676.921 9                 -22014285.958 9       848.000        1616.000        2748.000                  
G19  24453599.197    24453598.828    24453598.247                      373314.325 8    373314.312 6                    290894.432 6       116.000          27.000          35.000                  
G20  23704266.716    23704265.060    23704265.981                    -5387347.073 8  -5387347.068 6                  -4197933.599 6       160.000          32.000          31.000                  
G23  24863541.400    24863540.745    24863542.279                      -83483.831 7    -83483.831 6                    -65049.815 6        86.000          24.000          23.000                  
G24  23357392.220    23357392.320    23357395.833                    -3110705.857 8  -3110705.858 7                  -2423927.268 8       194.000         100.000         315.000                  
G25  23634212.842    23634212.039    23634215.946                    -2959654.126 8  -2959654.127 7                  -2306219.800 8       148.000          51.000         215.000                  
G29  22125774.395    22125774.227    22125774.984                   -14691807.866 8 -14691807.866 8                 -11448162.226 9       289.000         195.000         801.000                  
> 2024 10 31 10 03 40.0000000  0 12
G05  22327266.781    22327266.338    22327266.471                    -8660042.947 8  -8660042.947 8                  -6748085.137 8       248.000         147.000         237.000                  
G06  24285772.876    24285772.901    24285777.914                    -3572578.387 8  -3572578.400 6                  -2783827.972 7       104.000          42.000          97.000                  
G11  22114075.116    22114075.093    22114076.019                   -14981102.480 8 -14981102.480 8                 -11673583.619 8       283.000         104.000         257.000                  
G12  22959106.819    22959106.082    22959106.801                   -10850510.357 8 -10850510.361 8                  -8454940.149 8       245.000         149.000         306.000                  
G13  19444517.347    19444516.986    19444517.533                   -24486087.507 9 -24486087.507 8                 -19080063.949 9       848.000         430.000         693.000                  
G15  19343112.960    19343112.610    19343113.438                   -28216096.021 9 -28216096.023 9                 -21986560.584 9       842.000        1613.000        2676.000                  
G19  24515167.759    24515165.962    24515166.458                      696855.232 8    696855.217 6                    543004.180 6       115.000          31.000          41.000                  
G20  23642515.893    23642514.121    23642514.604                    -5711848.536 8  -5711848.554 6                  -4450791.834 6       167.000          29.000          35.000                  
G23  24879788.377    24879786.827    24879789.795                        1895.004 7      1895.019 6                      1476.062 6        87.000          22.000          16.000                  
G24  23419638.844    23419638.710    23419642.355                    -2783597.459 8  -2783597.467 7                  -2169037.647 8       192.000          88.000         290.000                  
