     3.03           OBSERVATION DATA    M (MIXED)           RINEX VERSION / TYPE
BJPP                CNES                20241101 034226 UTC PGM / RUN BY / DATE 
MARKER                                                      MARKER NAME         
SPACECRAFT                                                  MARKER TYPE         
OBSERVER            CNES                                    OBSERVER / AGENCY   
RECNUM              BLACKJACK           RECVERS             REC # / TYPE / VERS 
ANTNUM              BLACKJACK                               ANT # / TYPE        
        0.0000        0.0000        0.0000                  ANTENNA: DELTA H/E/N
G   12 C1C C1W C2W C2X L1C L1W L2X L2W S1C S1W S2W S2X      SYS / # / OBS TYPES 
DBHZ                                                        SIGNAL STRENGTH UNIT
This rinex produced from the following file(s):             COMMENT             
/tmp/mesos_work/slaves/d197f515-9ebc-49f2-8adc-fe7a9d3e6458-COMMENT             
S58/frameworks/8c1b9f46-52ed-4aff-9edf-38d17bf6761e-3561/exeCOMMENT             
cutors/toil-16065/runs/720b52f6-b27c-40be-ae68-cbb14fdc2f42/COMMENT             
3ba98abcbf305d11969e329969bf2438/7bda/a3ca/tmpl2e0te28riy1owCOMMENT             
v1/stgcac20212-b215-45a8-80c3-72a5d1f51e01/SWOT_HBX_20241101COMMENT             
T025454_20241031T235329_20241101T002609_O_APID1280.PTM_0    COMMENT             
  2024    10    31    23    53   10.0000000                 TIME OF FIRST OBS   
G L1C                                                       SYS / PHASE SHIFT   
G L1W -0.25000                                              SYS / PHASE SHIFT   
G L2W                                                       SYS / PHASE SHIFT   
G L2X  0.25000                                              SYS / PHASE SHIFT   
                                                            END OF HEADER       
> 2024 10 31 23 53 10.0000000  0  9
G05  24460505.518    24460504.403    24460505.707                     -944294.762 7   -944294.774 6                   -735816.514 7        94.000          27.000          71.000                  
G10  23625254.224    23625253.461    23625257.369                    -8030201.501 8  -8030201.500 7                  -6257298.183 8       177.000          75.000         255.000                  
G13  22816905.553    22816904.721    22816905.896                    -6034408.708 8  -6034408.702 6                  -4702137.847 7       214.000          31.000          62.000                  
G15  19943075.374    19943075.101    19943075.454                   -21167888.794 9 -21167888.795 9                 -16494458.168 9       612.000         845.000        1125.000                  
G18  20179018.733    20179018.399    20179019.146                   -22683073.296 9 -22683073.292 8                 -17675120.393 9       584.000         434.000         636.000                  
G23  20768248.545    20768248.589    20768249.032                   -21606275.655 9 -21606275.651 8                 -16836056.350 8       505.000         325.000         380.000                  
G24  22838329.308    22838329.276    22838332.675                   -11032243.420 8 -11032243.423 7                  -8596554.913 8       194.000          94.000         349.000                  
G29  20970128.553    20970127.835    20970128.734                   -16750805.570 9 -16750805.572 9                 -13052576.926 9       534.000         640.000        1025.000                  
G32  25155121.346    25155121.230    25155122.909                     1887145.412 8   1887145.425 6                   1470501.631 6       104.000          35.000          28.000                  
> 2024 10 31 23 53 20.0000000  0  9
G05  24419534.170    24419533.771    24419535.060                    -1159598.945 7  -1159598.931 6                   -903585.950 7        95.000          28.000          76.000                  
G10  23635002.545    23635001.579    23635005.163                    -7978975.679 8  -7978975.679 7                  -6217381.940 8       173.000          79.000         251.000                  
G13  22764996.453    22764996.199    22764995.768                    -6307194.420 8  -6307194.434 6                  -4914698.091 7       218.000          38.000          67.000                  
G15  19911351.737    19911351.417    19911351.901                   -21334597.515 9 -21334597.515 9                 -16624361.032 9       608.000         831.000        1192.000                  
G18  20140819.967    20140819.693    20140820.352                   -22883809.002 9 -22883808.998 8                 -17831537.801 9       595.000         461.000         637.000                  
G23  20747542.043    20747541.281    20747542.021                   -21715091.074 9 -21715091.070 8                 -16920847.567 8       512.000         338.000         391.000                  
G24  22865955.461    22865955.403    22865958.660                   -10887068.390 8 -10887068.396 7                  -8483431.528 8       195.000          92.000         340.000                  
G29  21027043.668    21027042.931    21027043.862                   -16451714.719 8 -16451714.721 9                 -12819519.148 9       500.000         562.000         974.000                  
G32  25215121.456    25215120.237    25215123.011                     2202445.780 8   2202445.775 6                   1716190.179 6       105.000          33.000          30.000                  
> 2024 10 31 23 53 30.0000000  0  9
G05  24378865.996    24378865.853    24378866.463                    -1373309.754 8  -1373309.730 6                  -1070113.821 7       102.000          30.000          72.000                  
G10  23645078.667    23645077.065    23645081.197                    -7926026.221 8  -7926026.227 7                  -6176122.591 8       171.000          74.000         254.000                  
G13  22713319.519    22713319.252    22713318.956                    -6578758.682 8  -6578758.664 6                  -5126306.560 7       221.000          29.000          72.000                  
G15  19880240.642    19880240.556    19880241.038                   -21498086.250 9 -21498086.251 9                 -16751754.816 9       601.000         813.000        1284.000                  
G18  20103577.629    20103577.104    20103577.796                   -23079520.075 9 -23079520.070 8                 -17984039.912 9       609.000         468.000         629.000                  
G23  20727480.148    20727479.997    20727480.501                   -21820515.357 9 -21820515.352 8                 -17002996.344 8       509.000         339.000         380.000                  
G24  22893856.477    22893856.071    22893859.359                   -10740448.092 8 -10740448.086 7                  -8369181.962 8       189.000          91.000         328.000                  
G29  21084759.253    21084758.703    21084759.653                   -16148416.423 8 -16148416.424 8                 -12583182.849 9       460.000         478.000         928.000                  
G32  25275191.689    25275190.137    25275194.068                     2518114.233 8   2518114.224 6                   1962165.517 6       104.000          32.000          29.000                  
> 2024 10 31 23 53 40.0000000  0  9
G05  24338504.446    24338503.583    24338504.999                    -1585415.256 8  -1585415.252 6                  -1235390.793 7       101.000          35.000          86.000                  
G10  23655479.617    23655479.582    23655483.555                    -7871361.881 8  -7871361.886 7                  -6133526.969 8       167.000          78.000         259.000                  
G13  22661878.681    22661878.174    22661878.010                    -6849083.256 8  -6849083.251 6                  -5336949.033 7       225.000          36.000          73.000                  
G15  19849745.656    19849745.328    19849746.045                   -21658338.900 9 -21658338.901 9                 -16876626.977 9       586.000         779.000        1395.000                  
G18  20067298.992    20067298.765    20067299.427                   -23270163.985 9 -23270163.982 8                 -18132593.582 9       619.000         488.000         631.000                  
G23  20708066.984    20708066.732    20708067.335                   -21922532.720 9 -21922532.717 8                 -17082490.377 8       514.000         346.000         388.000                  
G24  22922026.666    22922026.104    22922029.593                   -10592412.651 8 -10592412.650 7                  -8253829.705 8       187.000          89.000         323.000                  
G29  21143259.366    21143258.956    21143259.908                   -15840995.223 8 -15840995.224 8                 -12343633.901 9       430.000         428.000         896.000                  
G32  25335323.367    25335323.169    25335326.011                     2834114.876 8   2834114.877 6                   2208399.722 6       101.000          35.000          39.000                  
> 2024 10 31 23 53 50.0000000  0  9
G05  24298453.706    24298452.182    24298454.224                    -1795883.417 8  -1795883.394 6                  -1399391.922 7       107.000          32.000          88.000                  
G10  23666210.648    23666210.440    23666214.344                    -7814971.338 8  -7814971.342 7                  -6089586.253 8       165.000          73.000         259.000                  
G13  22610680.106    22610679.894    22610680.364                    -7118129.749 8  -7118129.743 6                  -5546595.592 7       225.000          36.000          72.000                  
G15  19819872.895    19819872.791    19819873.600                   -21815319.456 9 -21815319.457 9                 -16998949.455 9       574.000         744.000        1482.000                  
G18  20031996.846    20031996.395    20031996.971                   -23455679.000 9 -23455678.995 9                 -18277150.711 9       631.000         507.000         626.000                  
G23  20689308.862    20689308.571    20689308.999                   -22021107.693 9 -22021107.689 8                 -17159302.023 8       518.000         345.000         381.000                  
G24  22950464.016    22950464.102    22950467.240                   -10442971.930 8 -10442971.944 7                  -8137382.427 8       184.000          84.000         312.000                  
G29  21202532.148    21202531.664    21202532.438                   -15529515.639 8 -15529515.641 8                 -12100922.583 9       405.000         376.000         877.000                  
G32  25395515.516    25395516.449    25395519.908                     3150432.231 8   3150432.228 6                   2454880.718 6       105.000          30.000          35.000                  
> 2024 10 31 23 54  0.0000000  0  9
G05  24258717.045    24258716.519    24258717.767                    -2004697.257 8  -2004697.254 6                  -1562103.979 7       105.000          36.000          87.000                  
G10  23677269.318    23677269.007    23677272.730                    -7756858.392 8  -7756858.394 7                  -6044303.419 8       171.000          73.000         255.000                  
G13  22559730.173    22559729.842    22559729.811                    -7385874.234 8  -7385874.235 6                  -5755227.616 7       235.000          40.000          78.000                  
G15  19790627.276    19790626.959    19790627.712                   -21969007.238 9 -21969007.239 9                 -17118706.139 9       576.000         753.000        1531.000                  
G18  19997679.070    19997678.785    19997679.346                   -23636019.248 9 -23636019.243 9                 -18417675.541 9       647.000         535.000         623.000                  
G23  20671209.389    20671208.977    20671209.674                   -22116220.234 9 -22116220.229 8                 -17233415.677 8       523.000         347.000         370.000                  
G24  22979165.114    22979164.333    22979167.555                   -10292150.663 8 -10292150.664 7                  -8019859.386 8       181.000          79.000         305.000                  
G29  21262561.589    21262561.273    21262562.267                   -15214057.279 8 -15214057.283 8                 -11855110.924 9       377.000         320.000         854.000                  
G32  25455765.257    25455764.368    25455767.400                     3467036.110 8   3467036.124 6                   2701584.963 6       103.000          35.000          36.000                  
> 2024 10 31 23 54 10.0000000  0  9
G05  24219301.791    24219300.547    24219302.087                    -2211828.169 8  -2211828.200 6                  -1723504.656 7       111.000          30.000          85.000                  
G10  23688657.138    23688656.496    23688660.345                    -7697015.164 8  -7697015.161 7                  -5997672.315 8       166.000          71.000         254.000                  
G13  22509035.053    22509034.440    22509034.583                    -7652281.089 8  -7652281.087 6                  -5962817.329 7       238.000          40.000          79.000                  
G15  19762013.637    19762013.760    19762014.584                   -22119370.482 9 -22119370.483 9                 -17235872.272 9       570.000         732.000        1587.000                  
G18  19964356.917    19964356.634    19964357.225                   -23811128.240 9 -23811128.234 9                 -18554124.081 9       655.000         540.000         612.000                  
G23  20653775.138    20653774.666    20653775.186                   -22207839.023 9 -22207839.019 8                 -17304806.937 8       525.000         348.000         374.000                  
G24  23008125.759    23008124.706    23008128.126                   -10139961.769 8 -10139961.782 7                  -7901270.659 8       180.000          82.000         299.000                  
G29  21323335.656    21323335.147    21323336.262                   -14894688.241 8 -14894688.243 8                 -11606251.979 9       353.000         280.000         887.000                  
G32  25516063.783    25516063.271    25516067.065                     3783908.285 8   3783908.292 6                   2948498.265 6       103.000          33.000          38.000                  
> 2024 10 31 23 54 20.0000000  0  9
G05  24180206.973    24180206.304    24180207.446                    -2417271.448 8  -2417271.438 6                  -1883590.285 7       112.000          40.000          95.000                  
G10  23700371.200    23700370.214    23700374.351                    -7635457.693 8  -7635457.686 7                  -5949705.443 8       168.000          68.000         248.000                  
G13  22458596.530    22458595.725    22458595.420                    -7917338.248 8  -7917338.254 6                  -6169355.340 7       240.000          42.000          81.000                  
G15  19734034.992    19734034.651    19734035.545                   -22266401.270 9 -22266401.272 9                 -17350441.681 9       569.000         731.000        1672.000                  
G18  19932036.227    19932036.028    19932036.583                   -23980974.204 9 -23980974.197 9                 -18686471.559 9       664.000         559.000         616.000                  
G23  20637006.778    20637006.424    20637006.952                   -22295957.023 9 -22295957.018 8                 -17373470.305 8       527.000         347.000         380.000                  
G24  23037338.905    23037339.107    23037342.059                    -9986441.989 8  -9986441.990 7                  -7781644.876 8       178.000          87.000         307.000                  
G29  21384836.307    21384835.756    21384836.979                   -14571500.486 8 -14571500.487 8                 -11354417.409 9       340.000         268.000         922.000                  
G32  25576405.723    25576405.330    25576408.678                     4101006.951 7   4101006.932 6                   3195588.062 6        97.000          34.000          44.000                  
> 2024 10 31 23 54 30.0000000  0  9
G05  24141444.149    24141441.995    24141443.139                    -2620979.500 8  -2620979.487 6                  -2042323.809 7       115.000          35.000          95.000                  
G10  23712416.615    23712415.988    23712419.640                    -7572159.161 8  -7572159.162 7                  -5900381.903 8       169.000          77.000         245.000                  
G13  22408425.273    22408424.037    22408424.511                    -8180990.497 8  -8180990.508 6                  -6374798.620 7       245.000          42.000          85.000                  
G15  19706699.916    19706699.451    19706700.176                   -22410049.075 9 -22410049.075 9                 -17462375.003 9       594.000         805.000        1657.000                  
G18  19900731.086    19900730.940    19900731.422                   -24145483.525 9 -24145483.518 9                 -18814660.616 9       667.000         576.000         611.000                  
G23  20620913.957    20620913.782    20620914.112                   -22380524.686 9 -22380524.679 8                 -17439367.162 8       529.000         359.000         380.000                  
G24  23066808.221    23066807.259    23066810.642                    -9831584.807 8  -9831584.808 7                  -7660976.966 8       181.000          79.000         304.000                  
G29  21447054.304    21447053.872    21447055.087                   -14244542.784 8 -14244542.788 8                 -11099645.218 9       335.000         251.000         961.000                  
G32  25636789.768    25636790.330    25636793.497                     4418333.569 7   4418333.571 6                   3442855.470 6        95.000          33.000          47.000                  
> 2024 10 31 23 54 40.0000000  0  9
G05  24103006.714    24103005.679    24103006.279                    -2822964.939 8  -2822964.930 6                  -2199715.023 7       122.000          42.000          94.000                  
G10  23724787.597    23724786.205    23724789.923                    -7507153.055 8  -7507153.062 7                  -5849727.781 8       171.000          76.000         235.000                  
G13  22358519.727    22358519.187    22358518.960                    -8443242.707 8  -8443242.716 6                  -6579150.932 7       250.000          41.000          91.000                  
G15  19680006.183    19680006.010    19680006.648                   -22550324.105 9 -22550324.107 9                 -17571680.194 9       625.000         881.000        1652.000                  
G18  19870443.909    19870443.686    19870444.280                   -24304643.920 9 -24304643.915 9                 -18938681.673 9       664.000         563.000         615.000                  
G23  20605494.797    20605494.362    20605494.953                   -22461553.293 9 -22461553.288 8                 -17502506.320 8       525.000         346.000         373.000                  
G24  23096519.861    23096520.053    23096523.241                    -9675444.001 8  -9675444.001 7                  -7539308.834 8       181.000          74.000         306.000                  
G29  21509968.872    21509968.575    21509969.589                   -13913924.400 8 -13913924.403 8                 -10842020.535 9       331.000         253.000         965.000                  
G32  25697208.536    25697207.424    25697211.593                     4735829.613 7   4735829.620 6                   3690254.910 6        93.000          33.000          46.000                  
> 2024 10 31 23 54 50.0000000  0  9
G05  24064907.038    24064906.950    24064907.973                    -3023173.838 8  -3023173.839 6                  -2355721.945 7       122.000          40.000          87.000                  
G10  23737488.638    23737487.914    23737491.249                    -7440406.388 8  -7440406.396 7                  -5797717.378 8       172.000          73.000         231.000                  
G13  22308893.337    22308892.657    22308892.382                    -8704033.094 8  -8704033.104 6                  -6782364.178 7       249.000          43.000          89.000                  
G15  19653965.417    19653965.145    19653965.630                   -22687170.299 9 -22687170.300 9                 -17678313.559 9       640.000         924.000        1675.000                  
G18  19841189.255    19841189.184    19841189.696                   -24458377.651 9 -24458377.643 9                 -19058474.166 9       666.000         559.000         641.000                  
G23  20590759.429    20590759.214    20590759.681                   -22538987.936 9 -22538987.930 8                 -17562844.985 8       525.000         353.000         387.000                  
G24  23126479.090    23126479.533    23126482.656                    -9518006.518 8  -9518006.521 7                  -7416630.312 8       182.000          81.000         306.000                  
G29  21573572.383    21573571.376    21573572.709                   -13579687.915 8 -13579687.915 8                 -10581576.548 9       325.000         245.000         954.000                  
G32  25757659.971    25757658.720    25757662.555                     5053503.388 7   5053503.402 6                   3937792.829 7        91.000          30.000          51.000                  
> 2024 10 31 23 55  0.0000000  0  9
G05  24027145.552    24027145.655    24027146.233                    -3221612.662 8  -3221612.656 6                  -2510349.554 7       129.000          37.000          89.000                  
G10  23750515.411    23750515.362    23750518.961                    -7371946.574 8  -7371946.569 7                  -5744372.055 8       168.000          74.000         226.000                  
G13  22259544.598    22259544.106    22259544.291                    -8963359.915 8  -8963359.903 6                  -6984436.986 7       255.000          45.000          97.000                  
G15  19628575.996    19628575.643    19628576.221                   -22820592.376 9 -22820592.378 9                 -17782278.780 9       645.000         938.000        1620.000                  
G18  19812970.552    19812970.286    19812970.918                   -24606668.407 9 -24606668.399 9                 -19174025.385 9       661.000         549.000         643.000                  
G23  20576706.644    20576706.523    20576706.978                   -22612834.558 9 -22612834.552 8                 -17620387.777 8       526.000         357.000         379.000                  
G24  23156676.841    23156676.888    23156679.716                    -9359319.595 8  -9359319.600 7                  -7292978.225 8       179.000          83.000         298.000                  
G29  21637844.193    21637843.661    21637844.821                   -13241936.089 8 -13241936.091 8                 -10318393.346 9       324.000         239.000         943.000                  
G32  25818135.119    25818133.958    25818137.920                     5371303.195 7   5371303.219 6                   4185428.955 6        82.000          27.000          50.000                  
> 2024 10 31 23 55 10.0000000  0  9
G05  23989728.365    23989727.471    23989728.065                    -3418245.280 8  -3418245.274 6                  -2663569.706 7       132.000          45.000          96.000                  
G10  23763872.070    23763871.651    23763874.994                    -7301758.440 8  -7301758.436 7                  -5689679.994 8       169.000          74.000         218.000                  
G13  22210483.199    22210482.743    22210483.193                    -9221178.552 8  -9221178.562 6                  -7185334.569 8       261.000          41.000         101.000                  
G15  19603845.299    19603845.007    19603845.561                   -22950552.694 9 -22950552.696 9                 -17883546.522 9       649.000         947.000        1570.000                  
G18  19785798.358    19785798.185    19785798.814                   -24749458.412 9 -24749458.404 9                 -19285290.294 9       663.000         552.000         661.000                  
G23  20563343.976    20563343.687    20563344.018                   -22683056.994 9 -22683056.989 8                 -17675106.534 8       528.000         351.000         374.000                  
G24  23187110.844    23187110.880    23187113.975                    -9199387.506 8  -9199387.512 7                  -7168355.865 8       179.000          81.000         291.000                  
G29  21702773.974    21702773.209    21702774.379                   -12900729.108 8 -12900729.111 8                 -10052517.833 9       328.000         238.000         943.000                  
G32  25878631.484    25878632.432    25878635.365                     5689220.208 7   5689220.220 6                   4433156.416 7        85.000          27.000          52.000                  
> 2024 10 31 23 55 20.0000000  0  9
G05  23952657.891    23952656.548    23952657.329                    -3613053.284 8  -3613053.284 6                  -2815368.109 7       130.000          47.000         100.000                  
G10  23777556.401    23777556.464    23777559.877                    -7229844.311 8  -7229844.318 7                  -5633643.010 8       165.000          73.000         202.000                  
G13  22161714.634    22161713.550    22161713.806                    -9477461.747 8  -9477461.757 7                  -7385035.700 7       262.000          51.000          95.000                  
G15  19579777.297    19579776.839    19579777.426                   -23077031.423 9 -23077031.426 9                 -17982101.336 9       650.000         961.000        1529.000                  
G18  19759680.575    19759680.316    19759680.977                   -24886708.545 9 -24886708.535 9                 -19392238.416 9       656.000         551.000         702.000                  
G23  20550674.172    20550673.799    20550674.215                   -22749636.928 9 -22749636.922 8                 -17726986.956 8       528.000         364.000         370.000                  
G24  23217778.383    23217777.596    23217780.847                    -9038231.858 8  -9038231.853 7                  -7042780.054 8       178.000          78.000         285.000                  
G29  21768346.346    21768345.505    21768346.850                   -12556144.355 8 -12556144.355 8                  -9784010.299 9       332.000         245.000         938.000                  
G32  25939147.591    25939147.116    25939151.470                     6007228.556 7   6007228.558 6                   4680955.014 7        78.000          23.000          61.000                  
> 2024 10 31 23 55 30.0000000  0  9
G05  23915934.808    23915934.238    23915934.950                    -3806029.783 8  -3806029.798 6                  -2965739.337 8       134.000          43.000         104.000                  
G10  23791567.938    23791566.980    23791570.384                    -7156218.448 8  -7156218.442 7                  -5576272.213 8       165.000          72.000         196.000                  
G13  22113240.209    22113239.945    22113239.600                    -9732193.905 8  -9732193.895 6                  -7583528.240 7       257.000          39.000          95.000                  
G15  19556372.957    19556372.696    19556373.178                   -23200020.996 9 -23200020.997 9                 -18077937.326 9       650.000         956.000        1456.000                  
G18  19734621.847    19734621.588    19734622.175                   -25018392.776 9 -25018392.767 9                 -19494849.473 9       656.000         555.000         716.000                  
G23  20538698.537    20538698.398    20538698.755                   -22812568.541 9 -22812568.535 8                 -17776024.539 8       531.000         369.000         359.000                  
G24  23248670.692    23248670.960    23248674.216                    -8875886.028 8  -8875886.028 7                  -6916276.818 8       175.000          76.000         272.000                  
G29  21834544.330    21834543.736    21834545.039                   -12208270.607 8 -12208270.607 8                  -9512939.924 9       324.000         242.000         886.000                  
G32  25999673.264    25999672.419    25999676.346                     6325290.731 7   6325290.735 6                   4928795.579 6        78.000          25.000          47.000                  
> 2024 10 31 23 55 40.0000000  0 10
G05  23879569.009    23879569.450    23879570.215                    -3997129.179 8  -3997129.172 6                  -3114647.887 8       134.000          44.000         116.000                  
G10  23805908.486    23805907.793    23805911.458                    -7080855.844 8  -7080855.849 7                  -5517548.109 8       163.000          70.000         195.000                  
G13  22065071.830    22065071.069    22065071.447                    -9985319.889 8  -9985319.903 6                  -7780769.201 7       257.000          42.000          96.000                  
G15  19533641.708    19533641.329    19533641.806                   -23319475.032 9 -23319475.034 9                 -18171018.353 9       651.000         968.000        1474.000                  
G18  19710634.472    19710634.278    19710634.813                   -25144447.072 9 -25144447.060 9                 -19593073.565 9       657.000         556.000         773.000                  
G23  20527426.020    20527425.534    20527425.784                   -22871807.173 9 -22871807.168 8                 -17822184.462 8       540.000         370.000         371.000                  
G24  23279791.987    23279791.814    23279795.208                    -8712343.953 8  -8712343.957 7                  -6788841.454 8       178.000          84.000         272.000                  
G27  24391237.450    24391231.388    24391247.176                     -317720.572 7   -317720.591 6                   -247577.263 7        60.000          21.000          64.000                  
G29  21901359.108    21901358.432    21901359.681                   -11857157.261 8 -11857157.260 8                  -9239345.180 9       322.000         228.000         861.000                  
G32  26060210.397    26060208.598    26060212.059                     6643408.827 7   6643408.830 6                   5176679.699 7        73.000          22.000          52.000                  
> 2024 10 31 23 55 50.0000000  0 10
G05  23843559.399    23843558.812    23843559.510                    -4186365.868 8  -4186365.872 6                  -3262104.984 8       138.000          49.000         126.000                  
G10  23820573.608    23820572.791    23820576.252                    -7003791.837 8  -7003791.827 7                  -5457498.238 8       158.000          65.000         192.000                  
G13  22017208.483    22017207.359    22017208.150                   -10236844.696 8 -10236844.704 6                  -7976762.515 7       257.000          40.000          95.000                  
G15  19511580.205    19511580.080    19511580.500                   -23435407.810 9 -23435407.812 9                 -18261355.545 9       662.000         986.000        1513.000                  
G18  19687718.895    19687718.630    19687719.314                   -25264868.897 9 -25264868.886 9                 -19686908.719 9       657.000         554.000         810.000                  
G23  20516853.021    20516852.518    20516852.837                   -22927368.949 9 -22927368.945 8                 -17865479.296 8       547.000         388.000         366.000                  
G24  23311130.691    23311130.541    23311133.883                    -8547659.532 8  -8547659.529 7                  -6660515.936 8       173.000          81.000         272.000                  
G27  24338667.007    24338665.238    24338672.856                     -593967.293 7   -593967.309 6                   -462833.302 8        66.000          27.000         131.000                  
G29  21968769.610    21968768.989    21968770.111                   -11502913.731 8 -11502913.731 8                  -8963311.315 9       323.000         224.000         822.000                  
G32  26120744.870    26120744.320    26120747.171                     6961525.014 7   6961525.009 6                   5424562.339 6        68.000          23.000          46.000                  
> 2024 10 31 23 56  0.0000000  0 10
G05  23807912.911    23807913.216    23807913.475                    -4373687.392 8  -4373687.372 6                  -3408069.751 8       143.000          50.000         135.000                  
G10  23835568.084    23835567.647    23835570.802                    -6924994.881 8  -6924994.879 7                  -5396098.024 8       155.000          68.000         198.000                  
G13  21969661.423    21969660.064    21969660.870                   -10486705.999 8 -10486705.992 6                  -8171459.561 7       256.000          44.000          96.000                  
G15  19490199.065    19490198.647    19490199.129                   -23547767.140 9 -23547767.143 9                 -18348908.230 9       650.000         950.000        1556.000                  
G18  19665888.052    19665887.860    19665888.626                   -25379590.158 9 -25379590.146 9                 -19776301.879 9       665.000         575.000         867.000                  
G23  20506988.852    20506988.661    20506988.939                   -22979203.627 9 -22979203.622 8                 -17905869.895 8       556.000         392.000         372.000                  
G24  23342688.682    23342688.660    23342692.004                    -8381819.515 8  -8381819.514 7                  -6531289.918 8       172.000          72.000         253.000                  
G27  24286475.886    24286472.912    24286478.275                     -868249.752 7   -868249.756 6                   -676559.932 8        69.000          23.000         132.000                  
G29  22036767.614    22036766.802    22036768.123                   -11145582.363 8 -11145582.365 8                  -8684871.334 9       327.000         240.000         790.000                  
G32  26181279.426    26181280.810    26181284.876                     7279648.687 7   7279648.723 6                   5672450.815 6        64.000          29.000          47.000                  
> 2024 10 31 23 56 10.0000000  0 10
G05  23772629.883    23772629.932    23772630.533                    -4559099.956 8  -4559099.950 7                  -3552547.022 8       144.000          53.000         141.000                  
G10  23850886.525    23850886.336    23850889.949                    -6844492.257 8  -6844492.260 7                  -5333368.710 8       150.000          58.000         200.000                  
G13  21922431.380    21922430.761    21922430.879                   -10734900.393 8 -10734900.385 6                  -8364857.734 7       259.000          43.000          96.000                  
G15  19469496.165    19469496.002    19469496.552                   -23656559.873 9 -23656559.874 9                 -18433681.748 9       642.000         943.000        1579.000                  
G18  19645143.788    19645143.452    19645144.182                   -25488602.851 9 -25488602.840 9                 -19861246.807 9       678.000         586.000         909.000                  
G23  20497832.524    20497832.336    20497832.558                   -23027320.318 9 -23027320.313 8                 -17943363.376 8       566.000         403.000         366.000                  
G24  23374458.992    23374458.347    23374461.422                    -8214869.505 8  -8214869.516 7                  -6401199.008 8       167.000          76.000         245.000                  
G27  24234660.393    24234659.214    24234662.844                    -1140538.860 7  -1140538.859 6                   -888733.186 8        74.000          23.000         137.000                  
G29  22105333.485    22105333.158    22105334.478                   -10785263.972 8 -10785263.973 8                  -8404103.789 9       325.000         241.000         759.000                  
G32  26241810.137    26241809.678    26241812.965                     7597730.749 7   7597730.741 6                   5920306.871 6        62.000          23.000          44.000                  
> 2024 10 31 23 56 20.0000000  0 10
G05  23737717.092    23737716.243    23737717.146                    -4742570.729 8  -4742570.735 6                  -3695511.216 8       144.000          49.000         148.000                  
G10  23866532.427    23866532.528    23866535.851                    -6762271.823 8  -6762271.821 7                  -5269300.844 8       145.000          55.000         185.000                  
G13  21875526.693    21875526.396    21875526.910                   -10981384.674 8 -10981384.680 6                  -8556923.372 8       259.000          46.000         107.000                  
G15  19449478.727    19449478.334    19449478.822                   -23761753.895 9 -23761753.896 9                 -18515651.077 9       666.000        1003.000        1606.000                  
G18  19625494.401    19625494.113    19625494.834                   -25591860.865 9 -25591860.853 9                 -19941707.561 9       691.000         612.000         929.000                  
G23  20489389.368    20489389.299    20489389.542                   -23071689.115 9 -23071689.110 8                 -17977936.421 8       568.000         409.000         360.000                  
G24  23406438.729    23406437.942    23406441.258                    -8046815.171 8  -8046815.175 7                  -6270247.593 8       166.000          67.000         241.000                  
G27  24183238.318    24183237.161    24183240.440                    -1410768.058 7  -1410768.051 6                  -1099301.335 8        81.000          30.000         127.000                  
G29  22174456.873    22174456.518    22174457.567                   -10422019.422 8 -10422019.424 8                  -8121056.114 9       317.000         225.000         706.000                  
G32  26302330.451    26302329.305    26302333.224                     7915761.936 7   7915761.949 6                   6168123.250 6        56.000          18.000          42.000                  
> 2024 10 31 23 56 30.0000000  0  9
G05  23703176.492    23703175.961    23703176.610                    -4924081.992 8  -4924082.003 7                  -3836948.513 8       144.000          51.000         151.000                  
G10  23882505.422    23882504.649    23882508.270                    -6678336.792 8  -6678336.798 7                  -5203896.914 8       142.000          61.000         188.000                  
G13  21828952.868    21828952.500    21828953.096                   -11226130.751 8 -11226130.744 6                  -8747634.543 8       259.000          43.000         109.000                  
G15  19430148.734    19430148.518    19430148.945                   -23863332.823 9 -23863332.824 9                 -18594803.449 9       678.000        1049.000        1719.000                  
G18  19606945.674    19606945.484    19606946.105                   -25689334.864 9 -25689334.853 9                 -20017661.297 9       705.000         646.000         977.000                  
G23  20481662.374    20481661.909    20481662.172                   -23112296.093 9 -23112296.087 8                 -18009578.191 8       564.000         400.000         382.000                  
G24  23438624.136    23438623.806    23438626.882                    -7877677.303 8  -7877677.307 7                  -6138451.830 8       163.000          71.000         230.000                  
G27  24132216.140    24132216.029    24132219.556                    -1678885.305 7  -1678885.291 6                  -1308223.802 8        85.000          30.000         135.000                  
G29  22244122.695    22244122.080    22244123.095                   -10055924.612 8 -10055924.614 8                  -7835787.453 9       305.000         216.000         685.000                  
> 2024 10 31 23 56 40.0000000  0  9
G05  23669009.061    23669009.257    23669009.741                    -5103629.302 8  -5103629.321 7                  -3976855.452 8       148.000          61.000         156.000                  
G10  23898800.755    23898800.170    23898803.642                    -6592703.643 8  -6592703.647 6                  -5137169.789 8       137.000          49.000         190.000                  
G13  21782712.928    21782712.140    21782712.859                   -11469123.616 8 -11469123.596 6                  -8936979.580 8       262.000          44.000         112.000                  
G15  19411507.421    19411507.181    19411507.553                   -23961293.902 9 -23961293.905 9                 -18671136.719 9       697.000        1097.000        1738.000                  
G18  19589500.234    19589500.156    19589500.845                   -25781010.008 9 -25781009.996 9                 -20089096.444 9       717.000         664.000         978.000                  
G23  20474650.849    20474650.576    20474650.907                   -23149140.920 9 -23149140.914 8                 -18038288.406 8       565.000         407.000         376.000                  
G24  23471009.767    23471009.552    23471012.825                    -7707489.831 8  -7707489.827 7                  -6005838.216 8       159.000          64.000         233.000                  
G27  24081605.030    24081603.744    24081607.181                    -1944851.726 7  -1944851.741 6                  -1515470.305 8        89.000          31.000         141.000                  
G29  22314313.379    22314312.909    22314314.088                    -9687068.175 8  -9687068.177 8                  -7548366.875 9       297.000         198.000         636.000                  
> 2024 10 31 23 56 50.0000000  0  9
G05  23635225.982    23635224.742    23635225.480                    -5281167.300 8  -5281167.300 7                  -4115196.715 8       147.000          52.000         163.000                  
G10  23915425.085    23915423.343    23915426.685                    -6505347.597 8  -6505347.601 6                  -5069100.126 8       135.000          47.000         187.000                  
G13  21736817.128    21736816.574    21736817.186                   -11710306.830 8 -11710306.832 6                  -9124914.501 8       274.000          45.000         103.000                  
G15  19393562.774    19393562.542    19393562.812                   -24055593.739 9 -24055593.741 9                 -18744617.070 9       704.000        1120.000        1757.000                  
G18  19573168.982    19573168.839    19573169.417                   -25866831.771 9 -25866831.759 9                 -20155970.509 9       725.000         682.000         981.000                  
G23  20468363.150    20468362.841    20468363.183                   -23182182.742 9 -23182182.737 8                 -18064035.244 8       561.000         397.000         378.000                  
G24  23503596.941    23503596.397    23503599.403                    -7536245.085 8  -7536245.095 7                  -5872400.741 8       154.000          64.000         218.000                  
G27  24031418.907    24031417.103    24031419.882                    -2208587.033 7  -2208587.035 6                  -1720978.284 8        93.000          31.000         144.000                  
G29  22385021.124    22385020.553    22385021.771                    -9315497.151 8  -9315497.152 8                  -7258831.037 9       296.000         195.000         616.000                  
> 2024 10 31 23 57  0.0000000  0  9
G05  23601820.280    23601819.547    23601820.240                    -5456712.123 8  -5456712.119 7                  -4251984.825 8       152.000          61.000         161.000                  
G10  23932368.353    23932367.330    23932371.060                    -6416305.588 8  -6416305.578 6                  -4999716.697 8       129.000          42.000         193.000                  
G13  21691264.783    21691264.180    21691264.918                   -11949685.446 8 -11949685.449 7                  -9311443.231 8       282.000          55.000         103.000                  
G15  19376311.224    19376310.946    19376311.309                   -24146251.003 9 -24146251.006 9                 -18815259.056 9       708.000        1120.000        1812.000                  
G18  19557949.853    19557949.648    19557950.295                   -25946808.769 9 -25946808.757 9                 -20218290.216 9       747.000         724.000         998.000                  
G23  20462795.160    20462794.807    20462795.062                   -23211442.930 9 -23211442.923 8                 -18086835.362 8       558.000         391.000         374.000                  
G24  23536373.911    23536373.852    23536377.343                    -7363996.986 8  -7363996.987 7                  -5738181.450 8       153.000          62.000         218.000                  
G27  23981658.471    23981658.353    23981660.927                    -2470072.698 7  -2470072.688 6                  -1924733.276 8        93.000          31.000         149.000                  
G29  22456224.188    22456224.005    22456225.501                    -8941319.871 8  -8941319.873 8                  -6967264.348 9       286.000         189.000         576.000                  
> 2024 10 31 23 57 10.0000000  0  9
G05  23568804.089    23568803.617    23568804.257                    -5630213.231 8  -5630213.248 7                  -4387180.436 8       155.000          57.000         174.000                  
G10  23949638.493    23949637.935    23949641.538                    -6325547.806 8  -6325547.807 6                  -4928996.319 8       129.000          49.000         189.000                  
G13  21646068.283    21646067.107    21646067.551                   -12187197.468 8 -12187197.480 7                  -9496517.481 8       285.000          51.000         113.000                  
G15  19359761.837    19359761.590    19359762.070                   -24233217.816 9 -24233217.817 9                 -18883025.363 9       702.000        1119.000        1832.000                  
G18  19543853.814    19543853.712    19543854.108                   -26020884.112 9 -26020884.101 9                 -20276011.230 9       773.000         766.000        1029.000                  
G23  20457955.399    20457954.991    20457955.309                   -23236876.421 9 -23236876.415 8                 -18106653.635 8       552.000         386.000         369.000                  
G24  23569345.176    23569345.059    23569348.488                    -7190732.157 8  -7190732.150 7                  -5603169.887 8       146.000          55.000         205.000                  
G27  23932344.576    23932343.439    23932346.087                    -2729222.993 7  -2729223.001 6                  -2126668.521 8        93.000          30.000         157.000                  
G29  22527916.110    22527916.074    22527917.257                    -8564577.385 8  -8564577.384 8                  -6673698.801 9       285.000         186.000         525.000                  
> 2024 10 31 23 57 20.0000000  0  9
G05  23536174.899    23536174.523    23536174.900                    -5801679.864 8  -5801679.869 7                  -4520790.739 8       157.000          66.000         186.000                  
G10  23967229.245    23967229.441    23967233.054                    -6233104.071 8  -6233104.048 6                  -4856962.210 8       127.000          41.000         189.000                  
G13  21601226.655    21601226.359    21601225.762                   -12422840.605 8 -12422840.610 7                  -9680135.462 8       288.000          54.000         105.000                  
G15  19343912.594    19343912.249    19343912.642                   -24316506.534 9 -24316506.535 9                 -18947925.620 9       703.000        1116.000        1796.000                  
G18  19530879.931    19530879.705    19530880.331                   -26089062.223 9 -26089062.211 9                 -20329137.003 9       791.000         808.000        1071.000                  
G23  20453840.535    20453840.385    20453840.674                   -23258498.512 9 -23258498.507 8                 -18123501.968 8       549.000         383.000         368.000                  
G24  23602501.003    23602500.764    23602504.345                    -7016496.829 8  -7016496.833 7                  -5467402.084 8       144.000          58.000         208.000                  
G27  23883478.201    23883477.801    23883480.963                    -2986011.995 7  -2986012.011 6                  -2326763.800 8        92.000          28.000         162.000                  
G29  22600077.330    22600076.826    22600077.880                    -8185369.849 8  -8185369.846 8                  -6378212.434 8       288.000         182.000         474.000                  
> 2024 10 31 23 57 30.0000000  0  9
G05  23503940.423    23503938.958    23503939.331                    -5971078.751 8  -5971078.745 7                  -4652789.831 8       158.000          58.000         199.000                  
G10  23985144.799    23985143.921    23985147.917                    -6138961.604 8  -6138961.603 6                  -4783604.392 8       128.000          41.000         180.000                  
G13  21556749.372    21556748.876    21556748.807                   -12656569.504 8 -12656569.502 7                  -9862261.823 8       287.000          59.000         106.000                  
G15  19328768.711    19328768.529    19328768.772                   -24396087.392 9 -24396087.394 9                 -19009936.642 9       708.000        1126.000        1707.000                  
G18  19519035.267    19519035.061    19519035.595                   -26151306.330 9 -26151306.317 9                 -20377638.877 9       809.000         852.000        1091.000                  
G23  20450456.342    20450456.060    20450456.378                   -23276282.477 9 -23276282.471 8                 -18137359.559 8       544.000         375.000         365.000                  
G24  23635841.273    23635841.079    23635844.308                    -6841294.295 8  -6841294.316 7                  -5330880.611 8       142.000          53.000         192.000                  
G27  23835076.015    23835074.684    23835078.153                    -3240370.999 7  -3240370.986 6                  -2524965.575 8        96.000          30.000         169.000                  
G29  22672696.563    22672696.032    22672696.972                    -7803754.337 8  -7803754.342 8                  -6080849.720 8       285.000         184.000         432.000                  
> 2024 10 31 23 57 40.0000000  0  9
G05  23472101.015    23472099.579    23472100.157                    -6138395.499 8  -6138395.497 7                  -4783166.429 8       154.000          61.000         219.000                  
G10  24003382.175    24003381.032    24003384.344                    -6043126.749 8  -6043126.744 6                  -4708927.831 8       135.000          47.000         186.000                  
G13  21512641.608    21512640.926    21512640.989                   -12888357.911 8 -12888357.920 7                 -10042876.115 8       294.000          55.000         116.000                  
G15  19314332.614    19314332.243    19314332.554                   -24471950.177 9 -24471950.180 9                 -19069050.464 9       692.000        1092.000        1686.000                  
G18  19508322.839    19508322.646    19508323.182                   -26207600.304 9 -26207600.291 9                 -20421504.282 9       821.000         880.000        1106.000                  
G23  20447803.903    20447803.707    20447803.980                   -23290221.239 9 -23290221.233 8                 -18148220.894 8       542.000         374.000         371.000                  
G24  23669360.549    23669360.529    23669364.076                    -6665146.747 8  -6665146.754 6                  -5193622.763 8       138.000          47.000         191.000                  
G27  23787145.033    23787143.541    23787146.848                    -3492250.374 7  -3492250.382 6                  -2721235.173 8       100.000          34.000         183.000                  
G29  22745759.287    22745758.839    22745759.993                    -7419806.036 8  -7419806.036 8                  -5781669.239 8       277.000         173.000         401.000                  
> 2024 10 31 23 57 50.0000000  0  9
G05  23440656.753    23440656.916    23440657.674                    -6303626.263 8  -6303626.263 7                  -4911917.610 8       151.000          59.000         227.000                  
G10  24021937.024    24021936.044    24021940.355                    -5945615.933 8  -5945615.948 6                  -4632945.321 8       134.000          46.000         184.000                  
G13  21468906.192    21468905.138    21468905.373                   -13118189.480 8 -13118189.478 7                 -10221965.603 8       307.000          59.000         121.000                  
G15  19300603.874    19300603.458    19300603.779                   -24544095.164 9 -24544095.166 9                 -19125267.303 9       690.000        1064.000        1691.000                  
G18  19498743.593    19498743.429    19498743.864                   -26257939.642 9 -26257939.628 9                 -20460729.716 9       835.000         904.000        1109.000                  
G23  20445882.500    20445882.337    20445882.524                   -23300318.330 9 -23300318.324 8                 -18156088.721 8       542.000         372.000         370.000                  
G24  23703053.403    23703053.784    23703057.387                    -6488086.103 8  -6488086.107 6                  -5055653.410 8       134.000          50.000         183.000                  
G27  23739691.825    23739691.778    23739695.287                    -3741610.535 8  -3741610.526 6                  -2915541.751 8       101.000          36.000         194.000                  
G29  22819250.029    22819249.414    22819250.592                    -7033610.206 8  -7033610.208 8                  -5480737.442 8       265.000         164.000         376.000                  
> 2024 10 31 23 58  0.0000000  0  9
G05  23409620.581    23409619.270    23409620.102                    -6466728.715 8  -6466728.720 7                  -5039010.367 8       152.000          62.000         244.000                  
G10  24040815.909    24040814.659    24040819.028                    -5846407.419 8  -5846407.402 7                  -4555639.923 8       131.000          51.000         178.000                  
G13  21425553.004    21425552.731    21425552.410                   -13346009.485 8 -13346009.491 7                 -10399487.645 8       315.000          64.000         125.000                  
G15  19287589.633    19287589.285    19287589.678                   -24612484.929 9 -24612484.931 9                 -19178557.993 9       693.000        1082.000        1733.000                  
G18  19490305.318    19490305.127    19490305.539                   -26302283.151 9 -26302283.138 9                 -20495283.058 9       836.000         911.000        1121.000                  
G23  20444698.731    20444698.355    20444698.564                   -23306539.689 9 -23306539.684 8                 -18160936.499 8       539.000         374.000         367.000                  
G24  23736922.811    23736922.610    23736926.054                    -6310105.957 8  -6310105.971 6                  -4916967.595 8       136.000          45.000         175.000                  
G27  23692736.177    23692734.407    23692737.820                    -3988373.627 8  -3988373.631 6                  -3107824.657 8       104.000          31.000         208.000                  
G29  22893159.632    22893158.841    22893160.107                    -6645213.302 8  -6645213.303 8                  -5178090.525 8       252.000         144.000         359.000                  
> 2024 10 31 23 58 10.0000000  0  9
G05  23378984.855    23378983.287    23378984.403                    -6627720.309 8  -6627720.313 7                  -5164458.304 8       156.000          62.000         255.000                  
G10  24060010.930    24060009.804    24060013.684                    -5745538.859 8  -5745538.860 7                  -4477040.970 8       137.000          53.000         172.000                  
G13  21382582.450    21382581.857    21382582.069                   -13571822.447 8 -13571822.449 7                 -10575445.755 8       324.000          61.000         136.000                  
G15  19275285.729    19275285.422    19275285.776                   -24677142.039 9 -24677142.041 9                 -19228940.120 9       695.000        1088.000        1756.000                  
G18  19483004.125    19483003.968    19483004.386                   -26340650.743 9 -26340650.730 9                 -20525179.860 9       833.000         902.000        1105.000                  
G23  20444247.358    20444247.031    20444247.107                   -23308911.280 9 -23308911.273 8                 -18162784.467 8       538.000         366.000         353.000                  
G24  23770955.825    23770956.394    23770959.465                    -6131258.867 8  -6131258.867 6                  -4777606.203 8       131.000          45.000         175.000                  
G27  23646275.242    23646274.705    23646278.063                    -4232521.292 8  -4232521.294 6                  -3298069.552 8       108.000          38.000         218.000                  
G29  22967467.886    22967467.317    22967468.488                    -6254720.593 8  -6254720.592 8                  -4873810.511 8       234.000         126.000         351.000                  
> 2024 10 31 23 58 20.0000000  0  9
G05  23348759.209    23348758.980    23348759.699                    -6786552.259 8  -6786552.265 7                  -5288223.405 8       156.000          62.000         271.000                  
G10  24079526.757    24079526.006    24079529.527                    -5642981.792 8  -5642981.798 6                  -4397126.310 8       144.000          45.000         162.000                  
G13  21340005.396    21340004.965    21340004.948                   -13795566.599 8 -13795566.604 7                 -10749791.811 8       331.000          71.000         138.000                  
G15  19263700.545    19263700.090    19263700.493                   -24738023.245 9 -24738023.247 9                 -19276379.989 9       704.000        1116.000        1819.000                  
G18  19476848.562    19476848.587    19476848.856                   -26372997.620 9 -26372997.608 9                 -20550385.192 9       827.000         886.000        1087.000                  
G23  20444536.047    20444535.818    20444535.985                   -23307393.449 9 -23307393.446 8                 -18161601.717 8       538.000         364.000         361.000                  
