     3.03           OBSERVATION DATA    M (MIXED)           RINEX VERSION / TYPE
BJPP                CNES                20241031 055237 UTC PGM / RUN BY / DATE 
MARKER                                                      MARKER NAME         
SPACECRAFT                                                  MARKER TYPE         
OBSERVER            CNES                                    OBSERVER / AGENCY   
RECNUM              BLACKJACK           RECVERS             REC # / TYPE / VERS 
ANTNUM              BLACKJACK                               ANT # / TYPE        
        0.0000        0.0000        0.0000                  ANTENNA: DELTA H/E/N
G   12 C1C C1W C2W C2X L1C L1W L2X L2W S1C S1W S2W S2X      SYS / # / OBS TYPES 
DBHZ                                                        SIGNAL STRENGTH UNIT
This rinex produced from the following file(s):             COMMENT             
/tmp/mesos_work/slaves/d197f515-9ebc-49f2-8adc-fe7a9d3e6458-COMMENT             
S19/frameworks/8c1b9f46-52ed-4aff-9edf-38d17bf6761e-2777/exeCOMMENT             
cutors/toil-27558/runs/7610a4f9-de05-4b57-9347-de2a16c69f1b/COMMENT             
65e114a62d675895b4ab657f447cc5b3/805e/7f16/tmpi4owz753bb7f47COMMENT             
qr/stgd4414e30-e635-439a-a0b0-fecb10e4afe9/SWOT_KRX_20241031COMMENT             
T050432_20241031T015949_20241031T032109_O_APID1280.PTM_0    COMMENT             
  2024    10    31     1    59   30.0000000                 TIME OF FIRST OBS   
G L1C                                                       SYS / PHASE SHIFT   
G L1W -0.25000                                              SYS / PHASE SHIFT   
G L2W                                                       SYS / PHASE SHIFT   
G L2X  0.25000                                              SYS / PHASE SHIFT   
                                                            END OF HEADER       
> 2024 10 31 01 59 30.0000000  0 12
G02  24610937.331    24610934.666    24610934.515                    -2453964.326 8  -2453964.327 6                  -1912179.613 6       131.000          24.000          28.000                  
G08  25124146.918    25124145.138    25124149.872                     2439355.138 7   2439355.148 6                   1900794.224 7        74.000          26.000          71.000                  
G10  23801860.645    23801859.130    23801862.144                    -6909368.339 8  -6909368.353 7                  -5383921.057 8       148.000          54.000         137.000                  
G13  20606589.674    20606589.476    20606589.440                   -18711447.512 9 -18711447.514 8                 -14580350.075 8       676.000         278.000         222.000                  
G14  20231358.960    20231358.683    20231359.569                   -23725295.076 9 -23725295.074 9                 -18487213.508 9       650.000         556.000         600.000                  
G15  19991569.092    19991568.703    19991568.988                   -23144421.755 9 -23144421.756 9                 -18034614.445 9       761.000        1277.000        1729.000                  
G17  22775854.475    22775853.172    22775853.687                   -10084969.255 8 -10084969.252 8                  -7858418.190 8       230.000         116.000         330.000                  
G21  23844974.509    23844971.911    23844972.532                    -4266779.187 8  -4266779.211 6                  -3324680.914 6       143.000          31.000          28.000                  
G22  20151741.376    20151740.471    20151740.510                   -23311421.640 9 -23311421.641 9                 -18164745.170 9       820.000         513.000         553.000                  
G23  22008314.033    22008313.639    22008314.472                   -11643603.253 8 -11643603.252 7                  -9072937.255 8       241.000          77.000         189.000                  
G24  21798714.635    21798714.154    21798716.986                   -13013516.915 8 -13013516.918 8                 -10140403.732 9       280.000         188.000         749.000                  
G30  23745242.238    23745241.797    23745245.213                    -5229151.813 8  -5229151.798 7                  -4074663.861 8       165.000          67.000         341.000                  
> 2024 10 31 01 59 40.0000000  0 12
G02  24613735.865    24613732.882    24613732.511                    -2439258.761 8  -2439258.781 6                  -1900720.752 6       129.000          24.000          23.000                  
G08  25184502.037    25184500.472    25184504.010                     2756520.705 7   2756520.721 6                   2147936.105 7        74.000          23.000          66.000                  
G10  23866136.111    23866135.605    23866138.252                    -6571596.386 8  -6571596.377 7                  -5120722.190 8       146.000          52.000         130.000                  
G13  20564739.706    20564739.336    20564738.999                   -18931371.825 9 -18931371.824 8                 -14751719.677 8       690.000         287.000         259.000                  
G14  20213644.985    20213644.658    20213645.603                   -23818382.648 9 -23818382.646 9                 -18559749.275 9       647.000         549.000         603.000                  
G15  19984176.306    19984176.136    19984176.469                   -23183270.072 9 -23183270.074 9                 -18064885.866 9       766.000        1315.000        1834.000                  
G17  22708393.777    22708392.781    22708393.019                   -10439477.294 8 -10439477.296 8                  -8134658.180 8       238.000         124.000         344.000                  
G21  23871663.031    23871661.230    23871661.547                    -4126529.231 8  -4126529.248 6                  -3215395.166 6       135.000          30.000          25.000                  
G22  20119773.064    20119772.246    20119772.136                   -23479415.841 9 -23479415.840 9                 -18295649.733 9       824.000         510.000         543.000                  
G23  22061353.660    22061353.923    22061354.393                   -11364875.858 8 -11364875.860 7                  -8855747.119 8       240.000          76.000         178.000                  
G24  21819434.238    21819434.006    21819436.965                   -12904632.523 8 -12904632.526 8                 -10055558.767 9       272.000         187.000         760.000                  
G30  23707275.027    23707274.679    23707277.894                    -5428671.437 8  -5428671.439 7                  -4230133.660 8       168.000          72.000         346.000                  
> 2024 10 31 01 59 50.0000000  0 12
G02  24617110.137    24617106.976    24617107.377                    -2421526.040 8  -2421525.999 6                  -1886903.058 6       125.000          23.000          26.000                  
G08  25245114.519    25245113.497    25245117.301                     3075043.369 7   3075043.381 6                   2396135.543 7        70.000          21.000          63.000                  
G10  23930652.158    23930651.751    23930654.517                    -6232562.299 8  -6232562.309 7                  -4856539.852 8       139.000          52.000         125.000                  
G13  20523403.819    20523403.584    20523403.434                   -19148592.558 9 -19148592.558 8                 -14920982.592 8       687.000         280.000         294.000                  
G14  20196913.242    20196912.907    20196913.715                   -23906309.131 9 -23906309.129 9                 -18628263.410 9       661.000         577.000         606.000                  
G15  19977392.971    19977392.749    19977393.112                   -23218916.900 9 -23218916.901 9                 -18092662.619 9       761.000        1290.000        1837.000                  
G17  22641439.056    22641438.607    22641439.209                   -10791322.909 8 -10791322.913 8                  -8408823.556 8       241.000         121.000         363.000                  
G21  23898951.723    23898950.489    23898950.585                    -3983121.758 8  -3983121.744 6                  -3103649.068 6       135.000          25.000          26.000                  
G22  20088809.096    20088807.950    20088807.945                   -23642133.694 9 -23642133.696 9                 -18422442.858 9       826.000         518.000         532.000                  
G23  22114748.397    22114747.694    22114748.927                   -11084286.849 8 -11084286.852 7                  -8637106.368 8       235.000          70.000         176.000                  
G24  21840635.212    21840635.109    21840638.205                   -12793219.683 8 -12793219.684 8                  -9968743.580 9       261.000         171.000         776.000                  
G30  23669650.494    23669649.521    23669653.344                    -5626389.659 8  -5626389.662 7                  -4384199.778 8       166.000          68.000         345.000                  
> 2024 10 31 02 00  0.0000000  0 12
G02  24621058.579    24621055.920    24621056.138                    -2400775.714 8  -2400775.724 6                  -1870734.030 6       120.000          19.000          29.000                  
G08  25305973.389    25305972.772    25305976.270                     3394860.144 7   3394860.140 6                   2645343.341 7        69.000          23.000          63.000                  
G10  23995398.362    23995397.999    23995400.801                    -5892317.698 8  -5892317.694 7                  -4591414.263 8       136.000          52.000         119.000                  
G13  20482587.127    20482586.874    20482587.007                   -19363085.583 9 -19363085.583 8                 -15088120.017 8       681.000         281.000         323.000                  
G14  20181164.807    20181164.610    20181165.443                   -23989066.988 9 -23989066.985 9                 -18692750.044 9       672.000         595.000         621.000                  
G15  19971218.299    19971217.862    19971218.255                   -23251365.981 9 -23251365.983 9                 -18117947.627 9       750.000        1269.000        1854.000                  
G17  22575002.653    22575002.170    22575002.832                   -11140448.151 8 -11140448.154 8                  -8680869.158 8       247.000         134.000         408.000                  
G21  23926836.240    23926833.487    23926835.767                    -3836590.914 8  -3836590.925 6                  -2989469.183 6       127.000          25.000          31.000                  
G22  20058855.095    20058854.074    20058854.071                   -23799542.356 9 -23799542.357 9                 -18545098.948 9       839.000         536.000         539.000                  
G23  22168486.405    22168486.504    22168487.347                   -10801889.473 8 -10801889.476 7                  -8417056.500 8       227.000          68.000         163.000                  
G24  21862313.797    21862313.387    21862316.676                   -12679298.596 8 -12679298.599 8                  -9879973.915 9       263.000         165.000         791.000                  
G30  23632370.726    23632369.991    23632373.218                    -5822297.160 8  -5822297.163 7                  -4536854.953 8       171.000          70.000         348.000                  
> 2024 10 31 02 00 10.0000000  0 12
G02  24625580.639    24625578.562    24625578.618                    -2377009.146 8  -2377009.165 6                  -1852214.615 6       114.000          21.000          25.000                  
G08  25367069.256    25367068.071    25367071.512                     3715917.383 7   3715917.367 6                   2895517.651 7        67.000          24.000          58.000                  
G10  24060367.288    24060366.944    24060369.103                    -5550905.235 8  -5550905.244 6                  -4325378.652 8       128.000          47.000         117.000                  
G13  20442295.887    20442295.450    20442295.533                   -19574818.134 9 -19574818.134 8                 -15253106.425 8       681.000         280.000         359.000                  
G14  20166403.179    20166402.785    20166403.447                   -24066641.221 9 -24066641.219 9                 -18753197.497 9       684.000         623.000         621.000                  
G15  19965652.663    19965652.398    19965652.841                   -23280612.644 9 -23280612.645 9                 -18140737.245 9       743.000        1235.000        1841.000                  
G17  22509096.832    22509096.337    22509096.916                   -11486786.122 8 -11486786.124 8                  -8950742.868 8       256.000         146.000         431.000                  
G21  23955308.697    23955307.182    23955307.783                    -3686962.738 8  -3686962.751 6                  -2872875.797 6       117.000          27.000          27.000                  
G22  20029919.244    20029918.206    20029918.128                   -23951601.509 9 -23951601.509 9                 -18663586.592 9       847.000         546.000         532.000                  
G23  22222560.376    22222560.931    22222561.499                   -10517728.088 8 -10517728.098 7                  -8195632.079 8       226.000          68.000         155.000                  
G24  21884467.572    21884467.278    21884470.279                   -12562881.009 8 -12562881.012 8                  -9789258.926 9       261.000         166.000         794.000                  
G30  23595438.852    23595437.982    23595441.201                    -6016376.016 8  -6016376.022 7                  -4688085.213 8       169.000          78.000         347.000                  
> 2024 10 31 02 00 20.0000000  0 12
G02  24630681.346    24630678.443    24630678.884                    -2350207.432 8  -2350207.427 6                  -1831330.216 6       110.000          28.000          25.000                  
G08  25428394.291    25428392.704    25428396.729                     4038182.566 7   4038182.576 6                   3146633.211 7        60.000          18.000          52.000                  
G10  24125553.669    24125553.630    24125556.546                    -5208346.409 8  -5208346.422 6                  -4058449.765 8       119.000          43.000         109.000                  
G13  20402539.818    20402539.475    20402539.680                   -19783736.754 9 -19783736.754 8                 -15415900.162 8       667.000         268.000         387.000                  
G14  20152634.225    20152633.874    20152634.616                   -24138997.236 9 -24138997.234 9                 -18809578.803 9       692.000         636.000         623.000                  
G15  19960701.394    19960701.134    19960701.563                   -23306631.767 9 -23306631.768 9                 -18161011.907 9       741.000        1232.000        1772.000                  
G17  22443738.063    22443737.541    22443738.104                   -11830248.892 8 -11830248.893 8                  -9218376.173 8       263.000         149.000         468.000                  
G21  23984371.385    23984368.568    23984369.816                    -3534242.859 8  -3534242.847 6                  -2753873.322 6       113.000          26.000          23.000                  
G22  20002012.708    20002011.775    20002011.620                   -24098251.167 9 -24098251.168 9                 -18777859.044 9       849.000         553.000         551.000                  
G23  22276966.844    22276966.033    22276966.415                   -10231825.978 8 -10231825.981 7                  -7972851.239 8       222.000          71.000         157.000                  
G24  21907097.425    21907097.295    21907100.511                   -12443958.107 8 -12443958.110 8                  -9696591.741 9       265.000         173.000         766.000                  
G30  23558862.607    23558860.974    23558864.503                    -6208587.560 8  -6208587.569 7                  -4837860.415 8       172.000          72.000         369.000                  
> 2024 10 31 02 00 30.0000000  0 12
G02  24636350.115    24636349.345    24636349.425                    -2320408.566 8  -2320408.537 6                  -1808110.333 6       105.000          21.000          24.000                  
G08  25489931.838    25489930.719    25489935.266                     4361567.163 7   4361567.170 6                   3398621.049 6        59.000          24.000          47.000                  
G10  24190944.097    24190943.729    24190946.583                    -4864718.721 8  -4864718.720 6                  -3790687.999 8       113.000          40.000         106.000                  
G13  20363318.991    20363318.515    20363318.651                   -19989844.251 9 -19989844.251 8                 -15576503.412 8       655.000         259.000         407.000                  
G14  20139853.792    20139853.589    20139854.359                   -24206157.971 9 -24206157.970 9                 -18861911.840 9       698.000         644.000         635.000                  
G15  19956358.198    19956358.041    19956358.338                   -23329455.046 9 -23329455.046 9                 -18178796.318 9       741.000        1228.000        1695.000                  
G17  22378932.497    22378931.901    22378932.541                   -12170804.691 8 -12170804.695 8                  -9483744.300 8       259.000         155.000         496.000                  
G21  24014007.925    24014006.456    24014009.260                    -3378493.775 8  -3378493.788 6                  -2632510.401 6       114.000          23.000          31.000                  
G22  19975136.098    19975135.110    19975135.056                   -24239488.939 9 -24239488.941 9                 -18887914.442 9       842.000         547.000         561.000                  
G23  22331688.180    22331687.743    22331688.239                    -9944262.424 8  -9944262.424 7                  -7748775.780 8       224.000          63.000         163.000                  
G24  21930196.211    21930195.351    21930198.455                   -12322577.546 8 -12322577.550 8                  -9602009.498 9       269.000         168.000         750.000                  
G30  23522637.857    23522636.612    23522639.832                    -6398949.440 8  -6398949.438 7                  -4986194.321 8       175.000          75.000         392.000                  
> 2024 10 31 02 00 40.0000000  0 12
G02  24642599.314    24642597.219    24642596.961                    -2287572.645 7  -2287572.629 6                  -1782523.895 6        99.000          28.000          20.000                  
G08  25551679.455    25551679.127    25551685.152                     4686061.299 7   4686061.297 6                   3651473.392 6        59.000          18.000          46.000                  
G10  24256537.549    24256537.302    24256540.427                    -4520020.854 8  -4520020.839 6                  -3522092.332 7       105.000          31.000          95.000                  
G13  20324647.299    20324646.791    20324647.152                   -20193065.041 9 -20193065.040 8                 -15734857.281 8       647.000         256.000         420.000                  
G14  20128072.650    20128072.318    20128073.100                   -24268069.118 9 -24268069.116 9                 -18910154.287 9       692.000         632.000         648.000                  
G15  19952632.264    19952631.929    19952632.288                   -23349035.998 9 -23349035.999 9                 -18194054.227 9       734.000        1216.000        1662.000                  
G17  22314701.179    22314700.281    22314701.006                   -12508343.103 8 -12508343.105 8                  -9746761.224 9       254.000         146.000         527.000                  
G21  24044226.260    24044223.776    24044225.635                    -3219699.902 8  -3219699.886 6                  -2508774.950 6       108.000          23.000          28.000                  
G22  19949304.493    19949303.493    19949303.378                   -24375234.752 9 -24375234.752 9                 -18993690.391 9       834.000         535.000         566.000                  
G23  22386725.318    22386725.237    22386725.894                    -9655037.938 8  -9655037.952 7                  -7523406.087 8       223.000          63.000         168.000                  
G24  21953767.136    21953767.095    21953769.897                   -12198708.714 8 -12198708.714 8                  -9505488.342 9       270.000         178.000         753.000                  
G30  23486776.190    23486775.251    23486778.785                    -6587400.890 8  -6587400.889 7                  -5133039.586 8       176.000          80.000         401.000                  
> 2024 10 31 02 00 50.0000000  0 12
G02  24649419.278    24649415.048    24649417.146                    -2251738.356 7  -2251738.380 6                  -1754601.144 6        93.000          18.000          19.000                  
G08  25613624.364    25613623.238    25613627.785                     5011577.604 7   5011577.565 6                   3905122.284 6        62.000          22.000          44.000                  
G10  24322321.024    24322320.615    24322323.641                    -4174329.193 7  -4174329.192 6                  -3252722.276 7        97.000          29.000          90.000                  
G13  20286524.399    20286524.058    20286524.270                   -20393401.789 9 -20393401.788 8                 -15890963.854 8       662.000         266.000         416.000                  
G14  20117285.575    20117285.179    20117285.872                   -24324755.749 9 -24324755.749 9                 -18954325.685 9       689.000         636.000         638.000                  
G15  19949516.905    19949516.673    19949517.090                   -23365406.685 9 -23365406.685 9                 -18206810.629 9       723.000        1176.000        1617.000                  
G17  22251049.646    22251049.159    22251050.048                   -12842831.476 8 -12842831.479 8                 -10007401.499 9       246.000         139.000         539.000                  
G21  24075011.204    24075008.537    24075011.269                    -3057923.940 8  -3057923.938 6                  -2382715.764 6       108.000          22.000          34.000                  
G22  19924518.156    19924517.050    19924516.911                   -24505487.964 9 -24505487.965 9                 -19095186.391 9       822.000         520.000         573.000                  
G23  22442064.131    22442064.091    22442064.986                    -9364230.872 8  -9364230.875 7                  -7296803.222 8       217.000          62.000         176.000                  
G24  21977803.006    21977802.714    21977805.897                   -12072399.330 8 -12072399.331 8                  -9407065.474 9       270.000         184.000         755.000                  
G30  23451275.263    23451274.450    23451277.965                    -6773959.337 8  -6773959.338 7                  -5278409.798 8       178.000          79.000         402.000                  
> 2024 10 31 02 01  0.0000000  0 12
G02  24656810.740    24656806.987    24656808.468                    -2212892.853 7  -2212892.852 6                  -1724331.844 6        83.000          23.000          24.000                  
G08  25675756.556    25675755.483    25675759.467                     5338080.549 7   5338080.559 6                   4159539.930 6        52.000          22.000          48.000                  
G10  24388287.574    24388287.385    24388291.548                    -3827667.899 7  -3827667.904 6                  -2982596.667 7       100.000          34.000          83.000                  
G13  20248959.873    20248959.341    20248959.806                   -20590805.207 9 -20590805.208 8                 -16044784.705 8       689.000         287.000         429.000                  
G14  20107497.413    20107497.197    20107497.935                   -24376192.205 9 -24376192.205 9                 -18994406.038 9       682.000         624.000         640.000                  
G15  19947016.356    19947016.068    19947016.454                   -23378547.478 9 -23378547.479 9                 -18217050.235 9       714.000        1157.000        1586.000                  
G17  22187994.699    22187994.723    22187995.499                   -13174185.300 8 -13174185.304 8                 -10265599.263 9       242.000         128.000         571.000                  
G21  24106361.234    24106358.360    24106361.110                    -2893177.293 8  -2893177.298 6                  -2254341.802 6       108.000          28.000          34.000                  
G22  19900786.636    19900785.753    19900785.539                   -24630197.330 9 -24630197.332 8                 -19192362.510 9       809.000         500.000         603.000                  
G23  22497698.701    22497698.918    22497699.938                    -9071867.274 8  -9071867.272 7                  -7068987.469 8       219.000          67.000         174.000                  
G24  22002304.626    22002303.932    22002307.096                   -11943645.350 8 -11943645.354 8                  -9306737.745 9       276.000         192.000         786.000                  
G30  23416141.422    23416140.364    23416143.837                    -6958590.371 8  -6958590.367 7                  -5422278.176 8       180.000          81.000         419.000                  
> 2024 10 31 02 01 10.0000000  0 12
G02  24664775.781    24664772.296    24664773.941                    -2171034.256 7  -2171034.242 6                  -1691714.775 6        74.000          20.000          22.000                  
G08  25738065.372    25738066.249    25738070.721                     5665525.132 7   5665525.106 6                   4414691.372 6        53.000          19.000          45.000                  
G10  24454435.081    24454433.472    24454436.290                    -3480071.085 7  -3480071.079 6                  -2711742.083 7        99.000          29.000          78.000                  
G13  20211960.933    20211960.316    20211960.613                   -20785236.642 9 -20785236.642 8                 -16196289.721 8       720.000         305.000         428.000                  
G14  20098710.991    20098710.881    20098711.589                   -24422364.488 9 -24422364.489 9                 -19030384.437 9       683.000         627.000         644.000                  
G15  19945131.935    19945131.820    19945132.196                   -23388449.530 9 -23388449.531 9                 -18224766.135 9       713.000        1138.000        1573.000                  
G17  22125551.301    22125550.608    22125551.657                   -13502330.205 8 -13502330.207 8                 -10521296.574 9       237.000         118.000         591.000                  
G21  24138272.490    24138270.064    24138272.035                    -2725481.867 8  -2725481.858 6                  -2123670.032 6       107.000          24.000          32.000                  
G22  19878117.787    19878116.716    19878116.699                   -24749323.285 9 -24749323.286 8                 -19285187.919 9       790.000         471.000         629.000                  
G23  22553623.831    22553622.787    22553624.122                    -8777983.306 8  -8777983.315 7                  -6839987.011 8       223.000          61.000         170.000                  
G24  22027269.914    22027269.132    22027272.235                   -11812453.197 8 -11812453.196 8                  -9204510.148 9       276.000         191.000         797.000                  
G30  23381378.223    23381377.460    23381381.123                    -7141269.874 8  -7141269.876 7                  -5564625.908 8       179.000          85.000         426.000                  
> 2024 10 31 02 01 20.0000000  0 12
G02  24673311.994    24673306.079    24673308.713                    -2126185.313 7  -2126185.304 6                  -1656767.550 6        72.000          23.000          20.000                  
G08  25800544.438    25800542.819    25800548.300                     5993842.123 7   5993842.126 6                   4670522.580 6        52.000          18.000          41.000                  
G10  24520746.242    24520745.565    24520749.551                    -3131596.616 7  -3131596.609 6                  -2440203.617 7        93.000          36.000          69.000                  
G13  20175530.209    20175529.659    20175529.739                   -20976681.548 9 -20976681.549 8                 -16345467.566 8       741.000         332.000         415.000                  
G14  20090924.329    20090924.144    20090924.849                   -24463283.924 9 -24463283.925 9                 -19062269.712 9       678.000         624.000         624.000                  
G15  19943861.341    19943860.923    19943861.390                   -23395128.438 9 -23395128.438 9                 -18229970.489 9       726.000        1187.000        1556.000                  
G17  22063727.290    22063726.674    22063727.813                   -13827215.762 8 -13827215.771 8                 -10774454.136 9       236.000         122.000         603.000                  
G21  24170737.502    24170734.083    24170736.037                    -2554884.332 8  -2554884.368 6                  -1990736.896 6       105.000          25.000          32.000                  
G22  19856514.175    19856512.974    19856512.996                   -24862851.568 9 -24862851.570 8                 -19373651.518 9       771.000         455.000         645.000                  
G23  22609825.874    22609825.119    22609826.262                    -8482638.835 8  -8482638.837 7                  -6609848.501 8       228.000          72.000         174.000                  
G24  22052692.507    22052692.388    22052695.377                   -11678853.571 8 -11678853.575 8                  -9100406.600 9       281.000         192.000         798.000                  
G30  23346987.568    23346986.501    23346989.728                    -7321997.889 8  -7321997.891 7                  -5705453.029 8       183.000          82.000         428.000                  
> 2024 10 31 02 01 30.0000000  0 11
G02  24682418.609    24682414.160    24682416.534                    -2078323.356 7  -2078323.370 6                  -1619472.530 6        75.000          20.000          24.000                  
G10  24587224.813    24587223.531    24587226.515                    -2782256.176 7  -2782256.173 6                  -2167990.373 7        92.000          33.000          64.000                  
G13  20139679.099    20139678.801    20139678.785                   -21165079.659 9 -21165079.659 8                 -16492271.279 8       761.000         349.000         421.000                  
G14  20084143.450    20084143.303    20084144.003                   -24498917.365 9 -24498917.365 9                 -19090036.034 9       679.000         625.000         624.000                  
G15  19943209.345    19943208.996    19943209.378                   -23398554.410 9 -23398554.412 9                 -18232640.090 9       734.000        1208.000        1527.000                  
G17  22002542.564    22002541.871    22002542.611                   -14148745.798 8 -14148745.801 8                 -11024996.996 9       239.000         130.000         598.000                  
G21  24203753.452    24203749.565    24203752.232                    -2381385.830 8  -2381385.830 6                  -1855543.281 6       103.000          23.000          29.000                  
G22  19835986.630    19835985.666    19835985.646                   -24970723.458 9 -24970723.458 8                 -19457707.560 9       757.000         437.000         682.000                  
G23  22666303.237    22666302.780    22666303.824                    -8185847.648 8  -8185847.649 7                  -6378582.684 8       228.000          68.000         174.000                  
G24  22078576.935    22078576.577    22078579.465                   -11542831.641 8 -11542831.642 8                  -8994415.538 9       278.000         193.000         790.000                  
G30  23312975.600    23312975.022    23312978.389                    -7500728.713 8  -7500728.710 7                  -5844723.856 8       186.000          81.000         448.000                  
> 2024 10 31 02 01 40.0000000  0 11
G02  24692090.975    24692087.003    24692090.785                    -2027490.410 7  -2027490.423 6                  -1579862.442 6        76.000          21.000          17.000                  
G10  24653852.721    24653850.860    24653854.601                    -2432125.159 7  -2432125.158 6                  -1895161.110 7        97.000          32.000          54.000                  
G13  20104407.200    20104406.730    20104406.866                   -21350434.964 9 -21350434.965 8                 -16636703.965 8       778.000         369.000         428.000                  
G14  20078362.489    20078362.122    20078363.052                   -24529296.921 9 -24529296.923 9                 -19113708.429 9       687.000         634.000         610.000                  
G15  19943169.773    19943169.509    19943169.803                   -23398762.030 9 -23398762.031 9                 -18232801.881 9       733.000        1213.000        1486.000                  
G17  21942001.881    21942001.360    21942002.018                   -14466888.013 8 -14466888.019 8                 -11272899.988 9       246.000         130.000         604.000                  
G21  24237307.509    24237304.936    24237307.547                    -2205051.852 7  -2205051.858 6                  -1718140.214 6        99.000          25.000          34.000                  
G22  19816534.520    19816533.416    19816533.467                   -25072945.529 9 -25072945.531 8                 -19537361.151 9       746.000         430.000         720.000                  
G23  22723041.441    22723041.063    22723042.273                    -7887687.192 8  -7887687.190 7                  -6146249.908 8       232.000          71.000         175.000                  
G24  22104912.534    22104912.323    22104915.231                   -11404436.678 8 -11404436.679 8                  -8886575.349 9       280.000         190.000         795.000                  
G30  23279341.585    23279340.052    23279343.745                    -7677480.741 8  -7677480.737 7                  -5982452.718 8       191.000          85.000         463.000                  
> 2024 10 31 02 01 50.0000000  0 11
G02  24702335.729    24702331.137    24702332.483                    -1973658.684 7  -1973658.671 6                  -1537915.727 6        79.000          26.000          23.000                  
G10  24720630.639    24720628.711    24720632.072                    -2081208.217 7  -2081208.209 6                  -1621719.412 7        92.000          24.000          51.000                  
G13  20069727.017    20069726.641    20069726.653                   -21532681.117 9 -21532681.116 8                 -16778713.935 8       794.000         380.000         427.000                  
G14  20073588.420    20073588.098    20073588.653                   -24554385.640 9 -24554385.641 9                 -19133258.089 9       699.000         661.000         600.000                  
G15  19943749.272    19943749.056    19943749.473                   -23395716.053 9 -23395716.054 9                 -18230428.397 9       734.000        1205.000        1507.000                  
G17  21882125.410    21882125.057    21882125.818                   -14781539.820 8 -14781539.826 8                 -11518083.177 9       253.000         134.000         598.000                  
G21  24271403.401    24271399.906    24271401.965                    -2025878.222 8  -2025878.201 6                  -1578524.426 6       101.000          19.000          27.000                  
G22  19798169.467    19798168.486    19798168.307                   -25169455.373 9 -25169455.375 8                 -19612563.645 9       740.000         427.000         746.000                  
G23  22780039.257    22780038.296    22780039.590                    -7588164.248 8  -7588164.250 7                  -5912855.461 8       239.000          70.000         174.000                  
G24  22131703.594    22131703.655    22131706.501                   -11263647.846 8 -11263647.850 8                  -8776869.807 9       279.000         190.000         787.000                  
G30  23246092.288    23246091.772    23246095.283                    -7852202.241 8  -7852202.241 7                  -6118599.333 8       194.000          93.000         455.000                  
> 2024 10 31 02 02  0.0000000  0 12
G02  24713143.950    24713140.048    24713140.237                    -1916862.484 7  -1916862.475 6                  -1493658.908 6        83.000          20.000          20.000                  
G10  24787543.802    24787543.366    24787545.840                    -1729571.265 7  -1729571.251 6                  -1347716.702 6        86.000          25.000          41.000                  
G13  20035639.167    20035638.680    20035638.879                   -21711813.686 9 -21711813.686 8                 -16918297.733 8       797.000         377.000         442.000                  
G14  20069815.975    20069815.731    20069816.336                   -24574209.518 9 -24574209.519 9                 -19148705.282 9       706.000         663.000         600.000                  
G15  19944943.073    19944942.794    19944943.260                   -23389443.061 9 -23389443.062 9                 -18225540.361 9       735.000        1211.000        1583.000                  
G17  21822921.451    21822920.864    21822921.434                   -15092660.278 8 -15092660.281 8                 -11760514.661 9       262.000         144.000         591.000                  
G19  23931479.254    23931475.217    23931493.647                     -701687.247 8   -701687.272 6                   -546772.898 6       135.000          26.000          16.000                  
G21  24306028.547    24306025.669    24306028.484                    -1843922.167 7  -1843922.148 6                  -1436740.539 6        97.000          22.000          29.000                  
G22  19780891.094    19780890.039    19780890.062                   -25260253.708 9 -25260253.709 8                 -19683315.616 9       734.000         417.000         785.000                  
G23  22837282.687    22837282.179    22837283.057                    -7287346.871 8  -7287346.868 7                  -5678452.365 8       244.000          77.000         176.000                  
G24  22158943.112    22158942.447    22158945.408                   -11120506.063 8 -11120506.062 8                  -8665330.788 9       275.000         194.000         795.000                  
G30  23213228.505    23213227.842    23213231.302                    -8024903.087 8  -8024903.084 8                  -6253171.412 8       201.000         101.000         460.000                  
> 2024 10 31 02 02 10.0000000  0 12
G02  24724514.709    24724511.780    24724512.796                    -1857103.618 7  -1857103.622 6                  -1447093.649 6        94.000          27.000          22.000                  
G10  24854589.040    24854588.162    24854591.986                    -1377246.952 7  -1377246.960 6                  -1073178.376 6        81.000          25.000          33.000                  
G13  20002150.659    20002150.316    20002150.626                   -21887795.528 9 -21887795.528 8                 -17055426.421 8       800.000         387.000         459.000                  
G14  20067046.666    20067046.307    20067047.014                   -24588762.911 9 -24588762.911 9                 -19160045.597 9       712.000         686.000         594.000                  
G15  19946752.012    19946751.770    19946752.162                   -23379937.144 9 -23379937.145 9                 -18218133.158 9       740.000        1240.000        1608.000                  
G17  21764402.817    21764402.524    21764403.051                   -15400175.493 8 -15400175.496 8                 -12000136.854 9       272.000         160.000         575.000                  
G19  23852813.627    23852810.384    23852811.801                    -1115080.618 8  -1115080.622 6                   -868897.093 6       141.000          28.000          33.000                  
G21  24341177.527    24341176.435    24341177.243                    -1659208.677 7  -1659208.643 6                  -1292808.032 6        98.000          26.000          29.000                  
G22  19764705.441    19764704.252    19764704.434                   -25345309.743 9 -25345309.744 8                 -19749593.052 9       721.000         395.000         801.000                  
G23  22894766.382    22894765.830    22894766.719                    -6985269.891 8  -6985269.891 7                  -5443067.769 8       240.000          84.000         174.000                  
G24  22186627.708    22186627.671    22186630.617                   -10975019.566 8 -10975019.565 8                  -8551964.718 9       272.000         183.000         783.000                  
G30  23180753.864    23180752.738    23180756.332                    -8195560.466 8  -8195560.462 8                  -6386151.180 8       212.000         105.000         460.000                  
> 2024 10 31 02 02 20.0000000  0 12
G02  24736453.732    24736450.855    24736452.117                    -1794366.899 7  -1794366.898 6                  -1398207.943 6        94.000          26.000          22.000                  
G10  24921762.120    24921760.607    24921764.945                    -1024249.911 7  -1024249.907 6                   -798115.865 6        74.000          18.000          34.000                  
G13  19969272.515    19969272.017    19969272.393                   -22060572.018 9 -22060572.019 8                 -17190057.441 8       813.000         394.000         469.000                  
G14  20065284.365    20065284.097    20065284.659                   -24598023.801 9 -24598023.802 9                 -19167261.884 9       714.000         691.000         589.000                  
G15  19949180.505    19949180.326    19949180.745                   -23367175.080 9 -23367175.081 9                 -18208188.700 9       750.000        1254.000        1665.000                  
G17  21706588.277    21706587.518    21706588.333                   -15703993.988 8 -15703993.991 8                 -12236878.493 9       277.000         167.000         578.000                  
G19  23774405.994    23774402.433    23774403.893                    -1527117.826 8  -1527117.835 6                  -1189964.956 6       143.000          29.000          30.000                  
G21  24376851.427    24376849.170    24376850.405                    -1471745.196 7  -1471745.192 6                  -1146732.641 6        95.000          26.000          27.000                  
G22  19749621.398    19749620.497    19749620.502                   -25424576.393 9 -25424576.392 8                 -19811359.275 9       718.000         390.000         802.000                  
G23  22952486.040    22952485.619    22952486.485                    -6681950.078 8  -6681950.076 7                  -5206714.722 8       236.000          69.000         159.000                  
G24  22214761.696    22214760.793    22214763.831                   -10827178.985 8 -10827178.986 8                  -8436764.295 9       265.000         170.000         771.000                  
G30  23148675.765    23148674.426    23148677.742                    -8364133.838 8  -8364133.835 8                  -6517507.056 8       215.000         114.000         467.000                  
> 2024 10 31 02 02 30.0000000  0 12
G02  24748950.155    24748946.799    24748948.908                    -1728700.194 7  -1728700.213 6                  -1347039.096 6        96.000          32.000          16.000                  
G10  24989046.896    24989047.594    24989051.127                     -670656.987 7   -670656.994 6                   -522589.009 6        68.000          22.000          32.000                  
G13  19937002.693    19937002.168    19937002.317                   -22230151.334 9 -22230151.335 8                 -17322197.163 8       817.000         394.000         471.000                  
G14  20064521.223    20064521.001    20064521.552                   -24602034.135 9 -24602034.136 9                 -19170386.836 9       710.000         684.000         587.000                  
G15  19952221.241    19952220.879    19952221.315                   -23351196.861 9 -23351196.862 9                 -18195738.148 9       751.000        1263.000        1701.000                  
G17  21649482.217    21649481.991    21649482.443                   -16004087.129 8 -16004087.132 8                 -12470717.259 9       283.000         177.000         597.000                  
G19  23696260.347    23696257.869    23696257.968                    -1937771.576 8  -1937771.586 6                  -1509954.816 6       150.000          27.000          33.000                  
G21  24413035.756    24413032.061    24413032.197                    -1281602.228 7  -1281602.221 6                   -998569.326 6        94.000          18.000          25.000                  
G22  19735636.085    19735635.053    19735634.899                   -25498070.731 9 -25498070.732 8                 -19868627.598 9       714.000         392.000         797.000                  
G23  23010426.957    23010426.920    23010428.093                    -6377466.504 8  -6377466.487 7                  -4969454.847 8       229.000          69.000         163.000                  
G24  22243332.446    22243331.712    22243334.717                   -10677037.814 8 -10677037.814 8                  -8319771.201 9       257.000         169.000         767.000                  
G30  23116989.139    23116988.521    23116991.841                    -8530645.443 8  -8530645.444 8                  -6647256.352 8       220.000         120.000         467.000                  
> 2024 10 31 02 02 40.0000000  0 12
G02  24762008.064    24762005.908    24762006.335                    -1660077.869 7  -1660077.842 6                  -1293567.218 6        96.000          25.000          26.000                  
G10  25056447.869    25056446.974    25056449.564                     -316470.732 7   -316470.710 6                   -246599.869 6        62.000          23.000          25.000                  
G13  19905353.810    19905353.216    19905353.465                   -22396467.957 9 -22396467.959 8                 -17451794.530 8       825.000         401.000         495.000                  
G14  20064763.045    20064762.907    20064763.440                   -24600763.142 9 -24600763.142 9                 -19169396.464 9       705.000         669.000         578.000                  
G15  19955880.122    19955879.944    19955880.266                   -23331968.666 9 -23331968.667 9                 -18180755.148 9       742.000        1235.000        1662.000                  
G17  21593104.800    21593104.329    21593105.151                   -16300352.427 8 -16300352.430 8                 -12701573.297 9       291.000         180.000         618.000                  
G19  23618397.689    23618396.376    23618395.665                    -2346940.175 8  -2346940.136 6                  -1828787.410 6       155.000          26.000          36.000                  
G21  24449727.103    24449725.074    24449727.151                    -1088776.694 7  -1088776.685 6                   -848315.719 6        91.000          19.000          23.000                  
G22  19722759.374    19722758.398    19722758.390                   -25565737.342 9 -25565737.342 8                 -19921354.834 9       712.000         384.000         793.000                  
G23  23068588.481    23068588.897    23068589.901                    -6071823.933 8  -6071823.926 7                  -4731291.865 8       222.000          55.000         154.000                  
G24  22272344.406    22272344.512    22272347.393                   -10524575.719 8 -10524575.721 8                  -8200969.594 9       253.000         168.000         758.000                  
G30  23085705.071    23085704.515    23085707.761                    -8695043.683 8  -8695043.683 8                  -6775358.865 8       224.000         125.000         468.000                  
> 2024 10 31 02 02 50.0000000  0 12
G02  24775621.393    24775618.611    24775620.452                    -1588541.130 8  -1588541.132 6                  -1237824.305 6       102.000          22.000          19.000                  
G10  25123946.032    25123946.018    25123948.911                       38240.420 7     38240.428 6                     29798.329 6        56.000          22.000          23.000                  
G13  19874325.410    19874324.841    19874325.088                   -22559522.953 9 -22559522.952 8                 -17578850.369 9       836.000         410.000         511.000                  
G14  20066002.953    20066002.676    20066003.322                   -24594247.640 9 -24594247.641 9                 -19164319.460 9       700.000         659.000         576.000                  
G15  19960151.240    19960150.985    19960151.319                   -23309523.539 9 -23309523.540 9                 -18163265.450 9       727.000        1182.000        1626.000                  
G17  21537462.756    21537462.293    21537462.907                   -16592753.705 8 -16592753.708 8                 -12929418.422 9       302.000         200.000         644.000                  
G19  23540824.964    23540823.313    23540823.474                    -2754587.522 8  -2754587.540 6                  -2146434.609 6       158.000          31.000          42.000                  
G21  24486920.221    24486916.996    24486919.094                     -893331.942 7   -893331.960 6                   -696021.219 6        90.000          17.000          24.000                  
G22  19710989.398    19710988.608    19710988.455                   -25627588.608 9 -25627588.609 8                 -19969550.630 9       708.000         380.000         793.000                  
G23  23126957.978    23126957.301    23126958.944                    -5765093.030 8  -5765093.033 7                  -4492280.827 8       213.000          57.000         151.000                  
G24  22301789.906    22301789.525    22301792.809                   -10369838.796 8 -10369838.799 8                  -8080395.395 9       248.000         154.000         759.000                  
G30  23054820.880    23054819.883    23054823.187                    -8857343.340 8  -8857343.337 8                  -6901826.114 8       225.000         122.000         451.000                  
> 2024 10 31 02 03  0.0000000  0 12
G02  24789792.962    24789789.339    24789789.688                    -1514071.391 7  -1514071.390 6                  -1179796.073 6       100.000          24.000          26.000                  
G10  25191547.527    25191544.179    25191547.279                      393468.582 7    393468.600 6                    306599.306 6        51.000          21.000          20.000                  
G13  19843928.718    19843928.475    19843928.675                   -22719257.260 9 -22719257.260 8                 -17703318.662 9       847.000         427.000         534.000                  
G14  20068245.100    20068244.832    20068245.424                   -24582465.520 9 -24582465.519 9                 -19155138.602 9       702.000         661.000         557.000                  
G15  19965039.672    19965039.410    19965039.884                   -23283834.551 9 -23283834.552 9                 -18143248.062 9       719.000        1144.000        1609.000                  
G17  21482574.014    21482573.770    21482574.334                   -16881194.836 8 -16881194.841 8                 -13154177.719 9       313.000         213.000         676.000                  
G19  23463560.325    23463558.275    23463558.730                    -3160616.727 8  -3160616.723 6                  -2462820.945 6       161.000          29.000          43.000                  
G21  24524609.795    24524605.554    24524608.142                     -695271.583 7   -695271.606 6                   -541688.512 6        86.000          22.000          21.000                  
G22  19700335.088    19700334.175    19700333.931                   -25683578.139 9 -25683578.139 8                 -20013178.837 9       711.000         381.000         800.000                  
G23  23185532.314    23185531.571    23185533.032                    -5457283.873 8  -5457283.866 7                  -4252429.594 8       209.000          60.000         146.000                  
G24  22331670.876    22331670.867    22331673.821                   -10212813.042 8 -10212813.043 8                  -7958037.689 9       246.000         151.000         746.000                  
G30  23024343.942    23024343.324    23024346.560                    -9017499.135 8  -9017499.135 8                  -7026622.822 8       229.000         127.000         444.000                  
> 2024 10 31 02 03 10.0000000  0 11
G02  24804516.674    24804513.524    24804514.305                    -1436695.499 8  -1436695.476 6                  -1119503.201 6       106.000          23.000          25.000                  
G13  19814166.823    19814166.503    19814166.745                   -22875657.174 9 -22875657.176 8                 -17825188.729 9       853.000         434.000         547.000                  
G14  20071484.703    20071484.438    20071485.081                   -24565440.792 9 -24565440.791 9                 -19141872.599 9       704.000         666.000         555.000                  
G15  19970541.764    19970541.676    19970542.074                   -23254919.993 9 -23254919.994 9                 -18120717.241 9       710.000        1127.000        1573.000                  
G17  21428448.671    21428448.601    21428449.113                   -17165624.857 8 -17165624.858 8                 -13375811.480 9       327.000         237.000         700.000                  
G19  23386613.997    23386611.767    23386611.567                    -3564975.140 8  -3564975.123 6                  -2777905.373 6       167.000          38.000          47.000                  
G21  24562786.757    24562783.900    24562786.294                     -494643.988 7   -494644.000 6                   -385355.368 6        82.000          22.000          19.000                  
G22  19690796.011    19690795.124    19690795.040                   -25733706.035 9 -25733706.037 8                 -20052239.537 9       719.000         399.000         818.000                  
G23  23244301.373    23244300.682    23244302.154                    -5148451.021 8  -5148451.021 7                  -4011780.678 8       206.000          56.000         130.000                  
G24  22361981.740    22361981.620    22361984.426                   -10053529.451 8 -10053529.456 8                  -7833920.630 9       244.000         140.000         752.000                  
G30  22994275.373    22994274.620    22994277.851                    -9175510.681 8  -9175510.685 8                  -7149748.682 8       231.000         126.000         435.000                  
> 2024 10 31 02 03 20.0000000  0 11
G02  24819788.704    24819785.998    24819788.085                    -1356438.203 8  -1356438.211 6                  -1056965.082 6       104.000          18.000          23.000                  
G13  19785042.579    19785042.262    19785042.188                   -23028706.586 9 -23028706.586 8                 -17944448.015 9       847.000         428.000         558.000                  
G14  20075717.915    20075717.460    20075718.075                   -24543196.168 9 -24543196.168 9                 -19124539.145 9       694.000         652.000         545.000                  
G15  19976654.747    19976654.625    19976655.008                   -23222795.995 9 -23222795.997 9                 -18095685.567 9       707.000        1116.000        1544.000                  
G17  21375097.193    21375096.717    21375097.243                   -17445990.419 8 -17445990.421 8                 -13594278.137 9       348.000         259.000         722.000                  
G19  23309995.027    23309994.061    23309993.236                    -3967607.029 8  -3967607.033 6                  -3091644.447 6       167.000          35.000          44.000                  
G21  24601445.264    24601441.520    24601444.350                     -291495.437 7   -291495.420 6                   -227057.897 6        82.000          23.000          22.000                  
G22  19682372.693    19682371.618    19682371.650                   -25777971.301 9 -25777971.303 8                 -20086731.954 9       727.000         408.000         833.000                  
G23  23303255.151    23303254.760    23303255.990                    -4838646.093 8  -4838646.092 7                  -3770374.300 8       202.000          54.000         129.000                  
G24  22392716.660    22392716.286    22392719.432                    -9892016.622 8  -9892016.624 8                  -7708066.505 9       236.000         139.000         765.000                  
G30  22964615.241    22964614.239    22964617.811                    -9331375.236 8  -9331375.231 8                  -7271201.563 8       224.000         121.000         429.000                  
> 2024 10 31 02 03 30.0000000  0 11
G02  24835612.880    24835609.314    24835610.370                    -1273284.590 7  -1273284.613 6                   -992170.163 6        97.000          22.000          26.000                  
G13  19756566.667    19756566.194    19756566.189                   -23178349.531 9 -23178349.532 8                 -18061052.908 9       854.000         429.000         557.000                  
G14  20080947.014    20080946.872    20080947.495                   -24515715.627 9 -24515715.627 9                 -19103125.752 9       691.000         650.000         529.000                  
G15  19983383.037    19983382.873    19983383.294                   -23187439.165 9 -23187439.167 9                 -18068134.803 9       702.000        1115.000        1535.000                  
G17  21322536.454    21322536.057    21322536.744                   -17722198.333 8 -17722198.333 8                 -13809505.068 9       364.000         290.000         761.000                  
G19  23233725.105    23233722.145    23233722.250                    -4368416.122 8  -4368416.130 6                  -3403963.137 6       167.000          38.000          50.000                  
G21  24640582.982    24640578.220    24640581.426                      -85832.281 7    -85832.298 6                    -66800.900 6        82.000          21.000          22.000                  
G22  19675072.338    19675071.394    19675071.352                   -25816334.515 9 -25816334.514 8                 -20116625.369 9       731.000         416.000         845.000                  
G23  23362391.685    23362391.682    23362392.834                    -4527880.303 8  -4527880.316 7                  -3528219.198 8       204.000          54.000         123.000                  
