     3.03           OBSERVATION DATA    M (MIXED)           RINEX VERSION / TYPE
BJPP                CNES                20241031 040306 UTC PGM / RUN BY / DATE 
MARKER                                                      MARKER NAME         
SPACECRAFT                                                  MARKER TYPE         
OBSERVER            CNES                                    OBSERVER / AGENCY   
RECNUM              BLACKJACK           RECVERS             REC # / TYPE / VERS 
ANTNUM              BLACKJACK                               ANT # / TYPE        
        0.0000        0.0000        0.0000                  ANTENNA: DELTA H/E/N
G   12 C1C C1W C2W C2X L1C L1W L2X L2W S1C S1W S2W S2X      SYS / # / OBS TYPES 
DBHZ                                                        SIGNAL STRENGTH UNIT
This rinex produced from the following file(s):             COMMENT             
/tmp/mesos_work/slaves/d197f515-9ebc-49f2-8adc-fe7a9d3e6458-COMMENT             
S28/frameworks/8c1b9f46-52ed-4aff-9edf-38d17bf6761e-2726/exeCOMMENT             
cutors/toil-23431/runs/c5131c82-2a72-4d9a-829f-6c6f97907821/COMMENT             
6d0a62cc293656b599688427fabeae52/b260/7902/tmpxwxd2p6_d9d1m7COMMENT             
g1/stga00e742f-82c0-4e83-9758-30f5a8ca4433/SWOT_KRX_20241031COMMENT             
T032153_20241031T002619_20241031T015940_O_APID1280.PTM_0    COMMENT             
  2024    10    31     0    25   50.0000000                 TIME OF FIRST OBS   
G L1C                                                       SYS / PHASE SHIFT   
G L1W -0.25000                                              SYS / PHASE SHIFT   
G L2W                                                       SYS / PHASE SHIFT   
G L2X  0.25000                                              SYS / PHASE SHIFT   
                                                            END OF HEADER       
> 2024 10 31 00 25 50.0000000  0  2
G08  22513086.638    22513086.074    22513090.134                   -10408847.271 8 -10408847.276 8                  -8110795.245 9       202.000         102.000         525.000                  
G09  22712536.138    22712536.029    22712538.999                   -10388510.644 8 -10388510.655 7                  -8094944.964 8       161.000          79.000         211.000                  
> 2024 10 31 00 26  0.0000000  0 11
G02  24382387.776    24382384.536    24382386.163                    -1527857.282 8  -1527857.274 6                  -1190540.761 6       117.000          22.000          34.000                  
G05  24472449.628    24472450.018    24472451.026                     -712083.956 8   -712083.954 6                   -554877.594 6       112.000          30.000          47.000                  
G07  20410335.537    20410335.002    20410335.146                   -24668298.202 9 -24668298.203 9                 -19222053.037 9       676.000        1043.000        1234.000                  
G08  22553738.380    22553737.197    22553741.116                   -10195225.297 8 -10195225.302 8                  -7944336.613 9       206.000         105.000         513.000                  
G09  22653831.602    22653830.657    22653834.263                   -10697006.299 8 -10697006.306 7                  -8335331.146 8       161.000          78.000         218.000                  
G13  22545285.085    22545284.397    22545285.205                    -9126287.395 8  -9126287.396 6                  -7111395.837 7       218.000          31.000          98.000                  
G14  20044123.324    20044123.253    20044124.104                   -24951194.970 9 -24951194.971 9                 -19442490.292 9       665.000         594.000         609.000                  
G17  22495329.208    22495328.577    22495330.067                    -9715575.608 8  -9715575.611 8                  -7570577.538 8       233.000         123.000         469.000                  
G21  23941840.551    23941838.231    23941840.646                    -1220904.192 7  -1220904.185 6                   -951354.453 6        70.000          20.000          26.000                  
G22  21351312.799    21351311.786    21351312.077                   -17273608.794 8 -17273608.796 8                 -13459953.534 8       410.000         133.000         143.000                  
G30  19886870.923    19886870.238    19886873.263                   -21031714.262 9 -21031714.262 9                 -16388350.304 9       904.000        1960.000        2063.000                  
> 2024 10 31 00 26 10.0000000  0 11
G02  24342763.267    24342761.021    24342762.181                    -1736084.753 8  -1736084.737 6                  -1352795.893 6       116.000          22.000          36.000                  
G05  24507230.118    24507229.283    24507231.322                     -529314.843 8   -529314.848 6                   -412460.240 6       111.000          40.000          47.000                  
G07  20415430.265    20415429.782    20415429.899                   -24641524.976 9 -24641524.977 9                 -19201190.794 9       678.000        1040.000        1205.000                  
G08  22595037.378    22595036.734    22595040.536                    -9978195.797 8  -9978195.800 8                  -7775222.766 9       208.000         106.000         511.000                  
G09  22595389.554    22595389.659    22595393.257                   -11004115.623 8 -11004115.629 7                  -8574637.080 8       164.000          74.000         222.000                  
G13  22596663.295    22596662.482    22596663.124                    -8856294.672 8  -8856294.673 6                  -6901011.964 7       216.000          36.000          95.000                  
G14  20050466.862    20050466.472    20050467.522                   -24917860.524 9 -24917860.525 9                 -19416515.418 9       659.000         590.000         597.000                  
G17  22423474.714    22423474.416    22423475.590                   -10093172.893 8 -10093172.900 8                  -7864809.127 9       248.000         133.000         501.000                  
G21  23923994.396    23923992.082    23923995.713                    -1314683.742 7  -1314683.733 6                  -1024429.433 6        75.000          22.000          23.000                  
G22  21341253.847    21341252.759    21341253.438                   -17326468.760 8 -17326468.756 8                 -13501143.133 8       414.000         138.000         148.000                  
G30  19913764.396    19913763.589    19913766.641                   -20890388.668 9 -20890388.668 9                 -16278226.487 9       894.000        1905.000        2057.000                  
> 2024 10 31 00 26 20.0000000  0 11
G02  24303624.546    24303622.789    24303624.180                    -1941759.883 8  -1941759.869 6                  -1513062.187 6       115.000          23.000          40.000                  
G05  24542093.206    24542091.519    24542093.528                     -346112.576 8   -346112.576 6                   -269705.355 6       108.000          30.000          47.000                  
G07  20421250.605    20421250.077    20421250.255                   -24610938.989 9 -24610938.990 9                 -19177357.584 9       674.000        1035.000        1211.000                  
G08  22636972.542    22636971.670    22636975.701                    -9757825.517 8  -9757825.524 7                  -7603505.719 9       205.000          99.000         504.000                  
G09  22537216.856    22537216.427    22537219.716                   -11309818.741 8 -11309818.739 7                  -8812847.269 8       168.000          84.000         231.000                  
G13  22648300.725    22648299.488    22648300.577                    -8584938.842 8  -8584938.830 6                  -6689565.943 7       214.000          36.000          95.000                  
G14  20057824.565    20057824.055    20057825.094                   -24879196.319 9 -24879196.320 9                 -19386387.485 9       658.000         583.000         590.000                  
G17  22352018.298    22352018.025    22352019.540                   -10468676.617 8 -10468676.616 8                  -8157409.365 9       258.000         144.000         530.000                  
G21  23906717.100    23906716.098    23906718.965                    -1405472.104 7  -1405472.102 6                  -1095173.642 6        82.000          19.000          23.000                  
G22  21332032.404    21332031.704    21332031.902                   -17374927.347 8 -17374927.349 8                 -13538903.094 8       422.000         141.000         155.000                  
G30  19941443.854    19941443.103    19941446.196                   -20744931.714 9 -20744931.713 9                 -16164883.428 9       881.000        1845.000        2111.000                  
> 2024 10 31 00 26 30.0000000  0 11
G02  24264983.988    24264981.612    24264981.967                    -2144819.102 8  -2144819.079 6                  -1671290.140 6       115.000          19.000          37.000                  
G05  24577037.990    24577038.019    24577040.238                     -162469.369 8   -162469.374 6                   -126606.876 6       106.000          34.000          41.000                  
G07  20427799.575    20427798.951    20427799.056                   -24576524.928 9 -24576524.927 9                 -19150541.456 9       679.000        1051.000        1212.000                  
G08  22679538.543    22679537.816    22679541.869                    -9534138.985 8  -9534138.993 8                  -7429204.586 8       206.000         101.000         480.000                  
G09  22479322.821    22479322.583    22479325.792                   -11614053.020 8 -11614053.024 7                  -9049912.904 8       176.000          90.000         233.000                  
G13  22700197.540    22700195.865    22700197.627                    -8312221.005 8  -8312221.007 6                  -6477058.614 7       210.000          30.000          92.000                  
G14  20066200.399    20066199.921    20066201.100                   -24835180.236 9 -24835180.239 9                 -19352089.270 9       635.000         548.000         588.000                  
G17  22280980.329    22280979.651    22280980.761                   -10841988.147 8 -10841988.151 8                  -8448301.404 9       272.000         167.000         536.000                  
G21  23890019.588    23890016.920    23890020.091                    -1493225.819 7  -1493225.845 6                  -1163553.138 6        85.000          20.000          26.000                  
G22  21323657.831    21323656.689    21323657.408                   -17418937.218 8 -17418937.219 8                 -13573196.522 8       423.000         139.000         152.000                  
G30  19969908.678    19969908.002    19969911.102                   -20595347.708 9 -20595347.707 9                 -16048324.488 9       870.000        1820.000        2146.000                  
> 2024 10 31 00 26 40.0000000  0 11
G02  24226840.605    24226838.733    24226839.608                    -2345260.279 8  -2345260.296 6                  -1827478.002 6       117.000          24.000          35.000                  
G05  24612058.464    24612058.343    24612059.931                       21561.459 8     21561.459 6                     16793.622 6       105.000          29.000          39.000                  
G07  20435067.714    20435067.299    20435067.468                   -24538329.276 9 -24538329.276 9                 -19120778.633 9       677.000        1042.000        1233.000                  
G08  22722719.483    22722718.780    22722722.785                    -9307222.200 8  -9307222.203 7                  -7252386.373 8       201.000          97.000         444.000                  
G09  22421708.585    22421708.448    22421711.514                   -11916816.794 8 -11916816.794 7                  -9285832.696 8       181.000          93.000         238.000                  
G13  22752340.686    22752340.340    22752340.938                    -8038203.289 8  -8038203.294 6                  -6263538.395 7       201.000          26.000          89.000                  
G14  20075587.132    20075586.747    20075587.967                   -24785852.762 9 -24785852.762 9                 -19313652.305 9       641.000         555.000         590.000                  
G17  22210365.564    22210364.935    22210366.298                   -11213069.617 8 -11213069.620 8                  -8737455.737 9       289.000         182.000         566.000                  
G21  23873894.424    23873891.199    23873895.119                    -1577963.210 7  -1577963.201 6                  -1229582.294 6        90.000          23.000          21.000                  
G22  21316126.868    21316125.770    21316126.215                   -17458513.131 8 -17458513.131 8                 -13604034.924 8       433.000         144.000         152.000                  
G30  19999146.484    19999145.747    19999148.835                   -20441702.744 9 -20441702.743 9                 -15928601.167 9       863.000        1791.000        2229.000                  
> 2024 10 31 00 26 50.0000000  0 11
G02  24189209.005    24189207.295    24189207.679                    -2543014.991 8  -2543014.955 6                  -1981572.568 6       118.000          22.000          29.000                  
G05  24647155.630    24647154.269    24647156.680                      205993.467 8    205993.469 6                    160506.730 6       103.000          33.000          35.000                  
G07  20443059.386    20443059.025    20443059.254                   -24496332.655 9 -24496332.654 9                 -19088054.016 9       674.000        1037.000        1240.000                  
G08  22766511.243    22766510.584    22766514.499                    -9077094.820 8  -9077094.820 7                  -7073066.397 8       202.000          96.000         418.000                  
G09  22364387.129    22364387.340    22364390.532                   -12218041.589 8 -12218041.589 8                  -9520553.287 8       192.000         114.000         238.000                  
G13  22804732.316    22804732.470    22804733.422                    -7762881.102 8  -7762881.127 6                  -6049001.713 7       198.000          29.000          86.000                  
G14  20085989.295    20085988.838    20085990.029                   -24731189.061 9 -24731189.061 9                 -19271057.240 9       641.000         554.000         585.000                  
G17  22140195.265    22140194.845    22140196.120                   -11581816.116 8 -11581816.118 8                  -9024790.619 9       308.000         205.000         604.000                  
G21  23858352.140    23858349.001    23858353.113                    -1659636.503 7  -1659636.502 6                  -1293223.845 6        94.000          24.000          21.000                  
G22  21309449.026    21309448.049    21309448.789                   -17493604.298 8 -17493604.297 8                 -13631378.716 8       438.000         158.000         161.000                  
G30  20029156.789    20029156.169    20029159.227                   -20283996.938 9 -20283996.937 9                 -15805713.556 9       851.000        1725.000        2279.000                  
> 2024 10 31 00 27  0.0000000  0 11
G02  24152089.645    24152087.133    24152086.827                    -2738080.489 8  -2738080.491 6                  -2133571.610 6       119.000          24.000          27.000                  
G05  24682317.585    24682317.581    24682319.313                      390775.042 8    390775.038 6                    304492.226 6       102.000          30.000          34.000                  
G07  20451765.611    20451765.184    20451765.361                   -24450581.531 9 -24450581.531 9                 -19052403.814 9       671.000        1025.000        1260.000                  
G08  22810897.930    22810896.977    22810901.053                    -8843842.075 8  -8843842.080 8                  -6891311.074 8       201.000         101.000         372.000                  
G09  22307360.184    22307359.589    22307362.475                   -12517723.988 8 -12517723.988 8                  -9754072.016 8       201.000         115.000         252.000                  
G13  22857362.187    22857361.161    22857362.485                    -7486314.979 8  -7486314.985 6                  -5833495.729 7       189.000          28.000          73.000                  
G14  20097398.795    20097398.604    20097399.737                   -24671230.967 9 -24671230.967 9                 -19224336.676 9       652.000         572.000         589.000                  
G17  22070477.227    22070476.747    22070477.845                   -11948187.679 8 -11948187.683 8                  -9310274.904 9       321.000         216.000         634.000                  
G21  23843389.300    23843387.643    23843390.613                    -1738263.672 7  -1738263.657 6                  -1354491.783 6        91.000          19.000          21.000                  
G22  21303622.123    21303620.937    21303621.600                   -17524226.083 8 -17524226.082 8                 -13655239.877 8       440.000         152.000         161.000                  
G30  20059927.462    20059926.778    20059929.907                   -20122296.273 9 -20122296.273 9                 -15679713.069 9       837.000        1689.000        2348.000                  
> 2024 10 31 00 27 10.0000000  0 11
G02  24115493.657    24115491.132    24115491.973                    -2930395.790 8  -2930395.786 6                  -2283427.631 6       120.000          24.000          31.000                  
G05  24717549.648    24717548.633    24717549.788                      575913.263 7    575913.269 6                    448755.604 6        99.000          23.000          40.000                  
G07  20461188.421    20461187.922    20461188.108                   -24401064.800 9 -24401064.802 9                 -19013819.380 9       665.000        1009.000        1231.000                  
G08  22855874.121    22855873.354    22855877.127                    -8607491.238 8  -8607491.246 7                  -6707141.659 8       198.000          97.000         343.000                  
G09  22250637.982    22250637.124    22250640.576                   -12815802.137 8 -12815802.136 8                  -9986340.676 8       209.000         128.000         266.000                  
G13  22910227.079    22910226.528    22910227.363                    -7208507.097 8  -7208507.077 6                  -5617022.146 7       192.000          29.000          71.000                  
G14  20109819.022    20109818.647    20109819.772                   -24605963.429 9 -24605963.429 9                 -19173478.886 9       664.000         591.000         568.000                  
G17  22001229.374    22001229.030    22001230.382                   -12312085.633 8 -12312085.635 8                  -9593831.705 9       319.000         215.000         654.000                  
G21  23829015.658    23829012.651    23829013.711                    -1813805.014 7  -1813805.017 6                  -1413355.185 6        94.000          23.000          22.000                  
G22  21298653.275    21298652.296    21298653.121                   -17550336.761 8 -17550336.761 8                 -13675585.895 8       441.000         156.000         162.000                  
G30  20091456.599    20091456.023    20091459.227                   -19956609.085 9 -19956609.084 9                 -15550606.199 9       825.000        1627.000        2403.000                  
> 2024 10 31 00 27 20.0000000  0 11
G02  24079424.789    24079422.768    24079424.681                    -3119931.889 8  -3119931.899 6                  -2431118.091 6       127.000          28.000          35.000                  
G05  24752842.653    24752842.157    24752843.541                      761383.985 7    761383.962 6                    593278.087 6        98.000          25.000          35.000                  
G07  20471323.644    20471323.212    20471323.523                   -24347803.376 9 -24347803.376 9                 -18972317.008 9       663.000         999.000        1244.000                  
G08  22901428.387    22901427.949    22901431.566                    -8368101.178 8  -8368101.185 7                  -6520604.028 8       193.000          96.000         312.000                  
G09  22194226.046    22194225.865    22194229.135                   -13112245.433 8 -13112245.435 8                 -10217335.430 8       219.000         146.000         300.000                  
G13  22963322.272    22963321.913    22963322.328                    -6929490.787 8  -6929490.795 6                  -5399606.942 7       188.000          30.000          69.000                  
G14  20123245.947    20123245.732    20123246.846                   -24535404.111 9 -24535404.110 9                 -19118497.634 9       664.000         603.000         596.000                  
G17  21932465.634    21932465.270    21932466.385                   -12673442.376 8 -12673442.377 8                  -9875408.340 9       316.000         219.000         665.000                  
G21  23815229.407    23815226.447    23815228.993                    -1886253.121 7  -1886253.118 6                  -1469808.244 6        96.000          24.000          24.000                  
G22  21294544.940    21294543.993    21294544.725                   -17571927.069 8 -17571927.068 8                 -13692409.544 8       450.000         156.000         172.000                  
G30  20123736.892    20123736.136    20123739.472                   -19786975.666 9 -19786975.665 9                 -15418424.347 9       807.000        1567.000        2451.000                  
> 2024 10 31 00 27 30.0000000  0 11
G02  24043890.470    24043887.904    24043889.063                    -3306670.507 8  -3306670.482 6                  -2576628.668 6       132.000          25.000          39.000                  
G05  24788192.410    24788193.114    24788193.733                      947152.683 7    947152.689 6                    738032.748 6        98.000          35.000          35.000                  
G07  20482165.469    20482165.071    20482165.373                   -24290828.973 9 -24290828.972 9                 -18927921.398 9       665.000         999.000        1238.000                  
G08  22947548.298    22947547.279    22947551.266                    -8125741.245 8  -8125741.253 7                  -6331752.217 8       185.000          88.000         279.000                  
G09  22138129.851    22138129.442    22138132.753                   -13407033.344 8 -13407033.347 8                 -10447040.269 8       228.000         151.000         327.000                  
G13  23016638.987    23016638.464    23016638.785                    -6649309.540 8  -6649309.550 6                  -5181283.998 7       183.000          31.000          60.000                  
G14  20137674.181    20137673.928    20137675.386                   -24459582.323 9 -24459582.321 9                 -19059415.751 9       663.000         602.000         600.000                  
G17  21864196.237    21864195.645    21864197.003                   -13032200.128 8 -13032200.131 8                 -10154959.796 9       324.000         224.000         658.000                  
G21  23802030.011    23802027.678    23802031.894                    -1955611.246 7  -1955611.246 6                  -1523853.591 6        94.000          21.000          21.000                  
G22  21291296.485    21291295.329    21291295.875                   -17588998.830 8 -17588998.831 8                 -13705712.253 8       455.000         150.000         174.000                  
G30  20156758.074    20156757.571    20156760.855                   -19613447.138 9 -19613447.138 9                 -15283207.346 9       788.000        1492.000        2411.000                  
> 2024 10 31 00 27 40.0000000  0 11
G02  24008898.682    24008897.501    24008897.966                    -3490550.616 8  -3490550.624 6                  -2719911.863 6       136.000          28.000          37.000                  
G05  24823602.516    24823601.759    24823603.899                     1133228.329 7   1133228.327 6                    883026.557 6        94.000          30.000          27.000                  
G07  20493716.128    20493715.550    20493715.859                   -24230131.151 9 -24230131.152 9                 -18880624.428 9       666.000        1021.000        1255.000                  
G08  22994227.432    22994226.953    22994231.006                    -7880438.026 8  -7880438.027 7                  -6140606.941 8       177.000          81.000         271.000                  
G09  22082360.647    22082360.477    22082363.811                   -13700102.211 8 -13700102.210 8                 -10675405.598 8       235.000         164.000         375.000                  
G13  23070177.273    23070176.398    23070177.798                    -6367963.755 8  -6367963.764 6                  -4962053.619 7       177.000          24.000          60.000                  
G14  20153106.668    20153106.397    20153107.442                   -24378485.719 9 -24378485.717 9                 -18996223.615 9       680.000         618.000         576.000                  
G17  21796440.567    21796440.115    21796441.287                   -13388257.912 8 -13388257.913 8                 -10432407.389 9       328.000         241.000         674.000                  
G21  23789427.690    23789424.205    23789427.228                    -2021840.353 7  -2021840.333 6                  -1575460.705 6        91.000          18.000          19.000                  
G22  21288915.192    21288914.091    21288914.751                   -17601512.110 8 -17601512.108 8                 -13715462.892 8       453.000         162.000         168.000                  
G30  20190519.187    20190518.528    20190521.815                   -19436032.148 9 -19436032.147 9                 -15144961.935 9       774.000        1431.000        2390.000                  
> 2024 10 31 00 27 50.0000000  0 11
G02  23974450.859    23974450.092    23974449.957                    -3671573.882 8  -3671573.893 6                  -2860968.908 6       143.000          25.000          39.000                  
G05  24859060.576    24859059.602    24859061.164                     1319557.572 7   1319557.587 6                   1028217.992 6        94.000          29.000          35.000                  
G07  20505965.060    20505964.579    20505964.900                   -24165762.329 9 -24165762.329 9                 -18830466.954 9       677.000        1040.000        1273.000                  
G08  23041450.517    23041449.945    23041454.116                    -7632280.542 8  -7632280.548 7                  -5947237.569 8       172.000          76.000         246.000                  
G09  22026919.438    22026918.514    22026921.993                   -13991450.482 8 -13991450.484 8                 -10902430.201 8       246.000         186.000         410.000                  
G13  23123926.007    23123924.893    23123926.040                    -6085515.839 8  -6085515.857 6                  -4741964.456 7       173.000          29.000          55.000                  
G14  20169532.815    20169532.359    20169533.639                   -24292165.565 9 -24292165.563 9                 -18928961.191 9       654.000         577.000         568.000                  
G17  21729206.475    21729205.681    21729207.042                   -13741576.731 8 -13741576.734 8                 -10707720.726 9       317.000         222.000         702.000                  
G21  23777415.067    23777412.355    23777415.380                    -2084964.244 7  -2084964.251 6                  -1624648.159 6        87.000          20.000          21.000                  
G22  21287397.041    21287395.987    21287396.451                   -17609490.124 8 -17609490.122 8                 -13721679.560 8       462.000         161.000         166.000                  
G30  20225006.092    20225005.455    20225008.751                   -19254802.203 9 -19254802.203 9                 -15003743.835 9       762.000        1394.000        2350.000                  
> 2024 10 31 00 28  0.0000000  0 11
G02  23940559.189    23940558.527    23940559.257                    -3849674.540 8  -3849674.523 6                  -2999748.619 6       147.000          22.000          50.000                  
G05  24894568.555    24894568.743    24894571.082                     1506155.583 7   1506155.582 6                   1173618.932 6        95.000          23.000          28.000                  
G07  20518915.419    20518915.027    20518915.360                   -24097707.514 9 -24097707.514 9                 -18777437.278 9       682.000        1068.000        1268.000                  
G08  23089212.885    23089212.142    23089215.958                    -7381290.076 8  -7381290.080 7                  -5751660.673 8       174.000          77.000         240.000                  
G09  21971817.874    21971817.383    21971820.959                   -14281008.560 8 -14281008.561 8                 -11128059.846 8       259.000         201.000         453.000                  
G13  23177884.437    23177883.818    23177884.933                    -5801960.187 8  -5801960.202 6                  -4521012.094 7       172.000          23.000          53.000                  
G14  20186955.833    20186955.656    20186956.816                   -24200606.484 9 -24200606.480 9                 -18857616.490 9       646.000         562.000         540.000                  
G17  21662513.420    21662512.899    21662514.250                   -14092049.285 8 -14092049.289 8                 -10980816.182 9       296.000         190.000         711.000                  
G21  23766001.792    23765998.886    23766001.713                    -2144939.396 7  -2144939.397 6                  -1671382.064 6        84.000          20.000          16.000                  
G22  21286750.415    21286749.184    21286749.695                   -17612889.416 8 -17612889.420 8                 -13724328.394 8       464.000         167.000         164.000                  
G30  20260218.307    20260217.597    20260220.924                   -19069761.309 9 -19069761.309 9                 -14859556.164 9       755.000        1370.000        2270.000                  
> 2024 10 31 00 28 10.0000000  0 12
G02  23907224.999    23907223.030    23907223.495                    -4024850.885 8  -4024850.893 6                  -3136249.632 6       149.000          24.000          47.000                  
G05  24930118.476    24930119.436    24930120.651                     1692973.874 7   1692973.882 6                   1319191.385 6        90.000          24.000          29.000                  
G07  20532557.932    20532557.563    20532557.805                   -24026015.892 9 -24026015.892 9                 -18721573.713 9       688.000        1085.000        1232.000                  
G08  23137498.018    23137496.868    23137500.942                    -7127551.678 8  -7127551.687 7                  -5553942.535 8       175.000          74.000         226.000                  
G09  21917058.713    21917058.097    21917061.726                   -14568770.345 8 -14568770.351 8                 -11352289.789 8       271.000         224.000         482.000                  
G13  23232043.697    23232042.019    23232043.691                    -5517354.824 8  -5517354.815 6                  -4299241.815 6       168.000          22.000          43.000                  
G14  20205366.555    20205366.224    20205367.405                   -24103858.081 9 -24103858.076 9                 -18782228.163 8       632.000         549.000         484.000                  
G17  21596370.721    21596370.195    21596371.350                   -14439631.797 8 -14439631.798 8                 -11251659.645 9       287.000         178.000         682.000                  
G19  24814003.259    24814002.652    24814020.079                     -437034.513 8   -437034.505 6                   -340550.878 6       113.000          26.000          18.000                  
G21  23755183.831    23755181.321    23755185.491                    -2201786.784 7  -2201786.800 6                  -1715678.753 6        85.000          21.000          22.000                  
G22  21286970.687    21286969.535    21286970.225                   -17611731.272 8 -17611731.274 8                 -13723425.976 8       457.000         166.000         162.000                  
G30  20296142.556    20296141.982    20296145.281                   -18880977.653 9 -18880977.653 9                 -14712452.056 9       744.000        1331.000        2148.000                  
> 2024 10 31 00 28 20.0000000  0 12
G02  23874455.855    23874453.861    23874455.309                    -4197053.092 8  -4197053.075 6                  -3270433.142 7       151.000          28.000          53.000                  
G05  24965710.381    24965711.533    24965713.045                     1880012.444 7   1880012.456 6                   1464935.511 6        92.000          24.000          28.000                  
G07  20546892.336    20546891.843    20546892.122                   -23950688.968 9 -23950688.969 9                 -18662877.443 9       693.000        1099.000        1262.000                  
G08  23186298.801    23186297.699    23186301.920                    -6871102.118 8  -6871102.119 7                  -5354111.804 8       168.000          76.000         241.000                  
G09  21862651.606    21862651.236    21862654.579                   -14854681.156 8 -14854681.160 8                 -11575077.414 9       286.000         243.000         537.000                  
G13  23286400.383    23286398.947    23286401.661                    -5231708.942 8  -5231708.926 6                  -4076660.714 6       160.000          24.000          47.000                  
G14  20224763.946    20224763.818    20224765.109                   -24001922.785 9 -24001922.779 9                 -18702798.095 8       631.000         545.000         478.000                  
G17  21530795.401    21530794.836    21530796.180                   -14784231.862 8 -14784231.863 8                 -11520179.120 9       297.000         188.000         658.000                  
G19  24743448.752    24743446.837    24743448.279                     -807803.718 8   -807803.736 6                   -629459.076 6       117.000          23.000          28.000                  
G21  23744967.269    23744964.168    23744967.290                    -2255479.360 7  -2255479.350 6                  -1757517.119 6        78.000          23.000          25.000                  
G22  21288063.178    21288062.203    21288062.898                   -17605989.557 8 -17605989.558 8                 -13718951.945 8       465.000         166.000         170.000                  
G30  20332775.388    20332774.715    20332777.995                   -18688471.406 9 -18688471.405 9                 -14562447.225 9       737.000        1310.000        2074.000                  
> 2024 10 31 00 28 30.0000000  0 12
G02  23842257.839    23842256.747    23842257.765                    -4366251.642 8  -4366251.625 6                  -3402276.162 7       155.000          23.000          63.000                  
G05  25001342.001    25001341.593    25001342.875                     2067252.098 7   2067252.104 6                   1610836.358 6        96.000          30.000          32.000                  
G07  20561914.234    20561913.692    20561913.969                   -23871748.540 9 -23871748.540 9                 -18601365.456 9       687.000        1086.000        1238.000                  
G08  23235604.409    23235603.699    23235607.734                    -6611998.022 8  -6611998.016 7                  -5152212.602 8       168.000          64.000         230.000                  
G09  21808603.468    21808603.148    21808606.359                   -15138706.010 8 -15138706.013 8                 -11796395.457 9       293.000         261.000         569.000                  
G13  23340949.817    23340948.040    23340949.647                    -4945051.573 8  -4945051.559 6                  -3853291.478 6       160.000          31.000          50.000                  
G14  20245144.343    20245144.131    20245145.162                   -23894824.109 9 -23894824.104 9                 -18619344.615 8       641.000         552.000         457.000                  
G17  21465801.580    21465801.239    21465802.109                   -15125776.481 8 -15125776.482 8                 -11786317.733 9       300.000         197.000         637.000                  
G19  24673029.929    24673029.497    24673030.436                    -1177849.648 8  -1177849.646 6                   -917806.389 6       125.000          23.000          28.000                  
G21  23735351.064    23735348.142    23735352.206                    -2306010.758 7  -2306010.762 6                  -1796892.268 6        79.000          19.000          22.000                  
G22  21290029.086    21290027.963    21290028.688                   -17595659.021 8 -17595659.023 8                 -13710902.202 8       465.000         163.000         166.000                  
G30  20370108.930    20370108.139    20370111.437                   -18492283.016 9 -18492283.014 9                 -14409573.190 9       729.000        1286.000        1924.000                  
> 2024 10 31 00 28 40.0000000  0 12
G02  23810636.920    23810635.138    23810636.342                    -4532423.640 8  -4532423.663 6                  -3531760.811 7       154.000          30.000          53.000                  
G05  25037006.258    25037005.486    25037006.516                     2254667.198 7   2254667.217 6                   1756873.903 6        85.000          25.000          26.000                  
G07  20577618.301    20577617.798    20577618.090                   -23789223.064 9 -23789223.064 9                 -18537059.936 9       684.000        1081.000        1262.000                  
G08  23285403.635    23285402.567    23285406.890                    -6350302.302 8  -6350302.316 7                  -4948293.947 8       165.000          65.000         221.000                  
G09  21754919.895    21754919.261    21754922.561                   -15420815.971 8 -15420815.972 8                 -12016221.376 9       302.000         272.000         602.000                  
G13  23395684.529    23395683.090    23395684.031                    -4657417.655 8  -4657417.659 6                  -3629161.246 6       152.000          25.000          42.000                  
G14  20266501.369    20266501.059    20266502.152                   -23782592.944 9 -23782592.938 9                 -18531891.798 8       642.000         556.000         451.000                  
G17  21401401.466    21401401.270    21401402.550                   -15464198.693 8 -15464198.695 8                 -12050023.301 9       296.000         196.000         661.000                  
G19  24602760.692    24602759.409    24602760.122                    -1547122.510 8  -1547122.502 6                  -1205551.259 6       131.000          27.000          39.000                  
G21  23726336.981    23726333.830    23726338.661                    -2353381.164 7  -2353381.158 6                  -1833804.327 6        82.000          19.000          20.000                  
G22  21292867.865    21292866.688    21292867.406                   -17580741.651 8 -17580741.650 8                 -13699278.302 8       466.000         169.000         165.000                  
G30  20408134.087    20408133.321    20408136.636                   -18292459.487 9 -18292459.486 9                 -14253866.582 9       729.000        1265.000        1869.000                  
> 2024 10 31 00 28 50.0000000  0 12
G02  23779600.826    23779598.630    23779599.444                    -4695522.430 8  -4695522.412 6                  -3658850.763 7       150.000          29.000          54.000                  
G05  25072702.890    25072702.691    25072704.173                     2442256.935 7   2442256.917 6                   1903047.475 6        86.000          25.000          27.000                  
G07  20594003.750    20594003.187    20594003.520                   -23703117.339 9 -23703117.339 9                 -18469964.590 9       683.000        1061.000        1252.000                  
G08  23335688.207    23335687.548    23335691.528                    -6086053.470 8  -6086053.475 7                  -4742385.847 8       169.000          69.000         226.000                  
G09  21701610.415    21701610.009    21701613.502                   -15700957.538 8 -15700957.540 8                 -12234513.485 9       307.000         284.000         640.000                  
G13  23450603.641    23450602.583    23450603.632                    -4368817.517 8  -4368817.530 6                  -3404278.185 6       145.000          25.000          38.000                  
G14  20288833.312    20288833.024    20288834.324                   -23665236.993 9 -23665236.987 9                 -18440445.639 8       625.000         522.000         438.000                  
G17  21337612.954    21337613.255    21337614.456                   -15799406.997 8 -15799407.000 8                 -12311224.525 9       306.000         203.000         672.000                  
G19  24532651.885    24532649.757    24532650.745                    -1915547.558 8  -1915547.556 6                  -1492635.570 6       137.000          33.000          36.000                  
G21  23717928.586    23717925.248    23717930.275                    -2397566.952 7  -2397566.954 6                  -1868234.836 6        87.000          20.000          24.000                  
G22  21296583.230    21296582.369    21296583.037                   -17561216.087 8 -17561216.089 8                 -13684063.607 8       460.000         161.000         153.000                  
G30  20446846.652    20446845.937    20446849.170                   -18089023.772 9 -18089023.771 9                 -14095345.283 9       726.000        1277.000        1752.000                  
> 2024 10 31 00 29  0.0000000  0 12
G02  23749150.072    23749146.960    23749148.548                    -4855542.929 8  -4855542.928 6                  -3783542.049 7       153.000          28.000          52.000                  
G05  25108426.568    25108426.062    25108428.034                     2629979.559 7   2629979.570 6                   2049324.677 6        84.000          23.000          26.000                  
G07  20611061.530    20611061.025    20611061.421                   -23613477.829 9 -23613477.829 9                 -18400115.624 9       669.000        1024.000        1230.000                  
G08  23386444.022    23386443.372    23386447.489                    -5819331.377 8  -5819331.379 7                  -4534550.526 8       163.000          72.000         213.000                  
G09  21648678.063    21648677.681    21648681.211                   -15979118.347 8 -15979118.349 8                 -12451262.153 9       313.000         289.000         677.000                  
G13  23505696.197    23505695.329    23505696.610                    -4079302.616 8  -4079302.624 6                  -3178682.302 6       139.000          24.000          35.000                  
G14  20312131.347    20312130.849    20312132.065                   -23542806.487 9 -23542806.479 9                 -18345045.283 8       655.000         579.000         421.000                  
G17  21274446.650    21274446.506    21274447.678                   -16131350.921 8 -16131350.923 8                 -12569882.089 9       324.000         224.000         631.000                  
G19  24462710.821    24462708.799    24462710.017                    -2283090.796 8  -2283090.790 6                  -1779032.738 6       142.000          24.000          37.000                  
G21  23710122.920    23710118.947    23710124.592                    -2438586.764 7  -2438586.783 6                  -1900198.349 6        91.000          26.000          25.000                  
G22  21301171.856    21301170.824    21301171.343                   -17537103.437 8 -17537103.437 8                 -13665274.560 8       457.000         154.000         160.000                  
G30  20486234.298    20486233.557    20486236.766                   -17882040.524 9 -17882040.523 9                 -13934059.675 9       713.000        1207.000        1643.000                  
> 2024 10 31 00 29 10.0000000  0 12
G02  23719294.628    23719292.729    23719294.050                    -5012428.809 8  -5012428.810 6                  -3905790.774 7       148.000          23.000          55.000                  
G05  25144175.630    25144176.318    25144177.082                     2817845.288 7   2817845.278 6                   2195713.357 6        82.000          27.000          25.000                  
G07  20628792.507    20628792.233    20628792.680                   -23520299.771 9 -23520299.772 9                 -18327509.373 9       662.000        1003.000        1256.000                  
G08  23437665.208    23437664.662    23437668.699                    -5550164.181 8  -5550164.177 7                  -4324809.941 8       162.000          66.000         220.000                  
G09  21596135.250    21596134.688    21596138.124                   -16255234.306 8 -16255234.306 8                 -12666417.430 9       321.000         303.000         729.000                  
G13  23560962.764    23560962.774    23560963.085                    -3788872.560 8  -3788872.569 6                  -2952373.297 6       130.000          22.000          34.000                  
G14  20336394.663    20336394.468    20336395.573                   -23415301.086 9 -23415301.080 9                 -18245690.461 8       686.000         630.000         447.000                  
G17  21211920.464    21211920.313    21211921.408                   -16459928.214 8 -16459928.217 8                 -12825916.312 9       335.000         255.000         609.000                  
G19  24392952.337    24392951.658    24392952.396                    -2649666.088 8  -2649666.086 6                  -2064675.693 6       146.000          24.000          40.000                  
G21  23702925.598    23702922.588    23702926.364                    -2476407.837 7  -2476407.837 6                  -1929669.311 6        95.000          21.000          22.000                  
G22  21306639.001    21306637.927    21306638.596                   -17508374.374 8 -17508374.376 8                 -13642888.301 8       445.000         157.000         158.000                  
G30  20526294.506    20526293.786    20526297.022                   -17671523.004 9 -17671523.005 9                 -13770020.089 9       691.000        1143.000        1637.000                  
> 2024 10 31 00 29 20.0000000  0 12
G02  23690035.842    23690034.732    23690035.960                    -5166182.919 8  -5166182.933 6                  -4025599.185 6       157.000          30.000          49.000                  
G05  25179944.132    25179943.231    25179946.183                     3005805.938 7   3005805.912 6                   2342175.993 6        81.000          22.000          23.000                  
G07  20647186.774    20647186.465    20647186.911                   -23423637.605 9 -23423637.604 9                 -18252188.222 9       652.000         978.000        1275.000                  
G08  23489334.932    23489333.969    23489338.407                    -5278638.664 8  -5278638.673 7                  -4113231.718 8       164.000          57.000         225.000                  
G09  21543981.939    21543981.551    21543985.182                   -16529299.739 8 -16529299.743 8                 -12879974.897 9       328.000         316.000         793.000                  
G13  23616393.600    23616393.093    23616393.869                    -3497585.332 8  -3497585.351 6                  -2725396.389 6       128.000          24.000          30.000                  
G14  20361612.742    20361612.482    20361613.631                   -23282780.166 9 -23282780.158 9                 -18142427.442 8       685.000         632.000         477.000                  
G17  21150043.082    21150043.052    21150044.258                   -16785095.247 8 -16785095.250 8                 -13079293.190 9       356.000         266.000         656.000                  
G19  24323385.442    24323383.855    24323385.133                    -3015245.285 8  -3015245.281 6                  -2349542.483 6       148.000          29.000          45.000                  
G21  23696333.440    23696329.802    23696333.472                    -2511056.758 8  -2511056.757 6                  -1956668.546 6       101.000          21.000          26.000                  
G22  21312978.667    21312977.419    21312978.369                   -17475058.632 8 -17475058.633 8                 -13616928.007 8       445.000         153.000         165.000                  
G30  20567013.244    20567012.777    20567016.106                   -17457543.401 9 -17457543.400 9                 -13603282.777 9       673.000        1082.000        1655.000                  
> 2024 10 31 00 29 30.0000000  0 12
G02  23661383.215    23661381.523    23661381.710                    -5316756.492 8  -5316756.481 6                  -4142929.251 7       157.000          32.000          52.000                  
G05  25215731.450    25215730.457    25215732.001                     3193865.497 7   3193865.494 6                   2488715.668 6        77.000          25.000          28.000                  
G07  20666243.601    20666243.151    20666243.622                   -23323494.229 9 -23323494.230 9                 -18174154.455 9       643.000         926.000        1276.000                  
G08  23541446.895    23541446.043    23541450.055                    -5004789.445 8  -5004789.460 7                  -3899842.826 8       158.000          67.000         217.000                  
G09  21492230.182    21492229.967    21492233.397                   -16801256.852 8 -16801256.857 8                 -13091889.515 9       342.000         341.000         822.000                  
G13  23671985.146    23671985.159    23671986.133                    -3205446.645 8  -3205446.655 6                  -2497755.987 6       126.000          18.000          31.000                  
G14  20387783.437    20387783.196    20387784.318                   -23145252.247 9 -23145252.239 9                 -18035262.865 8       686.000         630.000         464.000                  
G17  21088833.750    21088833.202    21088834.303                   -17106756.097 8 -17106756.100 8                 -13329937.979 9       390.000         321.000         730.000                  
G19  24254022.996    24254020.556    24254022.450                    -3379747.809 8  -3379747.791 6                  -2633570.315 6       157.000          32.000          46.000                  
G21  23690349.187    23690345.138    23690348.377                    -2542508.802 8  -2542508.773 6                  -1981176.660 6       110.000          20.000          24.000                  
G22  21320194.959    21320194.097    21320195.062                   -17437135.331 8 -17437135.330 8                 -13587377.409 8       454.000         161.000         170.000                  
G30  20608387.325    20608386.719    20608390.002                   -17240122.134 9 -17240122.133 9                 -13433863.649 9       652.000        1028.000        1558.000                  
> 2024 10 31 00 29 40.0000000  0 12
G02  23633341.568    23633339.526    23633340.112                    -5464120.453 8  -5464120.457 6                  -4257758.306 6       161.000          25.000          50.000                  
G05  25251533.239    25251532.883    25251534.496                     3382009.060 7   3382009.061 6                   2635320.817 6        78.000          21.000          24.000                  
G07  20685958.485    20685957.927    20685958.560                   -23219892.014 9 -23219892.013 9                 -18093425.486 9       633.000         917.000        1280.000                  
G08  23593990.305    23593989.687    23593993.888                    -4728670.297 8  -4728670.299 7                  -3684685.150 8       155.000          68.000         203.000                  
G09  21440887.248    21440886.726    21440890.172                   -17071066.907 8 -17071066.908 8                 -13302131.101 9       354.000         369.000         855.000                  
G13  23727735.072    23727734.686    23727735.836                    -2912481.232 8  -2912481.229 6                  -2269471.392 6       121.000          21.000          35.000                  
G14  20414901.489    20414901.228    20414902.373                   -23002746.109 9 -23002746.101 9                 -17924219.158 8       667.000         603.000         469.000                  
G17  21028305.622    21028305.110    21028306.195                   -17424833.961 8 -17424833.965 8                 -13577790.831 9       409.000         355.000         778.000                  
G19  24184877.003    24184875.304    24184876.459                    -3743111.706 8  -3743111.685 6                  -2916710.915 7       167.000          28.000          53.000                  
G21  23684972.630    23684970.088    23684973.353                    -2570759.037 8  -2570759.021 6                  -2003189.866 6       110.000          25.000          27.000                  
G22  21328288.777    21328287.800    21328288.532                   -17394603.970 8 -17394603.970 8                 -13554236.120 8       452.000         163.000         168.000                  
G30  20650408.561    20650407.904    20650411.251                   -17019299.099 9 -17019299.099 9                 -13261793.795 9       634.000         965.000        1478.000                  
> 2024 10 31 00 29 50.0000000  0 12
G02  23605910.674    23605908.928    23605909.189                    -5608266.024 8  -5608266.018 6                  -4370079.540 6       164.000          28.000          42.000                  
G05  25287345.343    25287344.574    25287347.758                     3570202.494 7   3570202.502 6                   2781964.807 6        77.000          29.000          18.000                  
G07  20706323.320    20706322.815    20706323.511                   -23112873.630 9 -23112873.630 9                 -18010034.571 9       637.000         934.000        1290.000                  
G08  23646952.962    23646951.695    23646955.773                    -4450354.603 8  -4450354.615 6                  -3467815.878 8       150.000          50.000         188.000                  
G09  21389955.805    21389955.627    21389959.246                   -17338710.794 8 -17338710.794 8                 -13510684.768 9       369.000         406.000         891.000                  
G13  23783634.166    23783632.729    23783633.943                    -2618733.195 8  -2618733.185 6                  -2040576.980 6       112.000          24.000          31.000                  
G14  20442957.291    20442957.185    20442958.320                   -22855311.275 9 -22855311.267 9                 -17809334.913 8       661.000         591.000         465.000                  
G17  20968469.774    20968469.247    20968470.620                   -17739271.845 8 -17739271.849 8                 -13822807.333 9       418.000         382.000         798.000                  
G19  24115956.107    24115953.883    24115954.980                    -4105294.256 8  -4105294.274 6                  -3198930.989 7       176.000          39.000          57.000                  
G21  23680202.175    23680200.831    23680203.889                    -2595822.803 8  -2595822.789 6                  -2022720.154 6       113.000          24.000          28.000                  
G22  21337255.284    21337253.945    21337255.040                   -17347484.682 8 -17347484.681 8                 -13517519.822 8       449.000         155.000         158.000                  
G30  20693065.705    20693065.080    20693068.419                   -16795134.119 9 -16795134.118 9                 -13087119.825 9       622.000         924.000        1426.000                  
> 2024 10 31 00 30  0.0000000  0 12
G02  23579102.411    23579100.149    23579101.008                    -5749146.289 8  -5749146.296 6                  -4479856.358 6       172.000          24.000          42.000                  
G05  25323168.759    25323167.450    25323170.532                     3758450.071 7   3758450.087 6                   2928650.989 6        72.000          24.000          26.000                  
G07  20727337.676    20727337.082    20727337.770                   -23002443.518 9 -23002443.518 9                 -17923985.173 9       641.000         930.000        1257.000                  
G08  23700324.861    23700324.113    23700329.060                    -4169877.115 8  -4169877.107 7                  -3249262.087 8       139.000          51.000         184.000                  
G09  21339448.444    21339448.044    21339451.454                   -17604130.713 8 -17604130.716 8                 -13717505.477 9       378.000         429.000         902.000                  
G13  23839679.871    23839678.841    23839679.776                    -2324207.919 8  -2324207.933 6                  -1811076.957 6       104.000          21.000          23.000                  
G14  20471949.105    20471948.773    20471949.873                   -22702959.742 9 -22702959.734 9                 -17690619.479 8       662.000         581.000         436.000                  
G17  20909345.062    20909344.588    20909345.987                   -18049973.970 8 -18049973.972 8                 -14064912.866 9       458.000         451.000         815.000                  
G19  24047275.229    24047273.289    24047274.595                    -4466213.782 8  -4466213.753 6                  -3480166.879 7       186.000          37.000          67.000                  
G21  23676044.362    23676041.910    23676044.691                    -2617677.504 8  -2617677.488 6                  -2039749.838 6       117.000          23.000          29.000                  
G22  21347098.130    21347097.144    21347097.869                   -17295760.038 8 -17295760.037 8                 -13477214.945 8       446.000         154.000         152.000                  
G30  20736355.038    20736354.264    20736357.483                   -16567648.656 9 -16567648.655 9                 -12909858.474 9       616.000         909.000        1367.000                  
> 2024 10 31 00 30 10.0000000  0 12
G02  23552915.253    23552913.929    23552914.275                    -5886759.633 8  -5886759.633 6                  -4587087.570 6       178.000          29.000          41.000                  
G05  25358992.509    25358992.503    25358993.916                     3946712.007 7   3946711.981 6                   3075348.334 6        72.000          19.000          24.000                  
