     3.03           OBSERVATION DATA    M (MIXED)           RINEX VERSION / TYPE
BJPP                CNES                20241031 162228 UTC PGM / RUN BY / DATE 
MARKER                                                      MARKER NAME         
SPACECRAFT                                                  MARKER TYPE         
OBSERVER            CNES                                    OBSERVER / AGENCY   
RECNUM              BLACKJACK           RECVERS             REC # / TYPE / VERS 
ANTNUM              BLACKJACK                               ANT # / TYPE        
        0.0000        0.0000        0.0000                  ANTENNA: DELTA H/E/N
G   12 C1C C1W C2W C2X L1C L1W L2X L2W S1C S1W S2W S2X      SYS / # / OBS TYPES 
DBHZ                                                        SIGNAL STRENGTH UNIT
This rinex produced from the following file(s):             COMMENT             
/tmp/mesos_work/slaves/d197f515-9ebc-49f2-8adc-fe7a9d3e6458-COMMENT             
S10/frameworks/8c1b9f46-52ed-4aff-9edf-38d17bf6761e-3293/exeCOMMENT             
cutors/toil-101536/runs/188393f4-b3be-4ebb-b39d-7039b0e31da9COMMENT             
/d37002936a6157a1b74a96f59611e4b3/f2e8/5a13/tmpczro4oot_vrb3COMMENT             
h66/stg5e6823ad-023d-4f4b-961b-55fdd08e7e88/SWOT_ASX_2024103COMMENT             
1T154017_20241031T140329_20241031T155400_O_APID1280.PTM_0   COMMENT             
  2024    10    31    14     3    0.0000000                 TIME OF FIRST OBS   
G L1C                                                       SYS / PHASE SHIFT   
G L1W -0.25000                                              SYS / PHASE SHIFT   
G L2W                                                       SYS / PHASE SHIFT   
G L2X  0.25000                                              SYS / PHASE SHIFT   
                                                            END OF HEADER       
> 2024 10 31 14 03  0.0000000  0  2
G22  19751662.139    19751661.163    19751661.162                   -27851488.519 9 -27851488.520 8                 -21702457.034 8       623.000         305.000         383.000                  
G24  22108786.754    22108786.379    22108789.035                   -12292366.779 8 -12292366.783 8                  -9578470.914 8       243.000         153.000         423.000                  
> 2024 10 31 14 03 10.0000000  0 11
G10  25064148.223    25064147.138    25064149.100                     -586193.819 7   -586193.815 6                   -456775.770 6        64.000          22.000          20.000                  
G13  19920872.632    19920872.037    19920872.667                   -22907909.940 9 -22907909.942 8                 -17850320.612 8       721.000         305.000         227.000                  
G14  20167275.063    20167274.768    20167275.457                   -23163628.040 9 -23163628.038 8                 -18049580.914 8       602.000         488.000         238.000                  
G15  19926075.247    19926074.853    19926075.392                   -23601726.592 9 -23601726.593 9                 -18390958.227 9       657.000         967.000         774.000                  
G17  21505553.674    21505552.940    21505553.946                   -16556273.487 8 -16556273.488 8                 -12900993.100 8       259.000         151.000         315.000                  
G19  23433546.917    23433544.993    23433544.081                    -4356404.397 8  -4356404.388 6                  -3394605.662 6       140.000          28.000          20.000                  
G21  24554151.746    24554149.324    24554152.211                      565400.096 7    565400.106 6                    440559.071 6        81.000          21.000          15.000                  
G22  19741264.153    19741263.035    19741263.098                   -27906130.886 9 -27906130.887 8                 -21745035.547 8       632.000         309.000         360.000                  
G23  23084570.399    23084570.097    23084570.978                    -7508130.039 8  -7508130.045 7                  -5850494.243 7       201.000          58.000          68.000                  
G24  22137467.094    22137466.712    22137469.532                   -12141650.429 8 -12141650.430 8                  -9461029.635 8       237.000         146.000         392.000                  
G30  23216970.726    23216969.472    23216973.319                    -8032187.008 8  -8032187.002 7                  -6258851.540 8       187.000          84.000         170.000                  
> 2024 10 31 14 03 20.0000000  0 11
G10  25131883.852    25131885.977    25131889.634                     -230221.581 7   -230221.597 6                   -179394.943 6        58.000          21.000          18.000                  
G13  19889034.872    19889034.520    19889034.550                   -23075218.544 9 -23075218.545 8                 -17980691.043 8       748.000         334.000         251.000                  
G14  20170983.816    20170983.339    20170983.995                   -23144139.141 9 -23144139.139 9                 -18034394.778 8       605.000         504.000         265.000                  
G15  19928966.337    19928966.166    19928966.596                   -23586533.413 9 -23586533.413 9                 -18379119.406 9       663.000         999.000         877.000                  
G17  21452663.850    21452663.327    21452664.351                   -16834210.128 8 -16834210.132 8                 -13117567.104 8       279.000         166.000         361.000                  
G19  23356934.524    23356931.718    23356932.983                    -4759005.834 8  -4759005.828 6                  -3708320.956 6       142.000          26.000          23.000                  
G21  24593950.550    24593947.308    24593951.300                      774541.489 7    774541.505 6                    603516.071 6        81.000          21.000          16.000                  
G22  19731980.446    19731979.426    19731979.421                   -27954917.448 9 -27954917.450 8                 -21783051.084 8       648.000         323.000         406.000                  
G23  23142027.941    23142027.630    23142028.947                    -7206188.373 8  -7206188.386 6                  -5615215.085 7       202.000          45.000          82.000                  
G24  22166602.778    22166602.419    22166605.492                   -11988540.144 8 -11988540.146 8                  -9341722.965 8       237.000         130.000         433.000                  
G30  23186981.664    23186980.238    23186983.898                    -8189782.026 8  -8189782.022 7                  -6381652.838 8       189.000          86.000         187.000                  
> 2024 10 31 14 03 30.0000000  0 11
G10  25199713.006    25199710.473    25199715.029                      126203.132 6    126203.120 6                     98338.432 6        48.000          23.000          20.000                  
G13  19857822.818    19857822.238    19857822.516                   -23239240.287 9 -23239240.287 8                 -18108500.292 8       750.000         335.000         262.000                  
G14  20175673.524    20175673.179    20175673.806                   -23119494.359 9 -23119494.357 8                 -18015191.077 8       587.000         464.000         269.000                  
G15  19932475.770    19932475.678    19932476.023                   -23568090.661 9 -23568090.663 9                 -18364748.461 9       639.000         917.000         887.000                  
G17  21400555.920    21400555.171    21400556.322                   -17108040.466 8 -17108040.469 8                 -13330941.389 8       290.000         177.000         373.000                  
G19  23280659.495    23280657.907    23280658.577                    -5159826.692 8  -5159826.684 6                  -4020648.818 6       139.000          22.000          23.000                  
G21  24634218.538    24634215.460    24634218.782                      986150.036 7    986150.011 6                    768401.976 6        80.000          19.000          18.000                  
G22  19723810.423    19723809.310    19723809.174                   -27997851.757 9 -27997851.754 8                 -21816506.412 8       631.000         306.000         427.000                  
G23  23199683.258    23199682.797    23199684.115                    -6903207.931 8  -6903207.935 6                  -5379126.485 7       184.000          49.000          79.000                  
G24  22196188.499    22196187.776    22196190.854                   -11833067.944 8 -11833067.949 8                  -9220575.826 8       224.000         130.000         443.000                  
G30  23157381.352    23157380.861    23157384.450                    -8345327.836 8  -8345327.837 7                  -6502857.360 8       182.000          81.000         191.000                  
> 2024 10 31 14 03 40.0000000  0 10
G13  19827247.112    19827246.546    19827246.751                   -23399917.218 9 -23399917.217 8                 -18233703.170 8       767.000         338.000         273.000                  
G14  20181347.227    20181347.135    20181347.610                   -23089678.001 9 -23089677.997 8                 -17991957.577 8       581.000         453.000         260.000                  
G15  19936608.800    19936608.509    19936609.021                   -23546372.039 9 -23546372.039 9                 -18347824.907 9       626.000         890.000         853.000                  
G17  21349246.693    21349246.213    21349247.006                   -17377672.319 8 -17377672.322 8                 -13541044.130 8       315.000         227.000         359.000                  
G19  23204743.510    23204741.893    23204743.034                    -5558770.080 8  -5558770.090 6                  -4331513.775 6       146.000          34.000          31.000                  
G21  24674955.040    24674952.387    24674954.662                     1200218.833 7   1200218.829 6                    935208.836 6        78.000          26.000          16.000                  
G22  19716761.339    19716760.254    19716760.262                   -28034894.638 9 -28034894.636 8                 -21845371.008 8       634.000         307.000         429.000                  
G23  23257534.233    23257533.545    23257535.018                    -6599199.213 8  -6599199.206 6                  -5142236.633 7       181.000          44.000          70.000                  
G24  22226225.638    22226224.959    22226228.125                   -11675221.837 8 -11675221.837 8                  -9097578.900 8       223.000         120.000         435.000                  
G30  23128180.091    23128179.397    23128183.465                    -8498781.922 8  -8498781.930 7                  -6622431.963 8       183.000          84.000         186.000                  
> 2024 10 31 14 03 50.0000000  0 10
G13  19797306.970    19797306.570    19797306.709                   -23557253.221 9 -23557253.221 8                 -18356302.700 8       778.000         363.000         246.000                  
G14  20187996.191    20187996.066    20187996.534                   -23054737.077 9 -23054737.075 8                 -17964730.904 8       582.000         463.000         222.000                  
G15  19941358.294    19941358.021    19941358.605                   -23521413.046 9 -23521413.047 9                 -18328376.370 9       629.000         880.000         775.000                  
G17  21298742.252    21298741.874    21298742.424                   -17643075.326 8 -17643075.330 8                 -13747851.672 8       341.000         252.000         329.000                  
G19  23129191.549    23129189.547    23129190.965                    -5955800.072 8  -5955800.064 6                  -4640887.727 6       157.000          28.000          25.000                  
G21  24716143.837    24716142.784    24716147.318                     1416679.208 7   1416679.184 6                   1103879.110 6        79.000          21.000          18.000                  
G22  19710828.840    19710827.834    19710827.991                   -28066070.069 9 -28066070.068 8                 -21869663.596 8       643.000         311.000         400.000                  
G23  23315567.341    23315566.403    23315568.256                    -6294233.833 8  -6294233.820 6                  -4904601.348 7       176.000          39.000          60.000                  
G24  22256704.622    22256704.525    22256707.536                   -11515051.374 8 -11515051.373 8                  -8972770.789 8       220.000         118.000         400.000                  
G30  23099373.144    23099372.406    23099376.279                    -8650163.367 8  -8650163.365 7                  -6740391.518 8       186.000          81.000         168.000                  
> 2024 10 31 14 04  0.0000000  0 10
G13  19768013.199    19768012.817    19768013.041                   -23711193.162 9 -23711193.164 8                 -18476255.950 8       773.000         355.000         269.000                  
G14  20195622.588    20195622.461    20195622.839                   -23014660.375 9 -23014660.370 8                 -17933502.326 8       586.000         460.000         227.000                  
G15  19946729.024    19946728.689    19946729.268                   -23493190.136 9 -23493190.138 9                 -18306384.550 9       628.000         889.000         783.000                  
G17  21249059.614    21249059.019    21249059.438                   -17904160.069 8 -17904160.073 8                 -13951294.337 8       361.000         284.000         355.000                  
G19  23054021.237    23054019.332    23054020.901                    -6350820.701 8  -6350820.700 6                  -4948695.985 6       164.000          31.000          26.000                  
G21  24757791.167    24757787.105    24757790.056                     1635521.664 7   1635521.647 6                   1274403.312 6        78.000          27.000          17.000                  
G22  19706019.230    19706018.381    19706018.511                   -28091343.866 9 -28091343.862 8                 -21889357.473 8       646.000         324.000         428.000                  
G23  23373780.228    23373779.100    23373780.899                    -5988323.463 8  -5988323.452 6                  -4666229.700 7       176.000          44.000          57.000                  
G24  22287628.072    22287627.896    22287631.274                   -11352546.862 8 -11352546.862 8                  -8846143.954 8       217.000         118.000         426.000                  
G30  23070968.117    23070967.755    23070971.487                    -8799431.917 8  -8799431.915 7                  -6856704.673 8       189.000          88.000         171.000                  
> 2024 10 31 14 04 10.0000000  0 10
G13  19739368.570    19739368.139    19739368.348                   -23861721.813 9 -23861721.813 8                 -18593551.035 8       777.000         350.000         279.000                  
G14  20204220.645    20204220.490    20204220.995                   -22969477.679 9 -22969477.675 8                 -17898295.046 8       595.000         472.000         238.000                  
G15  19952717.708    19952717.344    19952717.796                   -23461719.924 9 -23461719.925 9                 -18281862.339 9       640.000         920.000         799.000                  
G17  21200207.652    21200207.549    21200207.831                   -18160877.388 8 -18160877.389 8                 -14151333.817 8       386.000         321.000         363.000                  
G19  22979245.010    22979242.691    22979243.157                    -6743775.318 8  -6743775.322 6                  -5254894.311 6       165.000          37.000          34.000                  
G21  24799877.394    24799874.680    24799877.528                     1856696.772 7   1856696.764 6                   1446730.927 6        80.000          20.000          22.000                  
G22  19702331.656    19702330.439    19702330.712                   -28110723.456 9 -28110723.457 8                 -21904458.487 8       659.000         334.000         452.000                  
G23  23432162.426    23432162.386    23432163.991                    -5681519.310 8  -5681519.299 6                  -4427161.610 7       176.000          46.000          60.000                  
G24  22318990.274    22318990.143    22318993.305                   -11187738.472 8 -11187738.474 8                  -8717721.883 8       215.000         121.000         450.000                  
G30  23042966.331    23042965.232    23042968.727                    -8946587.240 8  -8946587.240 7                  -6971371.162 8       195.000          90.000         184.000                  
> 2024 10 31 14 04 20.0000000  0 10
G13  19711377.497    19711377.102    19711377.316                   -24008816.091 9 -24008816.090 8                 -18708169.991 8       737.000         319.000         254.000                  
G14  20213786.096    20213785.813    20213786.153                   -22919211.696 9 -22919211.691 8                 -17859126.765 8       565.000         434.000         223.000                  
G15  19959322.483    19959322.286    19959322.711                   -23427011.172 9 -23427011.173 9                 -18254816.576 9       612.000         834.000         726.000                  
G17  21152197.941    21152197.682    21152198.190                   -18413170.328 8 -18413170.330 8                 -14347925.729 8       381.000         309.000         346.000                  
G19  22904873.198    22904871.676    22904871.850                    -7134598.509 8  -7134598.526 6                  -5559431.814 6       157.000          28.000          29.000                  
G21  24842400.947    24842399.057    24842400.364                     2080163.238 7   2080163.232 6                   1620861.385 6        77.000          17.000          16.000                  
G22  19699765.365    19699764.312    19699764.239                   -28124209.393 9 -28124209.394 8                 -21914967.016 8       634.000         309.000         417.000                  
G23  23490707.963    23490707.689    23490709.106                    -5373863.888 8  -5373863.889 6                  -4187430.201 7       169.000          39.000          51.000                  
G24  22350786.525    22350786.278    22350789.556                   -11020648.286 8 -11020648.294 8                  -8587521.776 8       203.000         103.000         420.000                  
G30  23015366.936    23015366.320    23015369.666                    -9091620.848 8  -9091620.847 7                  -7084384.380 8       192.000          90.000         174.000                  
> 2024 10 31 14 04 30.0000000  0 10
G13  19684047.922    19684047.776    19684047.760                   -24152433.100 9 -24152433.098 8                 -18820079.363 8       743.000         326.000         248.000                  
G14  20224317.862    20224317.633    20224318.468                   -22863866.267 9 -22863866.264 8                 -17816000.476 8       571.000         440.000         209.000                  
G15  19966545.711    19966545.549    19966546.131                   -23389053.060 9 -23389053.061 9                 -18225238.849 9       618.000         865.000         671.000                  
G17  21105044.881    21105044.369    21105044.841                   -18660962.442 8 -18660962.444 8                 -14541010.508 8       403.000         347.000         341.000                  
G19  22830924.307    22830922.231    22830922.828                    -7523204.244 8  -7523204.243 6                  -5862241.428 6       164.000          31.000          25.000                  
G21  24885360.162    24885355.470    24885357.548                     2305899.605 7   2305899.608 6                   1796763.261 6        78.000          18.000          19.000                  
G22  19698323.987    19698322.887    19698322.926                   -28131784.023 9 -28131784.023 8                 -21920869.349 8       655.000         329.000         388.000                  
G23  23549411.024    23549410.792    23549411.478                    -5065379.276 8  -5065379.290 6                  -3947052.665 6       166.000          34.000          43.000                  
G24  22383016.575    22383016.321    22383019.487                   -10851278.551 8 -10851278.554 8                  -8455545.400 8       212.000         113.000         390.000                  
G30  22988176.401    22988176.398    22988180.004                    -9234504.392 8  -9234504.392 7                  -7195722.228 8       190.000          97.000         163.000                  
> 2024 10 31 14 04 40.0000000  0 10
G13  19657383.236    19657382.905    19657383.177                   -24292557.205 9 -24292557.206 8                 -18929266.993 8       712.000         300.000         223.000                  
G14  20235810.662    20235810.158    20235810.826                   -22803473.197 9 -22803473.191 8                 -17768940.957 8       551.000         408.000         179.000                  
G15  19974383.903    19974383.911    19974384.498                   -23347861.783 9 -23347861.785 9                 -18193141.766 9       599.000         808.000         545.000                  
G17  21058757.622    21058757.033    21058757.567                   -18904204.448 8 -18904204.450 8                 -14730549.735 8       413.000         367.000         308.000                  
G19  22757407.990    22757406.010    22757406.677                    -7909532.995 8  -7909533.005 6                  -6163276.784 6       164.000          34.000          21.000                  
G21  24928739.526    24928734.797    24928738.728                     2533857.594 7   2533857.590 6                   1974403.541 6        74.000          22.000          16.000                  
G22  19698005.378    19698004.380    19698004.471                   -28133457.944 9 -28133457.946 8                 -21922173.724 8       642.000         319.000         325.000                  
G23  23608261.918    23608261.833    23608262.632                    -4756114.032 8  -4756114.028 6                  -3706066.843 6       158.000          35.000          38.000                  
G24  22415675.144    22415674.662    22415677.959                   -10679658.377 8 -10679658.377 8                  -8321815.442 8       204.000         109.000         330.000                  
G30  22961396.227    22961395.742    22961399.484                    -9375236.446 8  -9375236.444 7                  -7305383.623 8       192.000          93.000         147.000                  
> 2024 10 31 14 04 50.0000000  0 10
G13  19631388.120    19631387.849    19631388.079                   -24429162.609 9 -24429162.610 8                 -19035712.784 8       744.000         326.000         261.000                  
G14  20248258.933    20248258.781    20248259.379                   -22738054.918 9 -22738054.911 8                 -17717965.701 8       559.000         421.000         207.000                  
G15  19982836.689    19982836.414    19982836.859                   -23303443.501 9 -23303443.501 9                 -18158530.153 9       618.000         859.000         579.000                  
G17  21013347.285    21013346.748    21013347.249                   -19142837.261 8 -19142837.264 8                 -14916497.385 8       442.000         419.000         359.000                  
G19  22684338.874    22684337.507    22684337.826                    -8293514.100 8  -8293514.077 6                  -6462482.790 6       178.000          37.000          27.000                  
G21  24972532.682    24972529.625    24972531.755                     2763999.160 7   2763999.190 6                   2153737.738 6        75.000          21.000          16.000                  
G22  19698809.369    19698808.353    19698808.494                   -28129232.938 9 -28129232.939 8                 -21918881.529 8       669.000         348.000         369.000                  
G23  23667255.173    23667254.364    23667255.268                    -4446105.713 8  -4446105.705 6                  -3464501.987 6       162.000          41.000          37.000                  
G24  22448758.215    22448757.621    22448760.829                   -10505806.484 8 -10505806.482 8                  -8186346.484 8       215.000         113.000         366.000                  
G30  22935027.946    22935027.401    22935030.981                    -9513805.158 8  -9513805.161 7                  -7413359.312 8       203.000          97.000         163.000                  
> 2024 10 31 14 05  0.0000000  0 10
G13  19606069.524    19606068.933    19606069.429                   -24562213.710 9 -24562213.710 8                 -19139388.991 8       748.000         330.000         244.000                  
G14  20261661.401    20261661.169    20261661.829                   -22667624.988 9 -22667624.982 8                 -17663085.254 8       541.000         398.000         185.000                  
G15  19991904.339    19991903.774    19991904.327                   -23255794.720 9 -23255794.722 9                 -18121401.265 9       611.000         838.000         501.000                  
G17  20968826.955    20968826.585    20968827.100                   -19376792.368 8 -19376792.371 8                 -15098800.068 8       452.000         432.000         330.000                  
G19  22611732.022    22611729.990    22611730.177                    -8675066.484 8  -8675066.483 6                  -6759796.286 6       183.000          38.000          23.000                  
G21  25016738.424    25016734.340    25016737.129                     2996296.369 7   2996296.364 6                   2334754.008 6        74.000          21.000          16.000                  
G22  19700737.138    19700736.202    19700736.225                   -28119102.340 9 -28119102.342 8                 -21910987.578 8       656.000         332.000         326.000                  
G23  23726384.437    23726382.778    23726384.249                    -4135381.596 8  -4135381.601 6                  -3222379.380 6       156.000          43.000          24.000                  
G24  22482263.779    22482263.655    22482266.935                   -10329731.702 8 -10329731.706 8                  -8049145.411 8       214.000         118.000         314.000                  
G30  22909075.067    22909074.344    22909078.161                    -9650188.834 8  -9650188.838 7                  -7519632.379 8       203.000          99.000         146.000                  
> 2024 10 31 14 05 10.0000000  0 10
G13  19581429.026    19581428.641    19581428.762                   -24691700.678 9 -24691700.679 8                 -19240287.956 8       752.000         331.000         280.000                  
G14  20276009.878    20276009.550    20276010.402                   -22592223.251 9 -22592223.244 8                 -17604330.682 8       530.000         383.000         208.000                  
G15  20001582.190    20001581.748    20001582.140                   -23204937.500 9 -23204937.502 9                 -18081772.296 9       609.000         827.000         550.000                  
G17  20925205.231    20925204.655    20925205.197                   -19606027.016 8 -19606027.018 8                 -15277424.471 8       454.000         444.000         390.000                  
G19  22539597.564    22539595.383    22539595.611                    -9054133.855 8  -9054133.856 6                  -7055173.422 6       186.000          36.000          26.000                  
G21  25061344.991    25061338.718    25061343.165                     3230695.761 7   3230695.799 6                   2517402.643 6        67.000          22.000          18.000                  
G22  19703785.090    19703784.024    19703784.048                   -28103086.178 9 -28103086.179 8                 -21898507.468 8       653.000         327.000         349.000                  
G23  23785638.410    23785638.833    23785638.866                    -3823993.643 8  -3823993.637 6                  -2979739.533 6       145.000          32.000          35.000                  
G24  22516186.019    22516186.013    22516189.341                   -10151468.137 8 -10151468.138 8                  -7910238.778 8       208.000         112.000         370.000                  
G30  22883537.271    22883536.669    22883540.208                    -9784391.017 8  -9784391.015 7                  -7624205.569 8       200.000          94.000         163.000                  
> 2024 10 31 14 05 20.0000000  0 10
G13  19557473.423    19557473.030    19557473.409                   -24817588.076 9 -24817588.076 8                 -19338382.058 8       775.000         359.000         274.000                  
G14  20291301.651    20291301.405    20291302.186                   -22511864.774 9 -22511864.770 8                 -17541713.714 8       533.000         390.000         194.000                  
G15  20011870.931    20011870.742    20011871.108                   -23150868.425 9 -23150868.426 9                 -18039640.585 9       599.000         800.000         516.000                  
G17  20882494.538    20882493.971    20882494.607                   -19830473.406 8 -19830473.408 8                 -15452317.770 8       460.000         450.000         393.000                  
G19  22467951.869    22467950.770    22467950.861                    -9430633.589 8  -9430633.589 6                  -7348549.814 6       196.000          38.000          28.000                  
G21  25106341.231    25106337.671    25106343.658                     3467169.885 7   3467169.886 6                   2701666.221 6        67.000          20.000          14.000                  
G22  19707953.638    19707952.702    19707952.721                   -28081180.122 9 -28081180.124 8                 -21881437.826 8       651.000         327.000         339.000                  
G23  23845015.502    23845015.476    23845015.621                    -3511967.565 8  -3511967.577 6                  -2736602.432 6       142.000          30.000          29.000                  
G24  22550523.747    22550523.496    22550526.971                    -9971024.176 8  -9971024.179 8                  -7769633.147 8       212.000         104.000         338.000                  
G30  22858418.742    22858417.950    22858421.946                    -9916389.563 8  -9916389.559 7                  -7727061.586 8       198.000         100.000         148.000                  
> 2024 10 31 14 05 30.0000000  0 10
G13  19534208.946    19534208.533    19534208.985                   -24939843.443 9 -24939843.444 8                 -19433646.009 8       805.000         382.000         238.000                  
G14  20307532.922    20307532.786    20307533.559                   -22426568.227 9 -22426568.220 8                 -17475248.904 8       541.000         397.000         168.000                  
G15  20022771.322    20022770.954    20022771.678                   -23093586.952 9 -23093586.954 9                 -17995005.709 8       600.000         811.000         459.000                  
G17  20840707.277    20840706.637    20840707.354                   -20050066.911 8 -20050066.914 8                 -15623429.602 8       474.000         480.000         339.000                  
G19  22396809.997    22396808.482    22396809.227                    -9804485.224 8  -9804485.231 6                  -7639862.704 6       205.000          47.000          26.000                  
G21  25151732.108    25151726.763    25151729.046                     3705688.672 7   3705688.680 6                   2887520.168 6        65.000          21.000          19.000                  
G22  19713243.262    19713242.267    19713242.213                   -28053384.133 9 -28053384.132 8                 -21859778.646 8       655.000         332.000         286.000                  
G23  23904508.782    23904507.733    23904509.835                    -3199331.210 8  -3199331.203 6                  -2492989.782 6       135.000          29.000          26.000                  
G24  22585274.644    22585274.041    22585277.166                    -9788410.762 8  -9788410.760 8                  -7627337.028 8       217.000         114.000         292.000                  
G30  22833723.918    22833722.246    22833726.486                   -10046165.091 8 -10046165.091 7                  -7828185.361 8       204.000          93.000         128.000                  
> 2024 10 31 14 05 40.0000000  0 10
G13  19511635.542    19511634.989    19511635.398                   -25058468.639 9 -25058468.641 8                 -19526081.258 8       796.000         368.000         272.000                  
G14  20324693.927    20324693.628    20324694.381                   -22336387.228 9 -22336387.221 8                 -17404978.017 8       531.000         374.000         182.000                  
G15  20034276.370    20034276.207    20034276.789                   -23033126.825 9 -23033126.826 9                 -17947893.960 9       581.000         757.000         540.000                  
G17  20799849.057    20799848.621    20799849.257                   -20264777.565 8 -20264777.568 8                 -15790736.611 8       470.000         471.000         382.000                  
G19  22326181.685    22326180.021    22326180.086                   -10175641.777 8 -10175641.782 6                  -7929075.566 6       210.000          49.000          38.000                  
G21  25197494.478    25197491.608    25197490.785                     3946188.144 7   3946188.126 6                   3074908.139 6        59.000          20.000          21.000                  
G22  19719646.478    19719645.560    19719645.836                   -28019733.572 9 -28019733.573 8                 -21833557.472 8       631.000         311.000         319.000                  
G23  23964106.456    23964105.489    23964105.855                    -2886145.904 8  -2886145.918 6                  -2248949.378 6       130.000          31.000          21.000                  
G24  22620428.007    22620428.145    22620431.665                    -9603672.883 8  -9603672.882 7                  -7483385.489 8       201.000          99.000         320.000                  
G30  22809447.511    22809447.260    22809451.296                   -10173732.302 8 -10173732.299 8                  -7927588.388 8       201.000         105.000         147.000                  
> 2024 10 31 14 05 50.0000000  0 10
G13  19489763.162    19489762.578    19489762.816                   -25173409.483 9 -25173409.484 8                 -19615645.585 8       811.000         396.000         299.000                  
G14  20342784.551    20342784.397    20342785.260                   -22241320.051 9 -22241320.045 8                 -17330899.717 8       537.000         396.000         183.000                  
G15  20046390.817    20046390.521    20046391.148                   -22969465.704 9 -22969465.706 9                 -17898287.932 9       578.000         748.000         585.000                  
G17  20759936.392    20759935.983    20759936.573                   -20474519.771 8 -20474519.775 8                 -15954172.101 8       483.000         495.000         425.000                  
G19  22256085.245    22256084.104    22256084.734                   -10543999.548 8 -10543999.537 6                  -8216107.576 6       224.000          50.000          38.000                  
G21  25243638.333    25243631.710    25243627.608                     4188660.447 7   4188660.435 6                   3263820.943 6        59.000          22.000          17.000                  
G22  19727167.979    19727166.879    19727167.124                   -27980208.891 9 -27980208.891 8                 -21802759.047 8       629.000         312.000         354.000                  
G23  24023806.296    24023805.931    24023807.690                    -2572416.212 8  -2572416.223 6                  -2004484.752 6       122.000          24.000          21.000                  
G24  22655989.209    22655989.065    22655992.623                    -9416799.200 8  -9416799.204 8                  -7337769.680 8       200.000         102.000         335.000                  
G30  22785600.769    22785600.114    22785604.037                   -10299049.524 8 -10299049.528 7                  -8025238.166 8       199.000         100.000         162.000                  
> 2024 10 31 14 06  0.0000000  0 11
G02  25170650.039    25170647.009    25170673.103                      272947.785 7    272947.783 6                    212682.549 6        70.000          20.000          16.000                  
G13  19468589.945    19468589.624    19468589.853                   -25284674.658 9 -25284674.659 8                 -19702345.747 8       807.000         389.000         258.000                  
G14  20361793.579    20361793.199    20361793.827                   -22141428.341 9 -22141428.335 8                 -17253062.039 8       541.000         386.000         155.000                  
G15  20059106.725    20059106.342    20059106.969                   -22902643.932 9 -22902643.933 9                 -17846219.055 9       580.000         758.000         516.000                  
G17  20720973.719    20720973.163    20720973.783                   -20679271.000 9 -20679271.001 9                 -16113718.513 8       501.000         541.000         388.000                  
G19  22186530.015    22186528.273    22186528.337                   -10909516.748 8 -10909516.749 7                  -8500926.142 6       235.000          53.000          41.000                  
G21  25290137.682    25290135.697    25290124.144                     4433035.405 7   4433035.377 6                   3454211.793 6        58.000          22.000          16.000                  
G22  19735798.767    19735797.585    19735797.662                   -27934854.555 9 -27934854.558 8                 -21767418.052 8       636.000         310.000         297.000                  
G23  24083599.179    24083598.103    24083600.267                    -2258208.601 8  -2258208.607 6                  -1759647.737 6       121.000          26.000          24.000                  
G24  22691947.736    22691946.981    22691950.127                    -9227840.800 8  -9227840.798 8                  -7190529.418 8       199.000         103.000         276.000                  
G30  22762178.156    22762177.297    22762181.154                   -10422137.714 8 -10422137.714 8                  -8121151.065 8       203.000         105.000         134.000                  
> 2024 10 31 14 06 10.0000000  0 11
G02  25196011.962    25196010.762    25196025.703                      406234.945 7    406234.922 6                    316545.098 6        67.000          25.000          16.000                  
G13  19448126.398    19448125.845    19448126.279                   -25392211.594 9 -25392211.594 8                 -19786140.793 8       764.000         347.000         209.000                  
G14  20381720.002    20381719.835    20381720.768                   -22036713.056 9 -22036713.050 8                 -17171465.731 8       526.000         369.000         135.000                  
G15  20072427.794    20072427.556    20072428.316                   -22832640.595 9 -22832640.596 9                 -17791671.032 8       555.000         687.000         450.000                  
G17  20682976.573    20682975.908    20682976.567                   -20878948.236 8 -20878948.236 9                 -16269311.173 8       499.000         533.000         336.000                  
G19  22117535.064    22117532.682    22117533.494                   -11272089.749 8 -11272089.749 7                  -8783450.524 6       240.000          53.000          37.000                  
G21  25337004.408    25336999.386    25336988.165                     4679304.424 7   4679304.423 6                   3646111.927 6        57.000          19.000          14.000                  
G22  19745541.592    19745540.541    19745540.748                   -27883654.759 9 -27883654.759 8                 -21727522.132 8       612.000         292.000         241.000                  
G23  24143480.012    24143479.672    24143480.483                    -1943527.507 8  -1943527.499 6                  -1514441.833 6       113.000          27.000          20.000                  
G24  22728303.185    22728302.853    22728306.608                    -9036787.237 8  -9036787.241 7                  -7041656.569 8       189.000          79.000         226.000                  
G30  22739187.303    22739186.418    22739190.335                   -10542956.232 8 -10542956.233 7                  -8215295.390 8       198.000          97.000         112.000                  
> 2024 10 31 14 06 20.0000000  0 11
G02  25221855.625    25221853.329    25221890.527                      542042.059 7    542042.046 6                    422366.415 6        68.000          21.000          18.000                  
G13  19428370.515    19428369.987    19428370.532                   -25496029.090 9 -25496029.091 8                 -19867037.579 8       743.000         325.000         205.000                  
G14  20402552.882    20402552.579    20402553.196                   -21927236.956 9 -21927236.949 8                 -17086159.701 8       527.000         366.000         138.000                  
G15  20086346.745    20086346.503    20086347.164                   -22759495.967 9 -22759495.968 9                 -17734675.254 8       548.000         669.000         441.000                  
G17  20645948.888    20645948.283    20645948.952                   -21073529.937 9 -21073529.938 9                 -16420933.283 8       515.000         583.000         364.000                  
G19  22049107.463    22049105.766    22049106.543                   -11631675.364 8 -11631675.369 7                  -9063647.106 6       254.000          66.000          35.000                  
G21  25384214.755    25384210.414    25384198.029                     4927398.282 7   4927398.271 6                   3839440.179 6        53.000          20.000          16.000                  
G22  19756388.014    19756387.073    19756387.357                   -27826656.204 9 -27826656.204 8                 -21683107.708 8       625.000         301.000         242.000                  
G23  24203439.878    24203439.665    24203441.177                    -1628437.766 8  -1628437.779 6                  -1268917.455 6       110.000          32.000          19.000                  
G24  22765048.876    22765048.507    22765051.880                    -8843688.933 8  -8843688.931 7                  -6891190.423 8       184.000          87.000         224.000                  
G30  22716623.950    22716623.455    22716627.285                   -10661525.441 8 -10661525.438 7                  -8307686.995 8       203.000         100.000         111.000                  
> 2024 10 31 14 06 30.0000000  0 11
G02  25248180.628    25248177.213    25248192.333                      680374.846 7    680374.852 6                    530160.721 6        68.000          19.000          19.000                  
G13  19409332.236    19409331.856    19409332.161                   -25596076.094 9 -25596076.098 8                 -19944996.318 8       724.000         311.000         187.000                  
G14  20424290.838    20424290.372    20424291.150                   -21813003.476 9 -21813003.467 8                 -16997146.622 8       525.000         372.000         125.000                  
G15  20100867.208    20100867.020    20100867.623                   -22683190.311 9 -22683190.310 9                 -17675216.343 8       540.000         657.000         413.000                  
G17  20609906.246    20609905.800    20609906.259                   -21262935.269 9 -21262935.270 9                 -16568521.862 8       539.000         624.000         352.000                  
G19  21981269.236    21981267.405    21981267.541                   -11988169.910 8 -11988169.913 7                  -9341435.006 6       264.000          76.000          35.000                  
G21  25431769.892    25431766.976    25431756.416                     5177308.129 7   5177308.124 6                   4034187.416 6        56.000          20.000          18.000                  
G22  19768340.417    19768339.345    19768339.645                   -27763846.702 9 -27763846.704 8                 -21634165.268 8       630.000         309.000         215.000                  
G23  24263476.081    24263475.598    24263477.893                    -1312943.500 8  -1312943.519 6                  -1023077.879 6       113.000          22.000          18.000                  
G24  22802185.615    22802184.541    22802188.254                    -8648536.055 8  -8648536.059 7                  -6739123.308 8       181.000          85.000         201.000                  
G30  22694496.867    22694496.021    22694499.785                   -10777805.567 8 -10777805.572 8                  -8398294.879 7       204.000         102.000          98.000                  
> 2024 10 31 14 06 40.0000000  0 11
G02  25274974.496    25274971.356    25275005.417                      821181.644 7    821181.634 6                    639877.847 6        65.000          21.000          15.000                  
G13  19391009.965    19391009.486    19391009.931                   -25692360.429 9 -25692360.428 8                 -20020023.104 8       692.000         279.000         181.000                  
G14  20446922.142    20446921.653    20446922.416                   -21694075.479 9 -21694075.471 8                 -16904475.478 8       511.000         346.000         124.000                  
G15  20115981.777    20115981.510    20115982.427                   -22603762.673 9 -22603762.674 9                 -17613324.715 8       525.000         623.000         404.000                  
G17  20574852.423    20574851.969    20574852.689                   -21447142.912 9 -21447142.915 9                 -16712060.296 8       534.000         611.000         344.000                  
G19  21914026.992    21914025.093    21914025.947                   -12341527.976 8 -12341527.986 7                  -9616778.934 6       270.000          72.000          37.000                  
G21  25479660.753    25479655.994    25479644.717                     5428966.232 7   5428966.211 6                   4230325.348 6        53.000          19.000          17.000                  
G22  19781389.367    19781388.272    19781388.483                   -27695274.117 9 -27695274.118 8                 -21580732.116 8       622.000         296.000         203.000                  
G23  24323578.028    24323577.979    24323578.060                     -997106.925 8   -997106.902 6                   -776971.644 6       105.000          22.000          16.000                  
G24  22839703.241    22839703.119    22839706.441                    -8451377.351 8  -8451377.342 7                  -6585493.207 8       175.000          69.000         184.000                  
G30  22672801.228    22672800.575    22672804.583                   -10891815.579 8 -10891815.581 8                  -8487133.850 7       204.000         106.000          89.000                  
> 2024 10 31 14 06 50.0000000  0 10
G02  25302239.344    25302235.181    25302251.478                      964456.065 7    964456.076 6                    751522.806 6        65.000          21.000          17.000                  
G13  19373410.833    19373410.389    19373410.789                   -25784844.555 9 -25784844.556 8                 -20092088.684 8       692.000         281.000         202.000                  
G14  20470443.195    20470442.875    20470443.524                   -21570470.680 9 -21570470.673 8                 -16808160.080 8       508.000         347.000         130.000                  
G15  20131691.737    20131691.593    20131692.428                   -22521206.378 9 -22521206.379 9                 -17548995.169 8       533.000         640.000         455.000                  
G17  20540800.713    20540800.333    20540800.740                   -21626086.428 9 -21626086.431 9                 -16851496.808 8       551.000         649.000         388.000                  
G19  21847399.344    21847397.912    21847398.324                   -12691657.756 8 -12691657.753 7                  -9889607.316 7       284.000          86.000          56.000                  
G22  19795534.446    19795533.336    19795533.614                   -27620941.772 9 -27620941.772 8                 -21522810.833 8       626.000         305.000         221.000                  
G23  24383742.414    24383741.633    24383742.632                     -680943.774 8   -680943.769 6                   -530610.898 6       102.000          27.000          17.000                  
G24  22877602.818    22877602.265    22877605.852                    -8252215.545 8  -8252215.542 7                  -6430302.250 8       176.000          78.000         205.000                  
G30  22651543.470    22651542.607    22651545.810                   -11003528.737 8 -11003528.741 7                  -8574183.159 8       204.000          96.000         101.000                  
> 2024 10 31 14 07  0.0000000  0 10
G02  25329969.244    25329965.040    25329996.173                     1110175.075 7   1110175.079 6                    865067.650 6        64.000          20.000          15.000                  
G13  19356538.870    19356538.363    19356538.654                   -25873507.790 9 -25873507.792 8                 -20161176.948 8       694.000         288.000         214.000                  
G14  20494847.957    20494847.271    20494848.516                   -21442223.975 9 -21442223.965 8                 -16708227.607 8       508.000         342.000         135.000                  
G15  20147995.360    20147995.001    20147995.729                   -22435531.512 9 -22435531.513 9                 -17482235.570 8       551.000         695.000         449.000                  
G17  20507760.123    20507759.532    20507760.055                   -21799716.605 9 -21799716.607 9                 -16986793.062 8       565.000         688.000         416.000                  
G19  21781400.846    21781399.008    21781400.175                   -13038483.474 8 -13038483.479 7                 -10159861.101 6       300.000          98.000          50.000                  
G22  19810771.303    19810770.291    19810770.584                   -27540870.688 9 -27540870.688 8                 -21460417.811 8       640.000         315.000         218.000                  
G23  24443961.610    24443961.780    24443963.518                     -364485.741 7   -364485.715 6                   -284020.295 6       100.000          26.000          20.000                  
G24  22915878.811    22915879.014    22915882.530                    -8051069.825 8  -8051069.816 7                  -6273565.388 8       177.000          77.000         207.000                  
G30  22630724.226    22630723.247    22630726.662                   -11112934.149 8 -11112934.150 8                  -8659434.121 8       207.000         101.000         102.000                  
> 2024 10 31 14 07 10.0000000  0 10
G02  25358156.606    25358151.370    25358166.117                     1258295.859 7   1258295.849 6                    980488.978 6        61.000          20.000          18.000                  
G13  19340394.201    19340393.595    19340393.987                   -25958349.283 9 -25958349.283 8                 -20227287.232 8       681.000         286.000         240.000                  
G14  20520125.061    20520124.835    20520125.472                   -21309390.573 9 -21309390.567 8                 -16604721.089 8       502.000         336.000         139.000                  
G15  20164886.342    20164886.196    20164886.990                   -22346767.869 9 -22346767.869 9                 -17413069.134 8       544.000         662.000         443.000                  
G17  20475735.544    20475735.228    20475736.047                   -21968005.119 9 -21968005.122 9                 -17117926.981 8       559.000         666.000         458.000                  
G19  21716041.430    21716039.667    21716040.361                   -13381948.750 8 -13381948.749 7                 -10427496.368 7       314.000          98.000          55.000                  
G22  19827092.508    19827091.325    19827091.520                   -27455102.796 9 -27455102.797 8                 -21393585.718 8       634.000         305.000         224.000                  
G23  24504231.173    24504228.914    24504232.336                      -47783.507 7    -47783.513 6                    -37239.509 6        96.000          17.000          16.000                  
G24  22954525.967    22954525.769    22954529.508                    -7847978.749 8  -7847978.747 7                  -6115312.668 8       170.000          73.000         214.000                  
G30  22610342.745    22610341.397    22610345.032                   -11220041.323 8 -11220041.321 8                  -8742894.306 8       207.000         104.000         113.000                  
> 2024 10 31 14 07 20.0000000  0 10
G02  25386799.746    25386794.531    25386822.575                     1408818.782 7   1408818.786 6                   1097777.159 6        61.000          21.000          15.000                  
G13  19324984.842    19324984.418    19324984.675                   -26039325.222 9 -26039325.221 8                 -20290385.394 8       677.000         273.000         250.000                  
G14  20546272.910    20546272.668    20546273.516                   -21171983.047 8 -21171983.039 8                 -16497650.330 8       490.000         321.000         132.000                  
G15  20182367.978    20182367.755    20182368.379                   -22254902.154 9 -22254902.155 9                 -17341485.505 8       531.000         632.000         412.000                  
G17  20444741.630    20444741.057    20444741.664                   -22130881.203 9 -22130881.205 9                 -17244843.425 8       546.000         643.000         462.000                  
G19  21651340.800    21651338.862    21651339.569                   -13721953.425 8 -13721953.424 8                 -10692435.025 7       318.000         103.000          62.000                  
G22  19844497.348    19844496.468    19844496.859                   -27363638.085 9 -27363638.085 8                 -21322314.542 8       615.000         286.000         223.000                  
G23  24564540.771    24564539.682    24564539.681                      269156.109 7    269156.080 6                    209731.142 6        84.000          25.000          18.000                  
G24  22993543.940    22993544.470    22993547.717                    -7642937.520 8  -7642937.528 7                  -5955540.343 8       160.000          69.000         197.000                  
G30  22590404.409    22590403.567    22590407.121                   -11324815.883 8 -11324815.879 8                  -8824536.815 8       204.000         103.000         113.000                  
> 2024 10 31 14 07 30.0000000  0 10
G02  25415888.404    25415883.395    25415899.767                     1561683.466 7   1561683.491 6                   1216895.020 6        63.000          21.000          20.000                  
G13  19310307.942    19310307.551    19310307.859                   -26116452.986 9 -26116452.985 8                 -20350484.972 8       682.000         273.000         270.000                  
G14  20573277.203    20573276.868    20573277.441                   -21030075.353 8 -21030075.347 8                 -16387072.962 8       483.000         318.000         134.000                  
G15  20200430.614    20200430.467    20200430.965                   -22159981.861 9 -22159981.861 9                 -17267521.683 8       534.000         649.000         403.000                  
G17  20414778.814    20414778.415    20414779.073                   -22288335.676 9 -22288335.677 9                 -17367535.239 8       554.000         656.000         479.000                  
G19  21587305.971    21587304.118    21587304.650                   -14058458.115 8 -14058458.117 8                 -10954646.439 7       339.000         108.000          63.000                  
G22  19862975.003    19862974.100    19862974.351                   -27266538.408 9 -27266538.410 8                 -21246652.485 8       618.000         297.000         226.000                  
G23  24624884.199    24624884.395    24624884.696                      586266.122 7    586266.139 6                    456833.836 6        84.000          23.000          17.000                  
G24  23032922.282    23032922.728    23032926.247                    -7436001.958 8  -7436001.963 7                  -5794291.921 8       155.000          61.000         197.000                  
G30  22570905.643    22570904.440    22570908.107                   -11427284.637 8 -11427284.640 8                  -8904382.607 8       203.000         105.000         118.000                  
> 2024 10 31 14 07 40.0000000  0 10
G02  25445426.678    25445419.538    25445449.937                     1716895.935 7   1716895.931 6                   1337837.360 6        59.000          22.000          19.000                  
G13  19296372.687    19296372.285    19296372.482                   -26189683.850 9 -26189683.851 8                 -20407548.007 8       699.000         289.000         314.000                  
G14  20601136.308    20601135.827    20601136.542                   -20883675.443 8 -20883675.433 8                 -16272995.143 8       487.000         318.000         144.000                  
G15  20219078.261    20219078.116    20219078.583                   -22061988.088 9 -22061988.088 9                 -17191162.945 8       535.000         645.000         414.000                  
G17  20385862.079    20385861.695    20385862.442                   -22440293.942 9 -22440293.944 9                 -17485944.293 9       560.000         684.000         538.000                  
G19  21523957.370    21523955.825    21523955.901                   -14391356.523 8 -14391356.524 8                 -11214047.760 7       356.000         125.000          78.000                  
G22  19882525.532    19882524.548    19882524.929                   -27163800.340 9 -27163800.343 8                 -21166596.885 8       638.000         317.000         245.000                  
G23  24685261.562    24685261.614    24685263.525                      903546.743 7    903546.738 6                    704065.231 6        80.000          22.000          19.000                  
G24  23072664.662    23072663.605    23072667.335                    -7227161.172 8  -7227161.166 7                  -5631558.907 8       153.000          61.000         211.000                  
G30  22551852.739    22551851.367    22551855.304                   -11527407.676 8 -11527407.680 8                  -8982400.566 8       204.000         103.000         136.000                  
> 2024 10 31 14 07 50.0000000  0 10
G02  25475393.991    25475390.765    25475406.581                     1874394.740 7   1874394.746 6                   1460566.232 6        62.000          23.000          20.000                  
