     3.03           OBSERVATION DATA    M (MIXED)           RINEX VERSION / TYPE
BJPP                CNES                20241104 092248 UTC PGM / RUN BY / DATE 
MARKER                                                      MARKER NAME         
SPACECRAFT                                                  MARKER TYPE         
OBSERVER            CNES                                    OBSERVER / AGENCY   
RECNUM              BLACKJACK           RECVERS             REC # / TYPE / VERS 
ANTNUM              BLACKJACK                               ANT # / TYPE        
        0.0000        0.0000        0.0000                  ANTENNA: DELTA H/E/N
G   12 C1C C1W C2W C2X L1C L1W L2X L2W S1C S1W S2W S2X      SYS / # / OBS TYPES 
DBHZ                                                        SIGNAL STRENGTH UNIT
This rinex produced from the following file(s):             COMMENT             
/tmp/mesos_work/slaves/d197f515-9ebc-49f2-8adc-fe7a9d3e6458-COMMENT             
S45/frameworks/8c1b9f46-52ed-4aff-9edf-38d17bf6761e-6286/exeCOMMENT             
cutors/toil-18249/runs/448d661f-39d6-4ede-9ac8-ce1a5eeea2cf/COMMENT             
c84a857710ae5eaca98ae5941fa7fde0/4dac/274b/tmpholxuo7qwjwjniCOMMENT             
74/stg369cd2ac-9be4-4e5d-89b9-31a69ac18319/SWOT_IVK_20241031COMMENT             
T222307_20241031T211409_20241031T222149_O_APID1280.PTM_0    COMMENT             
  2024    10    31    21    13   40.0000000                 TIME OF FIRST OBS   
G L1C                                                       SYS / PHASE SHIFT   
G L1W -0.25000                                              SYS / PHASE SHIFT   
G L2W                                                       SYS / PHASE SHIFT   
G L2X  0.25000                                              SYS / PHASE SHIFT   
                                                            END OF HEADER       
> 2024 10 31 21 13 40.0000000  0  2
G16  23263782.496    23263779.645    23263783.678                    -4237450.865 7  -4237450.857 6                  -3301925.673 6        88.000          23.000          20.000                  
G28  22893567.697    22893566.811    22893570.166                   -11144413.875 8 -11144413.872 7                  -8683968.757 7       219.000          65.000          95.000                  
> 2024 10 31 21 13 50.0000000  0 12
G02  23526404.704    23526403.709    23526405.758                    -5590599.962 8  -5590599.961 6                  -4356304.946 7       201.000          37.000          67.000                  
G03  23214189.896    23214189.955    23214195.576                    -7275542.368 8  -7275542.375 7                  -5669261.442 8       198.000          93.000         211.000                  
G04  23716841.636    23716841.288    23716845.961                    -4504615.285 8  -4504615.273 6                  -3510711.685 6       153.000          42.000          39.000                  
G08  19498731.416    19498730.910    19498735.702                   -25638980.061 9 -25638980.065 9                 -19978427.288 9       884.000        1863.000        2459.000                  
G10  24756888.626    24756884.902    24756894.781                     -425378.596 8   -425378.610 6                   -331467.230 6       119.000          39.000          34.000                  
G16  23338502.929    23338501.341    23338506.790                    -3844788.659 7  -3844788.653 6                  -2995955.432 6        79.000          19.000          21.000                  
G21  22036218.332    22036216.806    22036219.238                   -10904676.765 8 -10904676.773 7                  -8497146.202 7       287.000          82.000          86.000                  
G26  24865376.124    24865375.571    24865384.153                     1439800.688 7   1439800.685 6                   1121895.432 6        77.000          29.000          47.000                  
G27  19459057.269    19459056.879    19459060.986                   -25780651.095 9 -25780651.095 9                 -20088822.270 9       964.000        2537.000        2418.000                  
G28  22900656.367    22900656.154    22900659.580                   -11107159.091 8 -11107159.093 7                  -8654938.947 7       218.000          65.000          97.000                  
G31  22782741.989    22782741.924    22782744.090                   -10637588.822 8 -10637588.820 8                  -8289041.624 9       288.000         193.000         570.000                  
G32  22044174.544    22044174.071    22044179.062                   -13405688.242 8 -13405688.243 8                 -10445987.551 9       261.000         168.000         669.000                  
> 2024 10 31 21 14  0.0000000  0 12
G02  23466150.458    23466149.559    23466151.699                    -5907234.924 8  -5907234.920 6                  -4603032.962 7       206.000          39.000          68.000                  
G03  23215747.706    23215747.587    23215753.200                    -7267355.973 8  -7267355.975 7                  -5662882.294 8       194.000          98.000         211.000                  
G04  23774093.138    23774091.971    23774095.987                    -4203761.891 8  -4203761.899 6                  -3276280.706 6       144.000          33.000          33.000                  
G08  19492217.400    19492216.822    19492221.505                   -25673211.536 9 -25673211.539 9                 -20005101.080 9       881.000        1857.000        2426.000                  
G10  24701227.901    24701226.407    24701232.890                     -717872.153 8   -717872.147 6                   -559382.866 7       126.000          45.000          59.000                  
G16  23413451.423    23413450.522    23413454.929                    -3450927.830 7  -3450927.808 6                  -2689051.153 6        74.000          22.000          20.000                  
G21  21973109.651    21973108.454    21973111.026                   -11236310.982 8 -11236310.984 7                  -8755562.171 7       295.000          85.000          91.000                  
G26  24930976.083    24930975.143    24930984.513                     1784526.497 7   1784526.499 6                   1390512.191 6        72.000          23.000          41.000                  
G27  19491411.401    19491410.989    19491415.038                   -25610628.932 9 -25610628.933 9                 -19956337.447 9       950.000        2451.000        2425.000                  
G28  22908061.777    22908060.959    22908064.594                   -11068244.204 8 -11068244.201 7                  -8624615.535 8       223.000          64.000         102.000                  
G31  22824937.697    22824937.225    22824939.830                   -10415849.830 8 -10415849.828 8                  -8116258.017 9       295.000         190.000         586.000                  
G32  21995512.793    21995512.607    21995517.369                   -13661405.600 8 -13661405.598 8                 -10645247.569 9       272.000         184.000         669.000                  
> 2024 10 31 21 14 10.0000000  0 12
G02  23406153.296    23406152.443    23406154.226                    -6222519.976 8  -6222519.991 6                  -4848709.121 7       215.000          42.000          77.000                  
G03  23217599.639    23217599.473    23217604.916                    -7257623.445 8  -7257623.448 7                  -5655298.351 8       197.000          99.000         209.000                  
G04  23831512.827    23831512.660    23831517.626                    -3902016.092 8  -3902016.097 6                  -3041154.353 6       136.000          33.000          34.000                  
G08  19486890.042    19486889.459    19486894.233                   -25701206.292 9 -25701206.296 9                 -20026915.082 9       860.000        1766.000        2396.000                  
G10  24645782.746    24645781.923    24645788.466                    -1009230.990 8  -1009230.989 6                   -786414.972 7       133.000          48.000          62.000                  
G16  23488623.766    23488620.306    23488626.633                    -3055901.905 7  -3055901.933 6                  -2381239.079 6        77.000          21.000          21.000                  
G21  21910446.678    21910445.047    21910447.392                   -11565609.050 8 -11565609.045 7                  -9012157.755 7       303.000          87.000          91.000                  
G26  24996590.632    24996591.658    24996600.878                     2129341.985 7   2129341.975 6                   1659198.845 6        69.000          21.000          38.000                  
G27  19524891.358    19524890.757    19524894.854                   -25434691.445 9 -25434691.446 9                 -19819243.277 9       935.000        2374.000        2517.000                  
G28  22915786.166    22915785.394    22915788.683                   -11027652.904 8 -11027652.895 7                  -8592985.809 7       229.000          64.000          91.000                  
G31  22867419.576    22867419.444    22867421.763                   -10192605.488 8 -10192605.490 8                  -7942301.389 9       301.000         198.000         578.000                  
G32  21947228.905    21947228.492    21947233.389                   -13915138.568 8 -13915138.570 8                 -10842961.319 9       276.000         191.000         674.000                  
> 2024 10 31 21 14 20.0000000  0 12
G02  23346419.395    23346418.355    23346420.309                    -6536423.040 8  -6536423.048 6                  -5093308.427 7       219.000          47.000          72.000                  
G03  23219742.538    23219742.345    23219747.927                    -7246361.233 8  -7246361.239 8                  -5646522.432 8       195.000         103.000         207.000                  
G04  23889093.018    23889093.520    23889098.848                    -3599428.436 8  -3599428.423 6                  -2805372.004 6       128.000          33.000          31.000                  
G08  19482747.547    19482746.969    19482751.676                   -25722974.905 9 -25722974.908 9                 -20043877.548 9       862.000        1763.000        2306.000                  
G10  24590557.268    24590555.707    24590561.434                    -1299445.177 8  -1299445.172 7                  -1012555.169 7       136.000          53.000          61.000                  
G16  23564000.384    23563996.628    23564002.363                    -2659791.421 7  -2659791.453 6                  -2072581.853 6        78.000          19.000          19.000                  
G21  21848235.262    21848234.023    21848236.103                   -11892529.550 8 -11892529.555 7                  -9266900.702 7       306.000          85.000          88.000                  
G26  25062214.303    25062213.545    25062222.736                     2474182.114 7   2474182.150 6                   1927904.688 6        70.000          17.000          40.000                  
G27  19559482.219    19559481.776    19559485.818                   -25252914.561 9 -25252914.562 9                 -19677598.923 9       924.000        2317.000        2637.000                  
G28  22923823.499    22923823.347    22923826.225                   -10985416.238 8 -10985416.242 7                  -8560073.968 7       227.000          71.000          97.000                  
G31  22910177.998    22910177.454    22910179.885                    -9967909.539 8  -9967909.538 8                  -7767213.624 9       298.000         194.000         563.000                  
G32  21899323.906    21899324.035    21899328.683                   -14166877.813 8 -14166877.816 8                 -11039121.522 9       287.000         207.000         671.000                  
> 2024 10 31 21 14 30.0000000  0 12
G02  23286960.501    23286959.934    23286961.687                    -6848878.937 8  -6848878.949 6                  -5336780.093 7       229.000          40.000          88.000                  
G03  23222179.928    23222179.568    23222184.811                    -7233553.099 8  -7233553.109 7                  -5636541.876 8       194.000          89.000         196.000                  
G04  23946830.772    23946831.325    23946836.002                    -3296016.547 8  -3296016.573 6                  -2568947.402 6       125.000          30.000          33.000                  
G08  19479793.670    19479793.118    19479797.756                   -25738497.071 9 -25738497.075 9                 -20055972.652 9       865.000        1762.000        2265.000                  
G10  24535556.459    24535555.499    24535560.876                    -1588472.049 8  -1588472.051 6                  -1237770.225 7       141.000          49.000          73.000                  
G16  23639577.824    23639571.946    23639579.253                    -2262643.330 7  -2262643.357 6                  -1763116.005 6        85.000          20.000          22.000                  
G21  21786490.227    21786489.330    21786491.720                   -12216998.088 8 -12216998.090 7                  -9519733.033 7       308.000          89.000          78.000                  
G26  25127833.562    25127833.135    25127843.145                     2819015.154 7   2819015.170 6                   2196604.973 6        63.000          25.000          35.000                  
G27  19595175.847    19595175.456    19595179.487                   -25065342.842 9 -25065342.843 9                 -19531439.112 9       904.000        2215.000        2746.000                  
G28  22932173.843    22932173.736    22932176.212                   -10941532.547 8 -10941532.542 7                  -8525878.723 7       231.000          70.000          97.000                  
G31  22953208.656    22953208.141    22953210.459                    -9741782.772 8  -9741782.771 8                  -7591010.929 9       298.000         193.000         557.000                  
G32  21851807.295    21851807.029    21851811.491                   -14416581.185 8 -14416581.190 8                 -11233695.337 9       297.000         219.000         658.000                  
> 2024 10 31 21 14 40.0000000  0 12
G02  23227788.638    23227786.719    23227788.395                    -7159831.786 8  -7159831.779 6                  -5579080.551 7       239.000          50.000          87.000                  
G03  23224911.644    23224911.977    23224917.590                    -7219192.473 8  -7219192.476 7                  -5625351.587 8       194.000          93.000         195.000                  
G04  24004719.745    24004720.421    24004725.838                    -2991807.460 8  -2991807.454 6                  -2331901.538 6       121.000          28.000          35.000                  
G08  19478030.181    19478029.644    19478034.274                   -25747764.076 9 -25747764.079 9                 -20063193.604 9       868.000        1794.000        2306.000                  
G10  24480787.531    24480787.293    24480792.563                    -1876278.453 8  -1876278.457 7                  -1462034.271 7       146.000          55.000          75.000                  
G16  23715339.257    23715334.189    23715340.682                    -1864513.944 7  -1864513.944 6                  -1452885.610 6        87.000          21.000          19.000                  
G21  21725224.886    21725224.007    21725226.071                   -12538949.751 8 -12538949.757 7                  -9770604.167 7       310.000          94.000          80.000                  
G26  25193446.321    25193443.769    25193454.809                     3163800.080 7   3163800.096 6                   2465267.735 6        60.000          20.000          37.000                  
G27  19631961.639    19631961.262    19631965.342                   -24872031.798 9 -24872031.799 9                 -19380807.093 9       882.000        2138.000        2837.000                  
G28  22940836.225    22940835.869    22940838.808                   -10896009.863 8 -10896009.854 7                  -8490406.345 7       227.000          64.000         100.000                  
G31  22996505.391    22996505.058    22996507.424                    -9514255.372 8  -9514255.368 8                  -7413716.814 9       289.000         187.000         545.000                  
G32  21804683.770    21804683.521    21804687.748                   -14664216.170 8 -14664216.171 8                 -11426657.420 9       310.000         235.000         643.000                  
> 2024 10 31 21 14 50.0000000  0 12
G02  23168908.256    23168906.858    23168908.163                    -7469247.007 8  -7469247.012 7                  -5820182.891 7       244.000          56.000          94.000                  
G03  23227937.035    23227937.473    23227942.612                    -7203294.478 8  -7203294.480 7                  -5612963.335 8       193.000          95.000         189.000                  
G04  24062752.424    24062751.670    24062757.303                    -2686849.570 8  -2686849.540 6                  -2094272.191 6       116.000          30.000          28.000                  
G08  19477454.140    19477453.635    19477458.235                   -25750790.568 9 -25750790.573 9                 -20065551.820 9       866.000        1806.000        2353.000                  
G10  24426254.241    24426253.417    24426258.418                    -2162852.719 8  -2162852.715 7                  -1685338.265 7       150.000          61.000          82.000                  
G16  23791273.704    23791269.090    23791275.203                    -1465480.485 7  -1465480.484 6                  -1141950.699 6        86.000          23.000          24.000                  
G21  21664446.574    21664445.660    21664448.239                   -12858340.930 8 -12858340.933 7                 -10019480.139 7       318.000          98.000          78.000                  
G26  25259036.091    25259034.103    25259044.600                     3508474.883 7   3508474.863 6                   2733844.692 6        56.000          23.000          27.000                  
G27  19669824.803    19669824.335    19669828.467                   -24673059.740 9 -24673059.741 9                 -19225763.891 9       860.000        2002.000        2873.000                  
G28  22949805.506    22949804.723    22949807.671                   -10848877.810 8 -10848877.809 7                  -8453679.901 7       227.000          65.000          97.000                  
G31  23040059.117    23040058.450    23040061.168                    -9285379.062 8  -9285379.063 8                  -7235371.596 9       282.000         175.000         531.000                  
G32  21757955.532    21757955.588    21757959.865                   -14909771.786 8 -14909771.789 8                 -11617999.210 9       316.000         261.000         644.000                  
> 2024 10 31 21 15  0.0000000  0 12
G02  23110338.138    23110336.989    23110338.489                    -7777032.650 8  -7777032.635 7                  -6060015.435 7       248.000          52.000          92.000                  
G03  23231263.725    23231263.005    23231268.238                    -7185817.308 8  -7185817.316 7                  -5599344.551 8       193.000          95.000         181.000                  
G04  24120927.664    24120926.979    24120932.320                    -2381134.104 8  -2381134.103 6                  -1856052.521 6       112.000          30.000          24.000                  
G08  19478073.334    19478072.802    19478077.517                   -25747536.166 9 -25747536.170 9                 -20063015.833 9       869.000        1802.000        2501.000                  
G10  24371967.567    24371967.091    24371972.692                    -2448126.020 8  -2448126.019 7                  -1907628.533 7       152.000          57.000          97.000                  
G16  23867373.616    23867372.474    23867375.897                    -1065562.610 7  -1065562.620 6                   -830326.665 6        86.000          22.000          18.000                  
G21  21604174.808    21604173.969    21604175.895                   -13175070.739 8 -13175070.738 7                 -10266282.320 7       319.000          99.000          87.000                  
G26  25324604.135    25324601.905    25324613.900                     3853034.909 7   3853034.926 6                   3002332.159 6        52.000          24.000          35.000                  
G27  19708760.870    19708760.399    19708764.444                   -24468449.228 9 -24468449.228 9                 -19066327.089 9       832.000        1894.000        2818.000                  
G28  22959085.760    22959085.150    22959088.171                   -10800109.092 8 -10800109.098 7                  -8415678.130 7       230.000          71.000          93.000                  
G31  23083870.353    23083870.242    23083872.539                    -9055148.247 8  -9055148.248 8                  -7055970.922 9       276.000         166.000         510.000                  
G32  21711636.492    21711636.246    21711640.439                   -15153180.094 8 -15153180.099 8                 -11807667.790 9       326.000         267.000         664.000                  
> 2024 10 31 21 15 10.0000000  0 11
G02  23052082.308    23052081.275    23052083.007                    -8083166.213 8  -8083166.215 7                  -6298560.684 8       254.000          56.000         102.000                  
G03  23234883.787    23234883.564    23234888.849                    -7166788.886 8  -7166788.890 7                  -5584517.000 8       192.000          99.000         179.000                  
G04  24179236.770    24179236.437    24179241.131                    -2074721.739 8  -2074721.729 6                  -1617289.803 6       108.000          27.000          23.000                  
G08  19479882.048    19479881.445    19479886.005                   -25738032.031 9 -25738032.035 9                 -20055609.930 9       884.000        1877.000        2519.000                  
G10  24317929.184    24317928.408    24317933.876                    -2732099.270 8  -2732099.267 7                  -2128905.823 8       154.000          64.000         102.000                  
G16  23943627.700    23943626.041    23943629.427                     -664849.165 7   -664849.168 6                   -518082.657 6        82.000          21.000          17.000                  
G21  21544415.072    21544414.140    21544416.193                   -13489107.801 8 -13489107.800 7                 -10510986.253 7       313.000          93.000          93.000                  
G27  19748752.108    19748751.641    19748755.681                   -24258293.612 9 -24258293.613 9                 -18902569.430 9       809.000        1776.000        2763.000                  
G28  22968668.999    22968668.878    22968671.106                   -10749746.101 8 -10749746.091 7                  -8376434.070 7       229.000          72.000          97.000                  
G31  23127927.171    23127927.058    23127929.597                    -8823626.880 8  -8823626.879 8                  -6875564.607 8       273.000         160.000         491.000                  
G32  21665725.867    21665725.504    21665729.547                   -15394442.767 8 -15394442.768 8                 -11995664.455 9       334.000         280.000         676.000                  
> 2024 10 31 21 15 20.0000000  0 11
G02  22994154.351    22994153.556    22994154.577                    -8387577.573 8  -8387577.573 7                  -6535763.967 7       256.000          58.000          97.000                  
G03  23238803.363    23238803.456    23238808.649                    -7146189.962 8  -7146189.961 7                  -5568465.684 8       186.000          90.000         165.000                  
G04  24237676.241    24237675.136    24237680.389                    -1767625.712 7  -1767625.753 6                  -1377994.402 6        99.000          23.000          19.000                  
G08  19482882.488    19482881.892    19482886.488                   -25722263.977 9 -25722263.981 9                 -20043323.048 9       878.000        1825.000        2584.000                  
G10  24264145.854    24264145.830    24264150.960                    -3014725.911 8  -3014725.920 7                  -2349133.863 8       157.000          56.000         113.000                  
G16  24020024.547    24020022.591    24020025.771                     -263381.385 7   -263381.369 6                   -205250.861 6        79.000          25.000          20.000                  
G21  21485183.185    21485181.968    21485184.105                   -13800373.387 8 -13800373.389 8                 -10753530.621 7       317.000         103.000          93.000                  
G27  19789789.560    19789789.056    19789793.210                   -24042640.121 9 -24042640.122 9                 -18734527.713 9       786.000        1686.000        2689.000                  
G28  22978556.746    22978556.488    22978559.214                   -10697784.063 8 -10697784.058 7                  -8335943.999 8       225.000          65.000         103.000                  
G31  23172227.116    23172226.279    23172228.849                    -8590831.620 8  -8590831.621 8                  -6694165.658 8       266.000         168.000         458.000                  
G32  21620231.573    21620231.363    21620235.608                   -15633514.253 8 -15633514.252 8                 -12181953.708 9       344.000         301.000         697.000                  
> 2024 10 31 21 15 30.0000000  0 11
G02  22936564.270    22936563.014    22936563.755                    -8690215.420 8  -8690215.426 7                  -6771585.305 8       260.000          57.000         108.000                  
G03  23243022.625    23243022.017    23243026.951                    -7124020.409 8  -7124020.408 7                  -5551190.511 8       180.000          87.000         171.000                  
G04  24296238.124    24296237.470    24296242.590                    -1459878.013 7  -1459878.028 6                  -1138191.163 6        95.000          24.000          23.000                  
G08  19487073.651    19487073.061    19487077.651                   -25700238.747 9 -25700238.751 9                 -20026160.443 9       876.000        1823.000        2648.000                  
G10  24210625.509    24210624.989    24210630.386                    -3295978.393 8  -3295978.398 7                  -2568291.170 8       157.000          64.000         121.000                  
G16  24096553.438    24096551.436    24096554.711                      138781.011 7    138781.006 6                    108119.603 6        78.000          18.000          20.000                  
G21  21426490.030    21426488.720    21426490.801                   -14108807.646 8 -14108807.644 8                 -10993868.766 8       339.000         112.000         104.000                  
G27  19831860.384    19831859.926    19831864.065                   -23821556.063 9 -23821556.063 9                 -18562254.380 9       773.000        1629.000        2607.000                  
G28  22988746.714    22988746.357    22988749.042                   -10644237.255 8 -10644237.260 7                  -8294219.057 7       222.000          70.000         100.000                  
G31  23216761.922    23216761.556    23216764.019                    -8356797.866 8  -8356797.866 8                  -6511801.651 8       265.000         156.000         424.000                  
G32  21575159.693    21575159.324    21575163.570                   -15870368.020 8 -15870368.024 8                 -12366514.878 9       355.000         319.000         731.000                  
> 2024 10 31 21 15 40.0000000  0 11
G02  22879323.418    22879322.329    22879323.648                    -8991015.542 8  -8991015.546 7                  -7005974.672 8       258.000          57.000         104.000                  
G03  23247542.169    23247541.601    23247546.655                    -7100267.547 8  -7100267.545 7                  -5532681.590 8       172.000          81.000         160.000                  
G04  24354920.296    24354919.554    24354925.486                    -1151497.847 7  -1151497.861 6                   -897895.149 6        89.000          22.000          22.000                  
G08  19492456.293    19492455.751    19492460.332                   -25671952.384 9 -25671952.388 9                 -20004119.034 9       841.000        1693.000        2448.000                  
G10  24157373.525    24157372.902    24157378.370                    -3575816.412 8  -3575816.406 7                  -2786346.306 8       147.000          57.000         130.000                  
G16  24173204.417    24173205.090    24173203.567                      541591.612 7    541591.603 6                    421987.468 6        64.000          15.000          18.000                  
G21  21368349.059    21368347.761    21368350.022                   -14414338.011 8 -14414338.015 8                 -11231944.157 7       326.000         104.000          95.000                  
G27  19874954.176    19874953.642    19874957.723                   -23595097.173 9 -23595097.174 9                 -18385792.866 9       728.000        1455.000        2209.000                  
G28  22999237.444    22999237.017    22999239.932                   -10589107.387 8 -10589107.378 7                  -8251260.571 7       206.000          57.000          93.000                  
G31  23261528.388    23261528.228    23261530.387                    -8121548.190 8  -8121548.189 8                  -6328490.177 8       253.000         142.000         359.000                  
G32  21530517.340    21530517.035    21530521.124                   -16104964.973 8 -16104964.976 8                 -12549317.496 9       349.000         306.000         715.000                  
> 2024 10 31 21 15 50.0000000  0 11
G02  22822440.567    22822439.706    22822440.377                    -9289937.552 8  -9289937.562 7                  -7238900.595 7       252.000          51.000          98.000                  
G03  23252360.809    23252360.772    23252365.848                    -7074942.903 8  -7074942.907 7                  -5512947.904 8       157.000          68.000         144.000                  
G04  24413715.840    24413714.740    24413721.305                     -842528.402 7   -842528.401 6                   -657139.796 6        80.000          19.000          22.000                  
G08  19499026.215    19499025.759    19499030.201                   -25637426.907 9 -25637426.910 9                 -19977215.980 9       797.000        1513.000        2181.000                  
G10  24104393.969    24104393.812    24104398.812                    -3854223.763 8  -3854223.764 6                  -3003286.637 8       142.000          48.000         123.000                  
G16  24249967.102    24249966.508    24249966.623                      944980.415 7    944980.413 6                    736282.097 6        58.000          19.000          20.000                  
G21  21310770.358    21310769.315    21310771.288                   -14716915.891 8 -14716915.892 7                 -11467718.894 7       308.000          95.000          97.000                  
G27  19919055.344    19919054.803    19919058.781                   -23363344.236 9 -23363344.236 9                 -18205206.115 9       683.000        1272.000        1879.000                  
G28  23010024.262    23010024.184    23010026.776                   -10532420.259 8 -10532420.259 6                  -8207088.646 7       194.000          43.000          93.000                  
G31  23306517.599    23306517.311    23306519.257                    -7885129.136 8  -7885129.134 8                  -6144267.495 8       240.000         126.000         305.000                  
G32  21486307.136    21486306.826    21486310.969                   -16337290.126 8 -16337290.128 8                 -12730349.877 9       337.000         285.000         672.000                  
> 2024 10 31 21 16  0.0000000  0 11
G02  22765927.126    22765926.253    22765926.847                    -9586913.923 8  -9586913.919 7                  -7470310.441 8       280.000          70.000         115.000                  
G03  23257481.897    23257481.617    23257486.820                    -7048031.060 8  -7048031.055 7                  -5491977.448 8       163.000          74.000         163.000                  
G04  24472620.655    24472619.631    24472624.862                     -532985.541 7   -532985.578 6                   -415937.868 6        81.000          22.000          18.000                  
G08  19506784.004    19506783.472    19506787.927                   -25596659.199 9 -25596659.203 9                 -19945448.853 9       871.000        1812.000        2418.000                  
G10  24051695.109    24051694.906    24051699.939                    -4131157.258 8  -4131157.259 7                  -3219078.542 8       156.000          59.000         160.000                  
G16  24326833.135    24326830.490    24326828.773                     1348904.981 7   1348904.970 6                   1050981.365 6        58.000          20.000          18.000                  
G21  21253767.471    21253766.423    21253768.464                   -15016465.574 8 -15016465.574 8                 -11701134.032 8       341.000         104.000         106.000                  
G27  19964153.292    19964152.867    19964156.820                   -23126351.966 9 -23126351.967 9                 -18020536.776 9       740.000        1513.000        2043.000                  
G28  23021108.198    23021107.573    23021110.355                   -10474174.718 8 -10474174.734 7                  -8161702.354 8       208.000          51.000         104.000                  
G31  23351725.543    23351725.236    23351727.016                    -7647560.044 8  -7647560.044 8                  -5959148.680 8       255.000         149.000         337.000                  
G32  21442537.171    21442536.933    21442541.077                   -16567301.551 8 -16567301.553 8                 -12909579.362 9       377.000         365.000         805.000                  
> 2024 10 31 21 16 10.0000000  0 11
G02  22709797.115    22709796.100    22709796.542                    -9881880.634 8  -9881880.626 7                  -7700154.339 8       281.000          70.000         121.000                  
G03  23262907.334    23262907.073    23262911.836                    -7019520.528 8  -7019520.513 7                  -5469761.264 8       163.000          67.000         154.000                  
G04  24531629.358    24531628.696    24531634.651                     -222888.727 7   -222888.728 6                   -174304.166 6        75.000          20.000          22.000                  
G08  19515729.148    19515728.570    19515733.064                   -25549651.883 9 -25549651.887 9                 -19908819.698 9       861.000        1772.000        2283.000                  
G10  23999283.321    23999283.749    23999288.638                    -4406577.370 8  -4406577.360 7                  -3433691.214 8       159.000          62.000         168.000                  
G16  24403791.103    24403787.381    24403787.358                     1753319.658 7   1753319.666 6                   1366065.184 6        54.000          21.000          20.000                  
G21  21197355.355    21197353.802    21197355.954                   -15312915.185 8 -15312915.191 8                 -11932133.536 8       355.000         113.000         119.000                  
G27  20010237.194    20010236.683    20010240.653                   -22884179.757 9 -22884179.759 9                 -17831831.122 9       747.000        1502.000        1886.000                  
G28  23032487.466    23032487.076    23032490.428                   -10414373.458 8 -10414373.470 7                  -8115103.804 8       204.000          53.000         110.000                  
G31  23397147.861    23397147.638    23397149.498                    -7408863.938 8  -7408863.936 8                  -5773151.676 8       249.000         147.000         311.000                  
G32  21399214.836    21399214.510    21399218.618                   -16794961.180 8 -16794961.180 8                 -13086976.288 9       399.000         399.000         812.000                  
> 2024 10 31 21 16 20.0000000  0 10
G02  22654055.000    22654053.803    22654054.577                   -10174804.696 8 -10174804.696 7                  -7928406.569 8       282.000          66.000         136.000                  
G03  23268632.970    23268632.335    23268637.545                    -6989431.174 8  -6989431.169 7                  -5446314.830 8       155.000          66.000         157.000                  
G04  24590732.835    24590734.389    24590740.314                       87711.431 7     87711.415 6                     67721.744 6        73.000          23.000          20.000                  
G08  19525854.921    19525854.313    19525858.722                   -25496440.708 9 -25496440.712 9                 -19867356.376 9       845.000        1727.000        2364.000                  
G10  23947161.807    23947162.056    23947166.833                    -4680475.888 8  -4680475.881 7                  -3647118.259 8       157.000          58.000         187.000                  
G21  21141540.015    21141538.982    21141540.889                   -15606224.063 8 -15606224.064 8                 -12160685.715 8       359.000         125.000         137.000                  
G27  20057289.250    20057288.859    20057292.762                   -22636919.103 9 -22636919.104 9                 -17639160.453 9       718.000        1406.000        1928.000                  
G28  23044157.339    23044156.322    23044159.230                   -10353050.541 8 -10353050.548 6                  -8067319.554 8       196.000          47.000         102.000                  
G31  23442774.065    23442773.971    23442775.986                    -7169094.887 8  -7169094.883 8                  -5586318.593 8       242.000         127.000         317.000                  
G32  21356341.775    21356341.153    21356345.014                   -17020262.248 8 -17020262.251 8                 -13262535.386 9       409.000         419.000         856.000                  
> 2024 10 31 21 16 30.0000000  0 10
G02  22598715.791    22598715.071    22598715.266                   -10465612.595 8 -10465612.594 7                  -8155009.856 8       286.000          66.000         147.000                  
G03  23274662.824    23274662.211    23274667.522                    -6957742.647 8  -6957742.652 7                  -5421622.293 8       150.000          64.000         154.000                  
G04  24649933.745    24649933.245    24649939.041                      398805.002 7    398804.993 6                    310132.044 6        70.000          21.000          20.000                  
G08  19537161.603    19537161.138    19537165.561                   -25437022.959 9 -25437022.963 9                 -19821056.767 9       865.000        1782.000        2354.000                  
G10  23895340.352    23895339.524    23895344.574                    -4952804.202 8  -4952804.201 7                  -3859321.808 8       163.000          68.000         185.000                  
G21  21086338.583    21086336.977    21086339.146                   -15896311.324 8 -15896311.328 8                 -12386727.551 8       384.000         142.000         138.000                  
G27  20105299.803    20105299.401    20105303.322                   -22384621.942 9 -22384621.943 9                 -17442565.237 9       708.000        1352.000        1820.000                  
G28  23056116.147    23056116.314    23056119.092                   -10290199.727 8 -10290199.725 7                  -8018344.762 8       200.000          55.000         101.000                  
G31  23488601.948    23488601.947    23488604.158                    -6928266.493 8  -6928266.494 8                  -5398660.047 8       243.000         131.000         284.000                  
G32  21313925.593    21313925.312    21313929.160                   -17243157.768 8 -17243157.770 8                 -13436220.043 9       428.000         466.000         860.000                  
> 2024 10 31 21 16 40.0000000  0 10
G02  22543791.128    22543789.933    22543790.593                   -10754243.177 8 -10754243.183 7                  -8379916.541 8       286.000          60.000         141.000                  
G03  23280998.565    23280998.487    23281003.134                    -6924447.086 8  -6924447.082 7                  -5395677.530 8       152.000          64.000         139.000                  
G04  24709223.889    24709222.460    24709228.007                      710369.716 7    710369.724 6                    552912.532 6        67.000          27.000          20.000                  
G08  19549647.190    19549646.732    19549651.107                   -25371410.172 9 -25371410.176 9                 -19769929.859 9       836.000        1663.000        2251.000                  
G10  23843822.980    23843822.732    23843827.396                    -5223526.033 8  -5223526.020 7                  -4070273.565 8       166.000          68.000         182.000                  
G21  21031762.439    21031761.356    21031763.089                   -16183108.337 8 -16183108.338 8                 -12610205.565 8       403.000         153.000         138.000                  
G27  20154256.345    20154255.858    20154259.803                   -22127353.372 9 -22127353.373 9                 -17242096.197 9       660.000        1208.000        1615.000                  
G28  23068366.861    23068365.904    23068368.758                   -10225827.161 8 -10225827.167 7                  -7968184.201 8       192.000          51.000         101.000                  
G31  23534627.191    23534626.795    23534628.846                    -6686404.479 8  -6686404.479 8                  -5210196.094 8       239.000         122.000         267.000                  
G32  21271974.343    21271973.898    21271977.770                   -17463613.230 8 -17463613.232 9                 -13608003.367 9       450.000         505.000         826.000                  
> 2024 10 31 21 16 50.0000000  0 10
G02  22489289.299    22489288.592    22489289.366                   -11040649.821 8 -11040649.821 7                  -8603090.305 8       294.000          70.000         157.000                  
G03  23287638.346    23287638.805    23287643.219                    -6889551.436 8  -6889551.446 7                  -5368485.940 8       157.000          59.000         149.000                  
G04  24768596.225    24768594.460    24768600.567                     1022368.845 7   1022368.845 6                    796028.550 6        65.000          22.000          20.000                  
G08  19563306.476    19563305.850    19563310.322                   -25299630.418 9 -25299630.423 9                 -19713997.522 9       836.000        1690.000        2467.000                  
G10  23792615.693    23792615.655    23792620.047                    -5492619.860 8  -5492619.865 7                  -4279956.747 8       173.000          83.000         202.000                  
G21  20977822.927    20977821.941    20977823.640                   -16466561.409 8 -16466561.410 8                 -12831077.913 8       425.000         168.000         170.000                  
G27  20204143.678    20204143.109    20204147.016                   -21865193.890 9 -21865193.890 9                 -17037816.054 9       660.000        1181.000        1608.000                  
G28  23080901.273    23080901.671    23080904.060                   -10159953.709 8 -10159953.706 6                  -7916854.116 8       193.000          50.000         111.000                  
G31  23580840.721    23580840.564    23580842.635                    -6443549.148 8  -6443549.145 8                  -5020958.140 8       236.000         126.000         272.000                  
G32  21230491.092    21230490.868    21230494.466                   -17681608.891 8 -17681608.894 9                 -13777869.963 9       487.000         596.000         896.000                  
> 2024 10 31 21 17  0.0000000  0 10
G02  22435221.321    22435220.118    22435220.751                   -11324779.697 8 -11324779.694 7                  -8824489.970 8       299.000          71.000         161.000                  
G03  23294582.688    23294583.198    23294588.005                    -6853056.890 8  -6853056.894 7                  -5340048.466 8       157.000          60.000         150.000                  
G04  24828045.183    24828042.979    24828047.177                     1334771.844 7   1334771.844 6                   1039458.210 6        61.000          23.000          19.000                  
G08  19578134.512    19578133.996    19578138.469                   -25221707.725 9 -25221707.728 9                 -19653278.485 9       825.000        1631.000        2556.000                  
G10  23741723.468    23741723.456    23741728.139                    -5760058.236 8  -5760058.233 7                  -4488349.989 8       183.000          83.000         222.000                  
G21  20924531.416    20924530.221    20924531.831                   -16746610.901 8 -16746610.902 8                 -13049298.115 8       440.000         177.000         186.000                  
G27  20254947.341    20254946.835    20254950.618                   -21598218.721 9 -21598218.722 9                 -16829783.439 9       647.000        1146.000        1566.000                  
G28  23093719.210    23093719.044    23093721.659                   -10092594.378 8 -10092594.375 7                  -7864366.198 8       188.000          52.000         101.000                  
G31  23627237.555    23627236.718    23627238.938                    -6199734.689 8  -6199734.689 8                  -4830972.812 8       237.000         122.000         262.000                  
G32  21189480.743    21189480.464    21189483.975                   -17897119.257 9 -17897119.260 9                 -13945799.974 9       514.000         666.000         911.000                  
> 2024 10 31 21 17 10.0000000  0 10
G02  22381600.090    22381599.040    22381599.386                   -11606560.051 8 -11606560.054 7                  -9044058.860 8       302.000          74.000         167.000                  
G03  23301835.785    23301835.367    23301840.788                    -6814944.723 8  -6814944.727 7                  -5310350.520 8       157.000          69.000         163.000                  
G04  24887566.786    24887565.863    24887571.712                     1647568.244 7   1647568.236 6                   1283196.481 6        64.000          21.000          17.000                  
G08  19594130.728    19594130.077    19594134.544                   -25137647.889 9 -25137647.893 9                 -19587777.261 9       827.000        1638.000        2668.000                  
G10  23691156.384    23691155.118    23691160.047                    -6025793.723 8  -6025793.721 7                  -4695416.312 8       186.000          87.000         229.000                  
G21  20871902.661    20871901.238    20871902.684                   -17023177.387 8 -17023177.389 8                 -13264804.307 8       441.000         186.000         185.000                  
G27  20306656.778    20306656.348    20306660.193                   -21326483.701 9 -21326483.702 9                 -16618041.855 9       645.000        1138.000        1542.000                  
G28  23106821.432    23106820.867    23106823.263                   -10023744.243 8 -10023744.244 6                  -7810716.626 8       189.000          45.000         113.000                  
G31  23673813.844    23673813.277    23673815.169                    -5954975.059 8  -5954975.061 8                  -4640251.003 8       231.000         118.000         248.000                  
G32  21148952.096    21148951.677    21148955.142                   -18110098.909 9 -18110098.911 9                 -14111758.006 9       533.000         718.000         929.000                  
> 2024 10 31 21 17 20.0000000  0 10
G02  22328434.909    22328433.656    22328433.901                   -11885944.433 8 -11885944.440 7                  -9261760.749 8       304.000          81.000         183.000                  
G03  23309394.519    23309394.168    23309399.361                    -6775222.867 8  -6775222.868 7                  -5279398.279 8       160.000          65.000         173.000                  
G04  24947157.746    24947156.792    24947162.217                     1960721.277 7   1960721.254 6                   1527215.542 6        57.000          19.000          20.000                  
G08  19611287.911    19611287.378    19611291.915                   -25047485.063 9 -25047485.067 9                 -19517520.461 9       818.000        1602.000        2799.000                  
G10  23640915.799    23640915.426    23640919.946                    -6289805.458 8  -6289805.456 7                  -4901139.474 8       194.000          94.000         239.000                  
G21  20819946.128    20819945.106    20819946.598                   -17296208.031 8 -17296208.030 8                 -13477555.302 8       429.000         173.000         176.000                  
G27  20359256.121    20359255.771    20359259.682                   -21050071.771 9 -21050071.771 9                 -16402655.921 9       645.000        1127.000        1538.000                  
G28  23120202.034    23120202.251    23120204.866                    -9953424.973 8  -9953424.970 7                  -7755922.287 8       188.000          54.000         106.000                  
G31  23720561.879    23720561.289    23720563.385                    -5709310.579 8  -5709310.585 8                  -4448824.119 8       227.000         116.000         246.000                  
G32  21108908.178    21108908.075    21108911.438                   -18320529.138 9 -18320529.140 9                 -14275729.476 9       557.000         773.000         943.000                  
> 2024 10 31 21 17 30.0000000  0 10
G02  22275735.233    22275734.271    22275734.495                   -12162880.628 8 -12162880.631 7                  -9477554.977 8       301.000          74.000         191.000                  
G03  23317258.613    23317258.936    23317263.766                    -6733893.662 8  -6733893.664 7                  -5247193.564 8       158.000          63.000         174.000                  
G04  25006810.332    25006809.409    25006817.886                     2274200.272 7   2274200.313 6                   1771484.480 6        59.000          21.000          23.000                  
G08  19629600.883    19629600.334    19629604.949                   -24951249.405 9 -24951249.410 9                 -19442531.590 9       802.000        1540.000        2822.000                  
G10  23591008.994    23591008.620    23591013.124                    -6552066.822 8  -6552066.823 7                  -5105498.719 8       201.000          98.000         245.000                  
G21  20768674.120    20768672.653    20768674.423                   -17565644.444 8 -17565644.443 8                 -13687505.605 8       443.000         187.000         176.000                  
G27  20412730.786    20412730.402    20412734.253                   -20769060.655 9 -20769060.655 9                 -16183686.212 9       632.000        1099.000        1526.000                  
G28  23133859.877    23133859.228    23133862.041                    -9881652.439 8  -9881652.426 6                  -7699995.544 8       190.000          46.000         104.000                  
G31  23767475.787    23767475.457    23767477.491                    -5462775.601 8  -5462775.607 8                  -4256718.918 8       221.000         112.000         242.000                  
G32  21069354.667    21069354.239    21069357.466                   -18528385.601 9 -18528385.603 9                 -14437695.417 9       573.000         823.000         961.000                  
> 2024 10 31 21 17 40.0000000  0 10
G02  22223515.867    22223514.865    22223514.931                   -12437295.947 8 -12437295.951 7                  -9691384.902 8       301.000          77.000         205.000                  
G03  23325433.305    23325433.076    23325437.742                    -6690939.097 8  -6690939.099 7                  -5213722.346 8       160.000          66.000         179.000                  
G04  25066525.189    25066522.544    25066530.148                     2587994.978 7   2587994.951 6                   2016008.651 6        57.000          24.000          18.000                  
G08  19649067.324    19649066.818    19649071.379                   -24848952.386 9 -24848952.390 9                 -19362819.591 9       789.000        1493.000        2729.000                  
G10  23541444.892    23541443.866    23541448.230                    -6812530.821 8  -6812530.823 8                  -5308457.435 8       208.000         110.000         253.000                  
G21  20718100.746    20718099.430    20718101.102                   -17831408.099 8 -17831408.101 8                 -13894594.023 8       466.000         201.000         171.000                  
G27  20467069.724    20467069.272    20467073.047                   -20483508.135 9 -20483508.137 9                 -15961177.760 9       621.000        1066.000        1484.000                  
G28  23147795.556    23147794.703    23147797.602                    -9808422.183 8  -9808422.169 6                  -7642932.912 8       188.000          46.000         111.000                  
G31  23814552.428    23814552.483    23814554.548                    -5215383.892 8  -5215383.894 8                  -4063946.138 8       212.000         102.000         221.000                  
G32  21030298.808    21030298.669    21030301.849                   -18733623.708 9 -18733623.708 9                 -14597621.090 9       580.000         856.000         975.000                  
> 2024 10 31 21 17 50.0000000  0 10
G02  22171784.915    22171783.666    22171784.174                   -12709142.584 8 -12709142.594 7                  -9903213.264 8       301.000          72.000         206.000                  
G03  23333915.484    23333914.579    23333919.315                    -6646366.371 8  -6646366.378 7                  -5178990.232 8       163.000          69.000         179.000                  
G04  25126292.313    25126289.642    25126295.783                     2902070.267 7   2902070.310 6                   2260762.256 6        55.000          20.000          19.000                  
G08  19669679.950    19669679.467    19669683.907                   -24740632.297 9 -24740632.301 9                 -19278414.293 9       772.000        1421.000        2540.000                  
G10  23492225.979    23492225.150    23492229.685                    -7071175.539 8  -7071175.539 8                  -5509998.543 8       217.000         108.000         258.000                  
G21  20668236.868    20668235.420    20668236.595                   -18093445.768 8 -18093445.772 8                 -14098779.077 8       485.000         222.000         177.000                  
G27  20522257.068    20522256.548    20522260.247                   -20193497.496 9 -20193497.495 9                 -15735195.455 9       612.000        1022.000        1477.000                  
G28  23162004.007    23162003.717    23162005.895                    -9733754.820 8  -9733754.823 6                  -7584750.469 7       190.000          43.000          98.000                  
G31  23861785.669    23861785.263    23861787.472                    -4967174.040 8  -4967174.039 7                  -3870535.851 8       210.000          92.000         213.000                  
G32  20991745.244    20991745.018    20991748.193                   -18936224.054 9 -18936224.056 9                 -14755491.373 9       589.000         886.000         992.000                  
> 2024 10 31 21 18  0.0000000  0 10
G02  22120552.587    22120551.260    22120551.479                   -12978370.304 8 -12978370.297 7                 -10113000.918 8       300.000          77.000         217.000                  
G03  23342703.549    23342703.690    23342708.250                    -6600180.320 8  -6600180.320 7                  -5143000.978 8       156.000          74.000         183.000                  
G04  25186104.923    25186103.543    25186111.216                     3216393.810 7   3216393.836 6                   2505701.500 6        55.000          19.000          20.000                  
G08  19691431.557    19691431.063    19691435.580                   -24626326.568 9 -24626326.572 9                 -19189344.857 9       757.000        1384.000        2425.000                  
G10  23443357.959    23443357.542    23443361.636                    -7327976.653 8  -7327976.651 8                  -5710103.092 8       221.000         121.000         286.000                  
G21  20619091.831    20619090.839    20619092.230                   -18351701.900 9 -18351701.903 8                 -14300017.490 8       511.000         249.000         187.000                  
G27  20578277.110    20578276.557    20578280.323                   -19899109.900 9 -19899109.900 9                 -15505802.544 9       587.000         953.000        1447.000                  
G28  23176482.513    23176482.643    23176484.794                    -9657668.497 8  -9657668.508 6                  -7525462.357 7       188.000          49.000          95.000                  
G31  23909167.756    23909166.984    23909168.958                    -4718182.011 8  -4718182.008 7                  -3676516.087 8       202.000          89.000         216.000                  
G32  20953697.551    20953697.484    20953700.680                   -19136164.934 9 -19136164.936 9                 -14911289.346 9       603.000         910.000        1021.000                  
> 2024 10 31 21 18 10.0000000  0 10
G02  22069832.441    22069831.115    22069831.328                   -13244905.753 8 -13244905.753 7                 -10320690.707 8       302.000          76.000         234.000                  
G03  23351803.765    23351803.120    23351807.233                    -6552362.667 8  -6552362.677 7                  -5105740.356 8       162.000          64.000         192.000                  
G04  25245963.671    25245963.586    25245968.942                     3530956.738 7   3530956.753 6                   2750815.136 6        56.000          20.000          16.000                  
G08  19714319.107    19714318.648    19714323.159                   -24506051.139 9 -24506051.142 9                 -19095623.704 9       739.000        1310.000        2392.000                  
G10  23394849.886    23394849.816    23394853.755                    -7582886.598 8  -7582886.594 8                  -5908734.006 8       223.000         128.000         301.000                  
G21  20570682.008    20570680.845    20570682.084                   -18606098.052 9 -18606098.054 8                 -14498248.117 8       533.000         271.000         198.000                  
