     3.03           OBSERVATION DATA    M (MIXED)           RINEX VERSION / TYPE
BJPP                CNES                20241031 143236 UTC PGM / RUN BY / DATE 
MARKER                                                      MARKER NAME         
SPACECRAFT                                                  MARKER TYPE         
OBSERVER            CNES                                    OBSERVER / AGENCY   
RECNUM              BLACKJACK           RECVERS             REC # / TYPE / VERS 
ANTNUM              BLACKJACK                               ANT # / TYPE        
        0.0000        0.0000        0.0000                  ANTENNA: DELTA H/E/N
G   12 C1C C1W C2W C2X L1C L1W L2X L2W S1C S1W S2W S2X      SYS / # / OBS TYPES 
DBHZ                                                        SIGNAL STRENGTH UNIT
This rinex produced from the following file(s):             COMMENT             
/tmp/mesos_work/slaves/d197f515-9ebc-49f2-8adc-fe7a9d3e6458-COMMENT             
S7/frameworks/8c1b9f46-52ed-4aff-9edf-38d17bf6761e-3211/execCOMMENT             
utors/toil-81240/runs/089cc9f7-14d2-4652-8954-195bbc8b92b6/2COMMENT             
db3543ada83507baf154b9f8354fade/9b9f/347a/tmptyybcqvs1vxy0upCOMMENT             
2/stg17e1d1d4-c725-47f7-be1a-f69c347c1095/SWOT_KRX_20241031TCOMMENT             
135025_20241031T104519_20241031T122340_O_APID1280.PTM_0     COMMENT             
  2024    10    31    10    44   50.0000000                 TIME OF FIRST OBS   
G L1C                                                       SYS / PHASE SHIFT   
G L1W -0.25000                                              SYS / PHASE SHIFT   
G L2W                                                       SYS / PHASE SHIFT   
G L2X  0.25000                                              SYS / PHASE SHIFT   
                                                            END OF HEADER       
> 2024 10 31 10 44 50.0000000  0  1
G16  23255982.992    23255980.934    23255982.647                    -7175206.887 8  -7175206.882 6                  -5591076.274 6       131.000          21.000          46.000                  
> 2024 10 31 10 45  0.0000000  0  8
G04  19919839.159    19919838.600    19919840.871                   -19008344.134 8 -19008344.124 8                 -14811698.467 8       499.000         366.000         424.000                  
G07  21685403.384    21685402.826    21685403.354                   -19165188.389 8 -19165188.390 8                 -14933915.538 8       460.000         486.000         409.000                  
G08  19377789.241    19377788.510    19377792.311                   -21563547.901 9 -21563547.905 9                 -16802766.846 9       791.000        1493.000        2061.000                  
G09  19443817.562    19443817.459    19443820.462                   -26762664.506 9 -26762664.509 9                 -20854026.340 9       733.000        1578.000        2347.000                  
G14  24756931.860    24756928.364    24756932.112                     -456060.435 7   -456060.451 6                   -355372.452 6        80.000          24.000          21.000                  
G16  23300347.889    23300346.215    23300347.769                    -6942066.477 8  -6942066.459 6                  -5409408.529 6       127.000          23.000          43.000                  
G27  20768943.560    20768943.234    20768946.366                   -19222347.240 8 -19222347.243 8                 -14978450.693 9       411.000         461.000         965.000                  
G30  24196907.095    24196906.842    24196910.865                    -4338516.110 8  -4338516.108 6                  -3380666.753 8       133.000          47.000         202.000                  
> 2024 10 31 10 45 10.0000000  0  8
G04  19885610.008    19885609.760    19885612.108                   -19188217.903 9 -19188217.895 8                 -14951859.886 8       508.000         382.000         435.000                  
G07  21730672.135    21730671.847    21730672.248                   -18927298.582 8 -18927298.583 8                 -14748546.937 8       453.000         462.000         404.000                  
G08  19361088.232    19361087.596    19361091.397                   -21651311.936 9 -21651311.941 9                 -16871154.447 9       790.000        1491.000        2045.000                  
G09  19444014.583    19444014.141    19444017.091                   -26761631.505 9 -26761631.506 9                 -20853221.461 9       730.000        1578.000        2407.000                  
G14  24737336.582    24737334.342    24737338.997                     -559032.848 7   -559032.852 6                   -435610.731 6        77.000          21.000          24.000                  
G16  23345089.882    23345087.480    23345089.044                    -6706948.869 8  -6706948.863 6                  -5226200.143 6       121.000          26.000          38.000                  
G27  20792773.750    20792773.193    20792776.392                   -19097120.225 8 -19097120.227 8                 -14880871.273 9       400.000         441.000         954.000                  
G30  24241360.212    24241359.611    24241363.655                    -4104916.408 8  -4104916.419 6                  -3198641.161 8       135.000          48.000         205.000                  
> 2024 10 31 10 45 20.0000000  0  9
G04  19852011.921    19852011.547    19852013.962                   -19364777.912 9 -19364777.904 8                 -15089439.153 8       525.000         403.000         445.000                  
G07  21776509.403    21776509.110    21776509.564                   -18686422.789 8 -18686422.791 8                 -14560851.599 8       435.000         441.000         394.000                  
G08  19345579.520    19345579.023    19345582.858                   -21732810.178 9 -21732810.182 9                 -16934659.613 9       788.000        1476.000        2010.000                  
G09  19444938.441    19444937.949    19444940.997                   -26756777.013 9 -26756777.015 9                 -20849438.800 9       732.000        1564.000        2495.000                  
G14  24718121.641    24718119.637    24718122.547                     -660007.467 7   -660007.477 6                   -514292.534 6        77.000          18.000          17.000                  
G16  23390202.040    23390200.754    23390201.877                    -6469880.676 8  -6469880.695 6                  -5041471.846 6       121.000          21.000          37.000                  
G21  23818654.680    23818685.360    23818713.604                     -635173.001 7   -635173.019 6                   -494944.893 6        63.000          17.000          16.000                  
G27  20817566.563    20817565.887    20817569.071                   -18966834.031 8 -18966834.033 8                 -14779349.638 9       392.000         429.000         914.000                  
G30  24286123.034    24286122.014    24286125.948                    -3869690.144 8  -3869690.128 6                  -3015348.127 8       129.000          41.000         198.000                  
> 2024 10 31 10 45 30.0000000  0  9
G04  19819046.859    19819046.661    19819048.792                   -19538010.563 9 -19538010.552 8                 -15224425.678 8       537.000         415.000         421.000                  
G07  21822904.330    21822903.742    21822904.543                   -18442617.151 8 -18442617.151 8                 -14370873.271 8       417.000         393.000         402.000                  
G08  19331264.398    19331263.874    19331267.703                   -21808036.929 9 -21808036.933 9                 -16993277.914 9       782.000        1456.000        1930.000                  
G09  19446586.127    19446585.707    19446588.908                   -26748117.847 9 -26748117.850 9                 -20842691.467 9       729.000        1582.000        2549.000                  
G14  24699288.994    24699287.089    24699291.632                     -758975.396 7   -758975.392 6                   -591410.593 6        74.000          20.000          19.000                  
G16  23435673.959    23435672.394    23435673.250                    -6230926.396 8  -6230926.395 6                  -4855273.866 6       119.000          27.000          29.000                  
G21  23747081.618    23747109.750    23747126.717                    -1011299.093 7  -1011299.124 6                   -788027.739 6        68.000          19.000          17.000                  
G27  20843310.894    20843310.586    20843313.566                   -18831545.737 8 -18831545.736 8                 -14673930.270 9       392.000         415.000         843.000                  
G30  24331186.766    24331185.358    24331189.802                    -3632879.668 8  -3632879.688 6                  -2830820.662 8       124.000          35.000         183.000                  
> 2024 10 31 10 45 40.0000000  0  9
G04  19786725.694    19786725.443    19786727.521                   -19707860.296 9 -19707860.286 8                 -15356776.169 8       548.000         449.000         436.000                  
G07  21869853.480    21869853.322    21869854.241                   -18195895.841 8 -18195895.842 8                 -14178622.995 8       397.000         367.000         431.000                  
G08  19318151.399    19318150.959    19318154.730                   -21876946.077 9 -21876946.082 9                 -17046973.412 9       772.000        1428.000        1976.000                  
G09  19448962.725    19448962.296    19448965.444                   -26735629.212 9 -26735629.213 9                 -20832960.136 9       734.000        1598.000        2636.000                  
G14  24680846.193    24680845.397    24680849.563                     -855885.603 7   -855885.619 6                   -666925.234 6        73.000          20.000          19.000                  
G16  23481499.454    23481498.956    23481500.392                    -5990108.359 8  -5990108.354 6                  -4667623.635 6       112.000          24.000          27.000                  
G21  23675754.707    23675785.236    23675823.858                    -1386112.123 7  -1386112.135 6                  -1080092.247 6        72.000          19.000          18.000                  
G27  20870004.677    20870004.007    20870006.912                   -18691271.275 8 -18691271.275 8                 -14564625.587 9       384.000         401.000         839.000                  
G30  24376550.720    24376550.742    24376555.074                    -3394485.029 8  -3394485.039 6                  -2645058.793 8       122.000          44.000         193.000                  
> 2024 10 31 10 45 50.0000000  0  9
G04  19755047.545    19755047.125    19755049.203                   -19874330.748 9 -19874330.737 8                 -15486493.458 8       559.000         460.000         423.000                  
G07  21917344.162    21917343.701    21917344.754                   -17946331.988 8 -17946331.987 8                 -13984157.758 8       377.000         329.000         422.000                  
G08  19306238.011    19306237.468    19306241.228                   -21939552.215 9 -21939552.219 9                 -17095757.476 9       780.000        1444.000        1925.000                  
G09  19452061.519    19452061.084    19452064.097                   -26719345.780 9 -26719345.782 9                 -20820271.827 9       752.000        1660.000        2579.000                  
G14  24662796.903    24662793.480    24662799.901                     -950746.180 7   -950746.171 6                   -740842.755 6        75.000          22.000          18.000                  
G16  23527665.613    23527664.295    23527666.560                    -5747507.533 8  -5747507.515 6                  -4478584.216 6       104.000          22.000          29.000                  
G21  23604685.067    23604714.521    23604730.138                    -1759589.615 7  -1759589.609 6                  -1371111.187 6        72.000          26.000          17.000                  
G27  20897632.516    20897631.795    20897634.722                   -18546086.505 8 -18546086.506 8                 -14451494.702 9       376.000         393.000         806.000                  
G30  24422206.220    24422206.052    24422210.457                    -3154565.203 8  -3154565.185 6                  -2458108.487 8       120.000          39.000         186.000                  
> 2024 10 31 10 46  0.0000000  0  9
G04  19724024.131    19724024.072    19724026.214                   -20037358.701 9 -20037358.691 8                 -15613528.288 8       559.000         460.000         422.000                  
G07  21965374.593    21965374.077    21965374.854                   -17693931.582 8 -17693931.582 8                 -13787482.232 8       342.000         272.000         408.000                  
G08  19295533.642    19295533.075    19295536.778                   -21995804.606 9 -21995804.611 9                 -17139590.573 9       775.000        1443.000        1932.000                  
G09  19455888.166    19455887.854    19455891.056                   -26699235.642 9 -26699235.644 9                 -20804601.673 9       732.000        1607.000        2621.000                  
G14  24645144.471    24645143.569    24645149.928                    -1043498.217 7  -1043498.198 6                   -813122.352 6        73.000          26.000          20.000                  
G16  23574168.030    23574166.453    23574167.681                    -5503137.496 7  -5503137.495 6                  -4288166.278 6       100.000          19.000          28.000                  
G21  23533884.900    23533914.789    23533950.705                    -2131641.472 7  -2131641.497 6                  -1661024.153 6        75.000          22.000          18.000                  
G27  20926192.806    20926192.186    20926195.141                   -18396001.066 8 -18396001.069 8                 -14334545.126 9       360.000         367.000         817.000                  
G30  24468155.058    24468153.229    24468157.692                    -2913111.889 8  -2913111.906 6                  -2269963.273 8       113.000          32.000         173.000                  
> 2024 10 31 10 46 10.0000000  0  9
G04  19693656.816    19693656.195    19693658.621                   -20196941.662 9 -20196941.651 8                 -15737878.711 8       569.000         469.000         414.000                  
G07  22013932.541    22013931.447    22013932.353                   -17438761.027 8 -17438761.030 8                 -13588648.164 8       324.000         234.000         399.000                  
G08  19286036.172    19286035.478    19286039.313                   -22045714.786 9 -22045714.790 9                 -17178481.691 9       782.000        1466.000        1912.000                  
G09  19460437.765    19460437.342    19460440.634                   -26675327.933 9 -26675327.935 9                 -20785972.373 9       741.000        1615.000        2575.000                  
G14  24627894.958    24627894.575    24627897.728                    -1134143.410 7  -1134143.430 6                   -883756.655 6        72.000          23.000          20.000                  
G16  23620991.956    23620990.988    23620992.700                    -5257072.121 7  -5257072.124 6                  -4096427.186 6       100.000          24.000          26.000                  
G21  23463363.423    23463393.457    23463409.464                    -2502237.626 7  -2502237.648 6                  -1949797.816 6        75.000          22.000          17.000                  
G27  20955671.662    20955671.540    20955674.734                   -18241086.076 8 -18241086.076 8                 -14213832.265 9       363.000         362.000         803.000                  
G30  24514383.934    24514382.302    24514386.529                    -2670177.234 8  -2670177.217 6                  -2080663.794 8       111.000          40.000         160.000                  
> 2024 10 31 10 46 20.0000000  0  9
G04  19663952.219    19663951.919    19663954.366                   -20353039.464 9 -20353039.453 9                 -15859513.429 8       580.000         504.000         412.000                  
G07  22063011.406    22063010.700    22063011.590                   -17180849.014 8 -17180849.013 8                 -13387677.906 8       311.000         226.000         394.000                  
G08  19277750.140    19277749.491    19277753.309                   -22089258.160 9 -22089258.164 9                 -17212411.668 9       779.000        1457.000        1960.000                  
G09  19465711.663    19465711.252    19465714.404                   -26647614.317 9 -26647614.319 9                 -20764377.434 9       741.000        1619.000        2586.000                  
G14  24611055.566    24611052.868    24611057.455                    -1222645.678 7  -1222645.679 6                   -952721.289 6        72.000          22.000          17.000                  
G16  23668132.882    23668131.005    23668134.537                    -5009347.083 8  -5009347.097 6                  -3903394.955 6       101.000          23.000          26.000                  
G21  23393132.250    23393160.968    23393193.335                    -2871309.617 7  -2871309.584 6                  -2237388.837 6        82.000          18.000          16.000                  
G27  20986064.049    20986063.560    20986066.770                   -18081375.526 8 -18081375.528 8                 -14089382.609 9       359.000         351.000         833.000                  
G30  24560892.059    24560890.433    24560895.381                    -2425775.293 8  -2425775.291 6                  -1890220.986 8       110.000          31.000         153.000                  
> 2024 10 31 10 46 30.0000000  0  9
G04  19634919.475    19634919.072    19634921.255                   -20505608.361 9 -20505608.350 9                 -15978398.356 8       590.000         514.000         411.000                  
G07  22112607.414    22112606.862    22112607.694                   -16920220.203 8 -16920220.206 8                 -13184590.674 8       300.000         204.000         391.000                  
G08  19270680.729    19270680.213    19270683.994                   -22126408.086 9 -22126408.090 9                 -17241359.742 9       770.000        1415.000        1981.000                  
G09  19471712.004    19471711.505    19471714.730                   -26616083.153 9 -26616083.156 9                 -20739807.790 9       739.000        1605.000        2630.000                  
G14  24594628.811    24594626.672    24594632.685                    -1308965.211 7  -1308965.219 6                  -1019983.524 6        67.000          19.000          20.000                  
G16  23715583.113    23715581.648    23715585.827                    -4759993.967 7  -4759993.928 6                  -3709094.078 6       100.000          21.000          30.000                  
G21  23323204.437    23323232.649    23323248.481                    -3238784.664 7  -3238784.674 6                  -2523730.497 6        84.000          19.000          16.000                  
G27  21017362.888    21017362.261    21017365.632                   -17916900.407 8 -17916900.407 8                 -13961220.313 9       342.000         330.000         862.000                  
G30  24607676.993    24607675.605    24607680.703                    -2179916.126 8  -2179916.122 6                  -1698642.710 8       106.000          28.000         145.000                  
> 2024 10 31 10 46 40.0000000  0  9
G04  19606556.201    19606555.804    19606558.025                   -20654658.676 9 -20654658.663 9                 -16094541.534 8       597.000         521.000         412.000                  
G07  22162705.639    22162704.827    22162705.995                   -16656953.038 8 -16656953.038 8                 -12979447.586 8       277.000         184.000         382.000                  
G08  19264822.496    19264821.956    19264825.803                   -22157193.513 9 -22157193.517 9                 -17265348.473 9       761.000        1384.000        1991.000                  
G09  19478430.521    19478430.127    19478433.384                   -26580777.059 9 -26580777.062 9                 -20712296.644 9       737.000        1613.000        2640.000                  
G14  24578616.119    24578613.837    24578618.086                    -1393116.137 7  -1393116.155 6                  -1085556.012 6        72.000          22.000          21.000                  
G16  23763327.945    23763325.908    23763328.267                    -4509097.788 7  -4509097.806 6                  -3513590.893 6        96.000          20.000          23.000                  
G21  23253584.628    23253612.114    23253641.702                    -3604643.305 7  -3604643.294 6                  -2808817.582 6        86.000          23.000          21.000                  
G27  21049551.827    21049551.319    21049554.697                   -17747746.300 8 -17747746.303 8                 -13829412.062 9       327.000         301.000         869.000                  
G30  24654727.708    24654726.747    24654731.728                    -1932663.363 8  -1932663.375 6                  -1505978.542 8       102.000          32.000         140.000                  
> 2024 10 31 10 46 50.0000000  0  9
G04  19578874.027    19578873.819    19578875.851                   -20800129.619 9 -20800129.607 9                 -16207895.603 8       607.000         541.000         408.000                  
G07  22213304.707    22213303.731    22213304.898                   -16391054.454 8 -16391054.452 8                 -12772254.056 8       267.000         178.000         372.000                  
G08  19260183.118    19260182.581    19260186.482                   -22181573.838 9 -22181573.842 9                 -17284346.223 9       752.000        1349.000        1989.000                  
G09  19485872.995    19485872.536    19485875.709                   -26541667.795 9 -26541667.797 9                 -20681821.998 9       736.000        1592.000        2515.000                  
G14  24563028.502    24563024.100    24563030.667                    -1475041.329 7  -1475041.287 6                  -1149389.189 6        69.000          24.000          19.000                  
G16  23811363.059    23811361.085    23811364.001                    -4256671.812 7  -4256671.800 6                  -3316895.640 6        94.000          22.000          28.000                  
G21  23184287.879    23184315.414    23184331.873                    -3968794.145 7  -3968794.143 6                  -3092568.909 6        87.000          21.000          16.000                  
G27  21082628.553    21082627.828    21082631.301                   -17573928.163 8 -17573928.164 8                 -13693969.514 9       315.000         275.000         839.000                  
G30  24702045.782    24702044.571    24702049.467                    -1684009.412 8  -1684009.386 6                  -1312222.577 8       101.000          29.000         121.000                  
> 2024 10 31 10 47  0.0000000  0  9
G04  19551876.679    19551876.442    19551878.689                   -20942002.027 9 -20942002.014 9                 -16318445.623 8       619.000         567.000         435.000                  
G07  22264394.845    22264394.230    22264395.444                   -16122572.592 8 -16122572.594 8                 -12563047.595 8       271.000         168.000         407.000                  
G08  19256762.008    19256761.623    19256765.546                   -22199551.594 9 -22199551.596 9                 -17298354.966 9       746.000        1332.000        2042.000                  
G09  19494036.476    19494035.952    19494039.118                   -26498768.912 9 -26498768.914 9                 -20648394.409 9       731.000        1570.000        2491.000                  
G14  24547863.405    24547860.893    24547868.172                    -1554725.137 7  -1554725.110 6                  -1211480.867 6        76.000          26.000          18.000                  
G16  23859678.532    23859676.868    23859679.902                    -4002770.426 7  -4002770.419 6                  -3119050.766 6        92.000          21.000          23.000                  
G21  23115327.498    23115353.262    23115385.012                    -4331186.730 7  -4331186.742 6                  -3374955.197 6        87.000          23.000          20.000                  
G27  21116581.610    21116581.245    21116584.724                   -17395502.994 8 -17395502.993 8                 -13554937.085 9       305.000         260.000         881.000                  
G30  24749623.058    24749622.459    24749627.111                    -1433987.583 8  -1433987.575 6                  -1117400.762 8       101.000          29.000         118.000                  
> 2024 10 31 10 47 10.0000000  0  9
G04  19525566.474    19525566.294    19525568.458                   -21080263.338 9 -21080263.326 9                 -16426181.811 8       617.000         563.000         451.000                  
G07  22315966.705    22315966.297    22315967.301                   -15851561.895 8 -15851561.894 8                 -12351870.634 8       273.000         174.000         415.000                  
G08  19254557.658    19254556.987    19254560.931                   -22211137.435 9 -22211137.439 9                 -17307383.009 9       739.000        1315.000        2023.000                  
G09  19502916.968    19502916.664    19502919.917                   -26452100.733 9 -26452100.735 9                 -20612029.720 9       720.000        1533.000        2437.000                  
G14  24533129.491    24533126.027    24533132.175                    -1632158.313 7  -1632158.274 6                  -1271818.845 6        76.000          22.000          18.000                  
G16  23908265.692    23908262.708    23908265.688                    -3747453.948 7  -3747453.939 6                  -2920103.183 6        91.000          20.000          21.000                  
G21  23046709.818    23046734.397    23046749.745                    -4691776.403 7  -4691776.434 6                  -3655931.614 6        86.000          20.000          19.000                  
G27  21151399.491    21151398.951    21151402.585                   -17212534.779 8 -17212534.780 8                 -13412364.636 9       294.000         243.000         856.000                  
G30  24797454.449    24797453.429    24797458.431                    -1182637.302 8  -1182637.314 6                   -921543.828 8       103.000          29.000         109.000                  
> 2024 10 31 10 47 20.0000000  0 10
G03  24718918.040    24718917.486    24718940.837                     -514178.681 7   -514178.667 6                   -400662.629 6        67.000          21.000          15.000                  
G04  19499953.600    19499953.186    19499955.495                   -21214861.014 9 -21214861.003 9                 -16531063.229 8       612.000         552.000         468.000                  
G07  22368016.998    22368016.511    22368017.666                   -15578036.507 8 -15578036.505 8                 -12138734.193 8       269.000         168.000         430.000                  
G08  19253574.601    19253573.940    19253577.947                   -22216303.533 9 -22216303.536 9                 -17311408.664 9       738.000        1304.000        2009.000                  
G09  19512518.918    19512518.489    19512521.747                   -26401643.768 9 -26401643.771 9                 -20572712.743 9       725.000        1560.000        2512.000                  
G14  24518832.442    24518829.030    24518836.283                    -1707291.586 7  -1707291.598 6                  -1330364.785 6        74.000          21.000          20.000                  
G16  23957115.386    23957113.950    23957116.822                    -3490742.021 7  -3490742.018 6                  -2720068.314 6        86.000          23.000          23.000                  
G21  22978450.735    22978474.144    22978505.328                    -5050477.711 7  -5050477.694 6                  -3935441.587 6        90.000          22.000          16.000                  
G27  21187077.420    21187076.705    21187080.398                   -17025047.873 8 -17025047.872 8                 -13266271.145 9       282.000         213.000         818.000                  
G30  24845537.898    24845536.606    24845541.909                     -929957.628 7   -929957.641 6                   -724651.053 8        98.000          33.000         103.000                  
> 2024 10 31 10 47 30.0000000  0 10
G03  24656333.755    24656331.997    24656339.923                     -843065.302 7   -843065.271 6                   -656936.293 6        67.000          22.000          45.000                  
G04  19475035.942    19475035.775    19475037.963                   -21345803.965 9 -21345803.952 9                 -16633096.818 8       605.000         530.000         477.000                  
G07  22420531.902    22420531.097    22420532.322                   -15302071.334 8 -15302071.333 8                 -11923696.639 8       271.000         164.000         422.000                  
G08  19253806.293    19253805.900    19253809.997                   -22215085.011 9 -22215085.015 9                 -17310459.302 9       730.000        1283.000        1989.000                  
G09  19522833.685    19522833.168    19522836.510                   -26347440.121 9 -26347440.123 9                 -20530476.284 9       722.000        1558.000        2560.000                  
G14  24504970.890    24504967.993    24504972.549                    -1780136.859 7  -1780136.839 6                  -1387127.884 6        78.000          22.000          20.000                  
G16  24006217.112    24006213.743    24006218.584                    -3232714.970 7  -3232714.977 6                  -2519008.618 6        84.000          22.000          19.000                  
G21  22910556.308    22910577.832    22910593.168                    -5407266.002 7  -5407266.026 6                  -4213455.876 6        89.000          21.000          19.000                  
G27  21223598.456    21223597.824    21223601.601                   -16833128.359 8 -16833128.363 8                 -13116723.700 9       269.000         206.000         760.000                  
G30  24893862.096    24893861.808    24893867.764                     -676008.534 8   -676008.556 6                   -526769.158 8       101.000          24.000         101.000                  
> 2024 10 31 10 47 40.0000000  0 10
G03  24593790.323    24593789.540    24593796.982                    -1171730.770 7  -1171730.776 6                   -913039.494 6        72.000          24.000          44.000                  
G04  19450824.804    19450824.522    19450826.887                   -21473034.756 9 -21473034.745 9                 -16732237.824 8       598.000         527.000         477.000                  
G07  22473508.899    22473508.508    22473509.807                   -15023674.586 8 -15023674.587 8                 -11706764.375 8       265.000         159.000         411.000                  
G08  19255259.240    19255258.559    19255262.623                   -22207452.142 9 -22207452.147 9                 -17304511.765 9       737.000        1299.000        1933.000                  
G09  19533865.858    19533865.402    19533868.789                   -26289465.664 9 -26289465.666 9                 -20485301.548 9       720.000        1530.000        2498.000                  
G14  24491555.192    24491552.546    24491559.547                    -1850639.559 7  -1850639.561 6                  -1442066.548 6        79.000          25.000          18.000                  
G16  24055565.098    24055563.003    24055567.607                    -2973386.232 7  -2973386.220 6                  -2316934.952 6        82.000          20.000          21.000                  
G21  22843042.646    22843061.988    22843095.195                    -5762049.548 7  -5762049.563 6                  -4489913.036 6        96.000          18.000          18.000                  
G27  21260959.293    21260958.930    21260962.501                   -16636796.213 8 -16636796.216 8                 -12963737.859 9       259.000         187.000         702.000                  
G30  24942430.389    24942430.067    24942435.625                     -420783.135 7   -420783.095 6                   -327892.820 7        95.000          24.000          89.000                  
> 2024 10 31 10 47 50.0000000  0 10
G03  24531291.071    24531290.349    24531296.921                    -1500171.813 7  -1500171.808 6                  -1168967.797 7        74.000          28.000          57.000                  
G04  19427319.025    19427318.638    19427321.095                   -21596559.904 9 -21596559.891 9                 -16828491.333 8       590.000         513.000         500.000                  
G07  22526935.887    22526934.761    22526936.311                   -14742917.860 8 -14742917.858 8                 -11487993.190 8       255.000         160.000         410.000                  
G08  19257925.495    19257925.004    19257929.112                   -22193440.573 9 -22193440.577 9                 -17293593.821 9       747.000        1326.000        1966.000                  
G09  19545608.043    19545607.705    19545611.090                   -26227760.308 9 -26227760.310 9                 -20437219.631 9       721.000        1546.000        2537.000                  
G14  24478583.171    24478580.628    24478587.560                    -1918808.868 7  -1918808.884 6                  -1495186.204 6        83.000          21.000          22.000                  
G16  24105148.141    24105144.658    24105150.266                    -2712832.517 7  -2712832.509 6                  -2113906.544 6        80.000          23.000          19.000                  
G21  22775916.605    22775931.291    22775944.506                    -6114799.714 8  -6114799.714 6                  -4764780.755 6       102.000          21.000          19.000                  
G27  21299143.813    21299143.255    21299147.278                   -16436135.579 8 -16436135.580 8                 -12807379.196 9       252.000         170.000         689.000                  
G30  24991231.805    24991230.529    24991236.725                     -164337.934 7   -164337.933 6                   -128066.047 7        96.000          25.000          85.000                  
> 2024 10 31 10 48  0.0000000  0 10
G03  24468846.534    24468843.862    24468850.627                    -1828330.325 7  -1828330.326 6                  -1424675.931 7        75.000          29.000          56.000                  
G04  19404527.088    19404526.927    19404529.246                   -21716331.974 9 -21716331.962 9                 -16921820.382 9       582.000         511.000         502.000                  
G07  22580807.957    22580807.077    22580808.555                   -14459818.182 8 -14459818.184 8                 -11267396.370 8       247.000         148.000         413.000                  
G08  19261809.116    19261808.521    19261812.644                   -22173033.474 9 -22173033.478 9                 -17277692.365 9       749.000        1340.000        1940.000                  
G09  19558062.936    19558062.551    19558066.047                   -26162310.124 9 -26162310.127 9                 -20386219.684 9       707.000        1494.000        2556.000                  
G14  24466065.673    24466061.067    24466067.939                    -1984599.905 7  -1984599.889 6                  -1546452.594 6        82.000          23.000          21.000                  
G16  24154957.905    24154955.639    24154961.992                    -2451075.631 7  -2451075.678 6                  -1909940.860 6        84.000          19.000          20.000                  
G21  22709192.036    22709201.535    22709239.260                    -6465433.089 8  -6465433.114 6                  -5038003.994 6       110.000          23.000          18.000                  
G27  21338146.738    21338145.939    21338149.934                   -16231176.798 8 -16231176.800 8                 -12647671.356 9       238.000         154.000         655.000                  
G30  25040264.733    25040262.858    25040268.454                       93325.076 7     93325.093 6                     72709.579 7        92.000          28.000          83.000                  
> 2024 10 31 10 48 10.0000000  0 10
G03  24406455.297    24406455.367    24406463.035                    -2156183.775 7  -2156183.781 6                  -1680146.361 7        79.000          34.000          61.000                  
G04  19382451.536    19382451.338    19382453.838                   -21832339.986 9 -21832339.975 8                 -17012216.416 8       577.000         487.000         476.000                  
G07  22635115.614    22635114.998    22635116.784                   -14174428.602 8 -14174428.603 8                 -11045015.243 8       256.000         156.000         398.000                  
G08  19266905.571    19266904.978    19266909.197                   -22146251.919 9 -22146251.923 9                 -17256823.820 9       748.000        1350.000        1847.000                  
G09  19571226.173    19571225.796    19571229.357                   -26093137.687 9 -26093137.689 9                 -20332319.297 9       707.000        1464.000        2480.000                  
G14  24453999.057    24453996.722    24454003.884                    -2048003.934 7  -2048003.928 6                  -1595859.110 6        82.000          26.000          23.000                  
G16  24204989.062    24204983.618    24204988.718                    -2188173.105 7  -2188173.121 6                  -1705082.501 6        79.000          20.000          17.000                  
G21  22642882.589    22642885.038    22642886.733                    -6813902.037 8  -6813902.027 6                  -5309535.781 6       118.000          23.000          27.000                  
G27  21377954.309    21377953.516    21377957.794                   -16021986.791 8 -16021986.792 8                 -12484666.486 9       224.000         142.000         626.000                  
G30  25089520.944    25089519.173    25089525.830                      352167.983 7    352167.998 6                    274404.522 7        89.000          23.000          78.000                  
> 2024 10 31 10 48 20.0000000  0 10
G03  24344133.790    24344132.939    24344140.557                    -2483689.509 7  -2483689.524 6                  -1935345.783 7        78.000          26.000          60.000                  
G04  19361098.185    19361097.926    19361100.530                   -21944553.615 9 -21944553.604 8                 -17099655.800 8       574.000         481.000         480.000                  
G07  22689853.588    22689853.070    22689854.544                   -13886782.091 8 -13886782.090 8                 -10820875.502 8       272.000         168.000         388.000                  
G08  19273214.537    19273213.943    19273218.213                   -22113098.991 9 -22113098.995 9                 -17230990.582 9       743.000        1306.000        1839.000                  
G09  19585097.210    19585096.715    19585100.366                   -26020246.264 9 -26020246.268 9                 -20275521.016 9       693.000        1429.000        2447.000                  
G14  24442392.123    24442391.851    24442399.383                    -2108992.734 7  -2108992.717 6                  -1643383.557 6        85.000          20.000          20.000                  
G16  24255229.588    24255223.718    24255230.804                    -1924162.316 7  -1924162.303 6                  -1499353.480 6        78.000          19.000          18.000                  
G21  22576997.225    22576995.270    22576998.167                    -7160138.744 8  -7160138.743 6                  -5579330.935 6       119.000          30.000          31.000                  
G27  21418557.929    21418557.555    21418561.858                   -15808613.177 8 -15808613.179 8                 -12318401.695 9       219.000         137.000         627.000                  
G30  25138999.092    25138997.376    25139003.972                      612172.882 7    612172.882 6                    477004.806 7        86.000          30.000          69.000                  
> 2024 10 31 10 48 30.0000000  0 10
G03  24281881.722    24281883.713    24281891.091                    -2810813.325 7  -2810813.324 6                  -2190247.614 7        82.000          33.000          65.000                  
G04  19340470.838    19340470.603    19340473.160                   -22052952.070 9 -22052952.058 9                 -17184122.332 9       589.000         505.000         503.000                  
G07  22745012.847    22745011.932    22745013.775                   -13596920.855 8 -13596920.855 8                 -10595010.027 8       280.000         194.000         391.000                  
G08  19280733.197    19280732.663    19280736.956                   -22073588.727 9 -22073588.732 9                 -17200203.592 9       744.000        1323.000        1883.000                  
G09  19599673.389    19599672.926    19599676.703                   -25943648.691 9 -25943648.693 9                 -20215834.840 9       689.000        1418.000        2577.000                  
G14  24431252.084    24431249.645    24431255.505                    -2167547.398 7  -2167547.394 6                  -1689011.454 6        81.000          18.000          23.000                  
G16  24305671.140    24305666.372    24305673.678                    -1659089.332 7  -1659089.345 6                  -1292804.192 6        73.000          17.000          16.000                  
G21  22511545.532    22511543.543    22511548.123                    -7504084.131 8  -7504084.125 6                  -5847340.622 6       129.000          24.000          41.000                  
G27  21459947.969    21459946.926    21459951.158                   -15591113.135 8 -15591113.133 8                 -12148921.545 9       216.000         126.000         663.000                  
G30  25188692.573    25188691.442    25188697.973                      873312.903 7    873312.897 6                    680489.498 7        82.000          30.000          64.000                  
> 2024 10 31 10 48 40.0000000  0 11
G02  23289662.033    23289663.806    23289679.080                     -382264.276 8   -382264.279 6                   -297870.745 6       107.000          24.000          20.000                  
G03  24219710.659    24219711.279    24219717.988                    -3137534.647 7  -3137534.666 6                  -2444835.756 7        84.000          27.000          60.000                  
G04  19320570.643    19320570.424    19320573.213                   -22157529.050 9 -22157529.039 9                 -17265611.099 9       599.000         531.000         515.000                  
G07  22800582.132    22800581.830    22800583.893                   -13304900.768 8 -13304900.769 8                 -10367462.366 8       284.000         197.000         383.000                  
G08  19289456.095    19289455.514    19289459.831                   -22027750.976 9 -22027750.980 9                 -17164486.110 9       736.000        1298.000        1832.000                  
G09  19614949.625    19614949.227    19614953.080                   -25863372.287 9 -25863372.289 9                 -20153282.056 9       675.000        1358.000        2582.000                  
G14  24420573.628    24420571.384    24420580.032                    -2223663.299 7  -2223663.301 6                  -1732738.965 6        82.000          22.000          18.000                  
G16  24356303.151    24356299.185    24356305.822                    -1393014.017 7  -1393014.006 6                  -1085473.745 6        71.000          20.000          19.000                  
G21  22446540.211    22446537.669    22446542.054                    -7845692.791 8  -7845692.788 6                  -6113529.429 6       127.000          30.000          37.000                  
G27  21502108.032    21502107.506    21502112.058                   -15369558.276 8 -15369558.278 8                 -11976281.826 9       212.000         130.000         681.000                  
G30  25238595.810    25238593.540    25238601.020                     1135547.328 7   1135547.321 6                    884826.869 7        79.000          27.000          63.000                  
> 2024 10 31 10 48 50.0000000  0 11
G02  23216162.490    23216161.848    23216169.721                     -768508.110 8   -768508.126 6                   -598838.827 6       108.000          22.000          26.000                  
G03  24157626.134    24157627.179    24157633.986                    -3463790.251 7  -3463790.258 6                  -2699060.928 7        87.000          30.000          69.000                  
G04  19301406.943    19301406.630    19301409.377                   -22258236.547 9 -22258236.535 9                 -17344084.691 9       614.000         561.000         505.000                  
G07  22856561.041    22856560.208    22856562.283                   -13010735.355 8 -13010735.354 8                 -10138243.054 8       287.000         192.000         353.000                  
G08  19299384.774    19299384.415    19299388.776                   -21975575.240 9 -21975575.245 9                 -17123829.947 9       736.000        1293.000        1699.000                  
G09  19630928.758    19630928.332    19630932.268                   -25779402.645 9 -25779402.648 9                 -20087851.435 9       681.000        1356.000        2419.000                  
G14  24410369.055    24410366.667    24410374.951                    -2277293.910 7  -2277293.904 6                  -1774529.838 6        83.000          21.000          20.000                  
G16  24407126.677    24407120.478    24407126.743                    -1125953.440 7  -1125953.449 6                   -877375.709 6        70.000          21.000          19.000                  
G21  22381996.011    22381993.388    22381998.634                    -8184876.983 8  -8184876.951 6                  -6377829.047 6       136.000          28.000          32.000                  
G27  21545034.640    21545034.399    21545039.083                   -15143978.485 8 -15143978.482 8                 -11800505.818 9       211.000         114.000         673.000                  
G30  25288705.528    25288704.036    25288712.226                     1398877.795 7   1398877.782 6                   1090018.172 7        73.000          21.000          57.000                  
> 2024 10 31 10 49  0.0000000  0 11
G02  23142963.227    23142960.721    23142965.021                    -1153175.828 8  -1153175.840 6                   -898580.122 6       112.000          22.000          29.000                  
G03  24095631.017    24095631.117    24095637.706                    -3789579.270 7  -3789579.293 6                  -2952922.456 7        90.000          31.000          70.000                  
G04  19282976.604    19282976.156    19282979.099                   -22355089.905 9 -22355089.896 9                 -17419555.054 9       619.000         566.000         552.000                  
G07  22912932.857    22912932.150    22912934.364                   -12714500.794 8 -12714500.792 8                  -9907411.445 8       284.000         193.000         355.000                  
G08  19310509.535    19310509.067    19310513.549                   -21917115.671 9 -21917115.674 9                 -17078277.291 9       728.000        1266.000        1741.000                  
G09  19647601.432    19647600.993    19647604.837                   -25691788.741 9 -25691788.744 9                 -20019581.133 9       674.000        1342.000        2390.000                  
G14  24400633.193    24400631.081    24400638.620                    -2328455.825 7  -2328455.842 6                  -1814397.059 6        86.000          22.000          22.000                  
G16  24458119.139    24458113.446    24458120.933                     -857987.283 7   -857987.305 6                   -668570.078 6        64.000          20.000          16.000                  
G21  22317917.767    22317915.944    22317919.620                    -8521611.472 8  -8521611.455 6                  -6640219.736 6       140.000          29.000          36.000                  
G27  21588709.772    21588709.070    21588714.073                   -14914466.864 8 -14914466.864 8                 -11621666.061 9       205.000         115.000         693.000                  
G30  25339012.516    25339012.809    25339021.006                     1663243.247 7   1663243.264 6                   1296015.852 7        71.000          18.000          57.000                  
> 2024 10 31 10 49 10.0000000  0 11
G02  23070081.350    23070079.086    23070082.767                    -1536172.791 8  -1536172.783 6                  -1197019.265 6       120.000          23.000          37.000                  
G03  24033737.807    24033736.602    24033744.655                    -4114832.509 7  -4114832.485 6                  -3206366.402 7        91.000          32.000          75.000                  
G04  19265289.361    19265289.089    19265292.065                   -22448036.993 9 -22448036.984 9                 -17491981.561 9       612.000         566.000         549.000                  
G07  22969697.012    22969696.314    22969698.561                   -12416205.049 8 -12416205.050 8                  -9674973.733 8       281.000         175.000         329.000                  
G08  19322832.539    19322831.812    19322836.450                   -21852360.179 9 -21852360.182 9                 -17027818.720 9       725.000        1277.000        1705.000                  
G09  19664970.807    19664970.566    19664974.473                   -25600511.970 9 -25600511.972 9                 -19948456.644 9       661.000        1302.000        2204.000                  
G14  24391378.660    24391375.463    24391383.556                    -2377097.938 7  -2377097.929 6                  -1852300.744 6        89.000          25.000          23.000                  
G16  24509281.491    24509276.971    24509282.214                     -589126.812 7   -589126.792 6                   -459070.161 6        62.000          20.000          21.000                  
G21  22254322.781    22254320.806    22254325.632                    -8855802.818 8  -8855802.826 6                  -6900628.682 6       138.000          25.000          46.000                  
G27  21633127.483    21633127.504    21633132.631                   -14681048.860 8 -14681048.861 8                 -11439782.376 9       195.000         109.000         706.000                  
G30  25389521.995    25389517.976    25389527.041                     1928650.868 7   1928650.860 6                   1502825.520 6        66.000          20.000          49.000                  
> 2024 10 31 10 49 20.0000000  0 11
G02  22997523.544    22997521.304    22997524.300                    -1917468.434 8  -1917468.435 6                  -1494132.631 6       132.000          30.000          33.000                  
G03  23971947.070    23971946.150    23971953.407                    -4439545.013 7  -4439545.002 6                  -3459388.929 7        98.000          30.000          96.000                  
G04  19248343.100    19248342.720    19248345.724                   -22537090.917 9 -22537090.906 9                 -17561374.418 9       615.000         565.000         576.000                  
G07  23026839.252    23026838.891    23026841.434                   -12115920.678 8 -12115920.678 8                  -9440986.450 8       281.000         181.000         315.000                  
G08  19336342.743    19336342.283    19336346.941                   -21781363.194 9 -21781363.198 9                 -16972496.639 9       727.000        1262.000        1759.000                  
G09  19683028.739    19683028.312    19683032.362                   -25505618.873 9 -25505618.877 9                 -19874514.229 9       665.000        1312.000        2257.000                  
G14  24382600.316    24382597.018    24382603.147                    -2423234.201 7  -2423234.195 6                  -1888251.689 6        90.000          18.000          21.000                  
G16  24560600.572    24560595.466    24560601.907                     -319447.556 7   -319447.562 6                   -248934.826 6        63.000          21.000          21.000                  
G21  22191217.678    22191215.885    22191220.620                    -9187422.071 8  -9187422.050 6                  -7159033.364 6       142.000          29.000          50.000                  
G27  21678272.559    21678272.014    21678277.330                   -14443814.968 8 -14443814.971 8                 -11254925.263 9       199.000         111.000         743.000                  
G30  25440217.173    25440212.342    25440222.360                     2195043.338 7   2195043.340 6                   1710402.508 6        62.000          22.000          38.000                  
> 2024 10 31 10 49 30.0000000  0 11
G02  22925305.008    22925303.540    22925305.958                    -2296974.571 8  -2296974.565 6                  -1789851.546 6       143.000          30.000          35.000                  
G03  23910271.346    23910270.452    23910277.372                    -4763654.216 8  -4763654.210 6                  -3711941.266 8       101.000          34.000         101.000                  
G04  19232146.063    19232145.779    19232148.534                   -22622208.147 9 -22622208.138 9                 -17627699.704 9       615.000         554.000         584.000                  
G07  23084357.636    23084357.432    23084359.665                   -11813662.773 8 -11813662.772 8                  -9205461.349 8       272.000         178.000         290.000                  
G08  19351041.187    19351040.685    19351045.435                   -21704123.686 9 -21704123.690 9                 -16912310.239 9       719.000        1237.000        1678.000                  
G09  19701776.579    19701776.159    19701780.256                   -25407099.301 9 -25407099.303 9                 -19797745.971 9       658.000        1283.000        2172.000                  
G14  24374304.906    24374303.175    24374311.873                    -2466821.665 7  -2466821.629 6                  -1922216.473 6        87.000          26.000          19.000                  
G16  24612074.073    24612066.589    24612075.932                      -48967.458 7    -48967.459 6                    -38172.902 6        62.000          22.000          17.000                  
G21  22128618.928    22128616.599    22128621.459                    -9516383.010 8  -9516383.009 6                  -7415366.573 6       140.000          31.000          45.000                  
G27  21724136.954    21724136.018    21724141.463                   -14202798.868 8 -14202798.868 8                 -11067120.968 9       204.000         115.000         694.000                  
G30  25491096.787    25491093.216    25491103.841                     2462421.196 7   2462421.184 6                   1918747.601 6        59.000          21.000          47.000                  
> 2024 10 31 10 49 40.0000000  0 11
G02  22853438.293    22853437.227    22853439.979                    -2674634.284 8  -2674634.303 6                  -2084131.645 6       150.000          26.000          40.000                  
G03  23848714.530    23848714.900    23848721.997                    -5087128.981 8  -5087128.970 6                  -3963999.178 8       103.000          41.000         107.000                  
G04  19216700.192    19216699.803    19216702.714                   -22703377.567 9 -22703377.557 9                 -17690948.748 9       611.000         552.000         618.000                  
G07  23142242.713    23142242.271    23142244.726                   -11509478.249 8 -11509478.248 8                  -8968434.991 8       265.000         168.000         253.000                  
G08  19366921.432    19366920.795    19366925.555                   -21620674.226 9 -21620674.230 9                 -16847284.897 9       722.000        1242.000        1609.000                  
G09  19721210.266    19721209.800    19721213.959                   -25304975.402 9 -25304975.405 9                 -19718169.130 9       645.000        1231.000        2034.000                  
G14  24366497.169    24366496.297    24366504.172                    -2507849.655 7  -2507849.683 6                  -1954186.653 6        88.000          23.000          22.000                  
G16  24663686.479    24663680.003    24663690.086                      222263.774 7    222263.788 6                    173176.702 6        58.000          22.000          19.000                  
G21  22066535.631    22066533.054    22066538.233                    -9842630.984 8  -9842630.987 6                  -7669585.710 7       141.000          23.000          53.000                  
G27  21770708.232    21770707.700    21770713.075                   -13958066.299 8 -13958066.296 8                 -10876420.712 9       200.000         115.000         670.000                  
G30  25542158.830    25542155.106    25542166.124                     2730751.092 7   2730751.111 6                   2127834.235 6        59.000          19.000          36.000                  
> 2024 10 31 10 49 50.0000000  0 11
G02  22781932.911    22781930.819    22781934.118                    -3050400.035 8  -3050400.016 6                  -2376935.873 6       157.000          29.000          42.000                  
G03  23787284.557    23787283.820    23787291.162                    -5409947.463 8  -5409947.461 6                  -4215545.670 8       113.000          38.000         121.000                  
G04  19202005.535    19202005.149    19202008.269                   -22780598.335 9 -22780598.324 9                 -17751120.900 9       611.000         551.000         626.000                  
G07  23200482.765    23200482.828    23200485.243                   -11203423.533 8 -11203423.533 8                  -8729951.309 8       252.000         148.000         232.000                  
G08  19383974.722    19383974.146    19383978.952                   -21531058.807 9 -21531058.810 9                 -16777454.890 9       712.000        1202.000        1564.000                  
G09  19741323.598    19741323.267    19741327.383                   -25199279.498 9 -25199279.500 9                 -19635808.885 9       643.000        1208.000        1892.000                  
G14  24359177.973    24359175.919    24359185.323                    -2546317.517 7  -2546317.541 6                  -1984162.013 6        84.000          25.000          19.000                  
G16  24715434.082    24715426.382    24715439.393                      494187.449 7    494187.460 6                    385063.871 6        57.000          24.000          19.000                  
