     3.03           OBSERVATION DATA    M (MIXED)           RINEX VERSION / TYPE
BJPP                CNES                20241031 110226 UTC PGM / RUN BY / DATE 
MARKER                                                      MARKER NAME         
SPACECRAFT                                                  MARKER TYPE         
OBSERVER            CNES                                    OBSERVER / AGENCY   
RECNUM              BLACKJACK           RECVERS             REC # / TYPE / VERS 
ANTNUM              BLACKJACK                               ANT # / TYPE        
        0.0000        0.0000        0.0000                  ANTENNA: DELTA H/E/N
G   12 C1C C1W C2W C2X L1C L1W L2X L2W S1C S1W S2W S2X      SYS / # / OBS TYPES 
DBHZ                                                        SIGNAL STRENGTH UNIT
This rinex produced from the following file(s):             COMMENT             
/tmp/mesos_work/slaves/d197f515-9ebc-49f2-8adc-fe7a9d3e6458-COMMENT             
S5/frameworks/8c1b9f46-52ed-4aff-9edf-38d17bf6761e-2970/execCOMMENT             
utors/toil-62248/runs/06bf7176-74b4-4b18-b223-5a6f300836d0/cCOMMENT             
a2182e6ee3553bf9b59b054c5b8e478/da0c/9e85/tmpcvyx6y6n2n8vothCOMMENT             
p/stg7a861221-164c-42f8-ab34-1e7fe2af0a03/SWOT_KRX_20241031TCOMMENT             
102031_20241031T082719_20241031T095949_O_APID1280.PTM_0     COMMENT             
  2024    10    31     8    27    0.0000000                 TIME OF FIRST OBS   
G L1C                                                       SYS / PHASE SHIFT   
G L1W -0.25000                                              SYS / PHASE SHIFT   
G L2W                                                       SYS / PHASE SHIFT   
G L2X  0.25000                                              SYS / PHASE SHIFT   
                                                            END OF HEADER       
> 2024 10 31 08 27  0.0000000  0 11
G05  22484764.487    22484764.849    22484765.184                   -12166954.463 8 -12166954.462 8                  -9480742.940 8       301.000         214.000         456.000                  
G06  20305177.697    20305177.545    20305180.736                   -23608980.822 9 -23608980.824 9                 -18396607.111 9       681.000        1412.000        2567.000                  
G07  23817619.800    23817619.415    23817620.353                    -5720517.812 8  -5720517.812 7                  -4457548.556 8       201.000          94.000         133.000                  
G09  22612513.522    22612513.279    22612515.687                    -7068325.933 8  -7068325.932 8                  -5507788.811 9       253.000         190.000         520.000                  
G11  20637337.535    20637337.282    20637337.809                    -5784612.901 9  -5784612.900 8                  -4507492.664 9       635.000         494.000         576.000                  
G12  25030037.297    25030037.230    25030038.834                      325032.852 7    325032.853 6                    253272.315 6        83.000          26.000          47.000                  
G13  22674900.916    22674899.919    22674901.514                   -10640664.413 8 -10640664.433 6                  -8291332.458 7       149.000          25.000          51.000                  
G17  23249065.120    23249064.205    23249064.805                    -5532046.044 8  -5532046.050 8                  -4310679.643 8       218.000         104.000         219.000                  
G19  20907020.462    20907019.040    20907019.428                   -14017230.477 8 -14017230.479 8                 -10922513.996 8       456.000         211.000         259.000                  
G20  20779525.170    20779524.115    20779524.626                   -21102735.177 9 -21102735.179 8                 -16443688.117 8       610.000         309.000         253.000                  
G30  23428444.716    23428444.584    23428448.317                    -6396692.943 8  -6396692.937 7                  -4984430.495 8       203.000          99.000         186.000                  
> 2024 10 31 08 27 10.0000000  0 11
G05  22482450.843    22482450.391    22482450.839                   -12179116.216 8 -12179116.213 8                  -9490219.568 8       304.000         225.000         466.000                  
G06  20288574.605    20288574.485    20288577.940                   -23696229.202 9 -23696229.205 9                 -18464592.841 9       661.000        1345.000        2572.000                  
G07  23804769.979    23804769.387    23804770.687                    -5788044.721 8  -5788044.719 7                  -4510166.892 8       202.000          94.000         132.000                  
G09  22561985.274    22561984.583    22561986.872                    -7333856.282 8  -7333856.284 8                  -5714695.516 9       257.000         201.000         529.000                  
G11  20594703.434    20594703.149    20594703.854                    -6008655.897 9  -6008655.895 8                  -4682071.562 9       640.000         498.000         610.000                  
G12  25059535.404    25059534.136    25059535.393                      480039.294 7    480039.288 6                    374056.567 6        84.000          22.000          42.000                  
G13  22733184.082    22733184.276    22733185.024                   -10334381.491 8 -10334381.514 6                  -8052670.452 6       144.000          23.000          43.000                  
G17  23319133.610    23319133.071    23319133.628                    -5163831.906 8  -5163831.903 7                  -4023759.579 8       208.000          95.000         196.000                  
G19  20967968.691    20967967.013    20967967.335                   -13696946.063 8 -13696946.063 8                 -10672941.735 8       428.000         178.000         262.000                  
G20  20749948.001    20749946.562    20749946.976                   -21258165.580 9 -21258165.581 8                 -16564802.672 8       622.000         309.000         261.000                  
G30  23454449.488    23454448.975    23454452.707                    -6260039.072 8  -6260039.072 8                  -4877946.970 8       199.000         101.000         186.000                  
> 2024 10 31 08 27 20.0000000  0 11
G05  22480566.143    22480565.996    22480566.263                   -12189019.024 8 -12189019.024 8                  -9497935.993 8       306.000         220.000         468.000                  
G06  20272994.587    20272994.488    20272997.749                   -23778103.446 9 -23778103.448 9                 -18528390.924 9       675.000        1386.000        2510.000                  
G07  23792148.591    23792147.972    23792149.164                    -5854370.981 8  -5854370.986 7                  -4561849.659 8       200.000          99.000         132.000                  
G09  22511748.725    22511748.203    22511750.629                    -7597849.910 8  -7597849.915 8                  -5920404.783 9       263.000         204.000         535.000                  
G11  20552929.365    20552929.110    20552929.673                    -6228180.536 9  -6228180.534 9                  -4853129.678 9       645.000         508.000         616.000                  
G12  25089500.353    25089498.190    25089499.050                      637501.240 7    637501.220 6                    496754.142 6        82.000          26.000          41.000                  
G13  22791718.044    22791717.413    22791718.379                   -10026786.597 8 -10026786.625 6                  -7812986.151 6       136.000          26.000          47.000                  
G17  23389490.803    23389489.769    23389490.349                    -4794104.079 8  -4794104.077 7                  -3735660.005 8       197.000          91.000         173.000                  
G19  21029622.549    21029620.754    21029621.290                   -13372952.995 8 -13372952.998 8                 -10420479.611 8       410.000         165.000         259.000                  
G20  20721025.035    20721023.551    20721024.142                   -21410156.502 9 -21410156.503 8                 -16683237.106 8       631.000         325.000         267.000                  
G30  23480689.784    23480688.877    23480692.748                    -6122146.106 8  -6122146.098 7                  -4770497.920 8       195.000          90.000         183.000                  
> 2024 10 31 08 27 30.0000000  0 11
G05  22479116.252    22479116.165    22479116.431                   -12196637.976 8 -12196637.977 8                  -9503872.793 8       302.000         218.000         477.000                  
G06  20258443.316    20258443.157    20258446.398                   -23854571.141 9 -23854571.144 9                 -18587976.111 9       700.000        1489.000        2491.000                  
G07  23779759.741    23779759.059    23779759.958                    -5919474.327 8  -5919474.330 7                  -4612579.505 8       198.000          94.000         134.000                  
G09  22461812.865    22461812.550    22461815.023                    -7860262.808 8  -7860262.807 8                  -6124882.312 9       261.000         200.000         560.000                  
G11  20512028.498    20512028.408    20512028.959                    -6443115.072 9  -6443115.068 9                  -5020611.100 9       652.000         514.000         632.000                  
G12  25119928.643    25119927.245    25119928.324                      797408.516 7    797408.529 6                    621357.180 6        81.000          29.000          36.000                  
G13  22850497.926    22850496.423    22850497.870                    -9717898.888 8  -9717898.868 6                  -7572294.435 6       124.000          21.000          41.000                  
G17  23460126.312    23460125.410    23460126.316                    -4422912.249 8  -4422912.252 7                  -3446419.667 8       191.000          83.000         160.000                  
G19  21091970.647    21091969.009    21091969.374                   -13045311.689 8 -13045311.689 8                 -10165174.701 8       398.000         158.000         274.000                  
G20  20692766.022    20692764.885    20692765.153                   -21558657.838 9 -21558657.841 8                 -16798952.397 8       646.000         335.000         281.000                  
G30  23507164.785    23507164.268    23507168.271                    -5983017.054 8  -5983017.052 7                  -4662085.688 8       194.000          94.000         178.000                  
> 2024 10 31 08 27 40.0000000  0 11
G05  22478096.361    22478096.119    22478096.645                   -12201996.899 8 -12201996.896 8                  -9508048.520 8       301.000         215.000         477.000                  
G06  20244917.402    20244917.427    20244920.597                   -23925649.575 9 -23925649.577 9                 -18643361.872 9       721.000        1573.000        2450.000                  
G07  23767598.551    23767598.063    23767599.267                    -5983380.692 8  -5983380.695 7                  -4662376.637 8       202.000         100.000         136.000                  
G09  22412177.423    22412177.132    22412179.484                    -8121099.197 8  -8121099.201 8                  -6328131.396 9       260.000         201.000         580.000                  
G11  20472005.855    20472005.381    20472006.038                    -6653436.749 9  -6653436.746 9                  -5184498.091 9       652.000         510.000         642.000                  
G12  25150812.673    25150810.937    25150811.519                      959702.383 7    959702.393 6                    747819.887 6        78.000          31.000          31.000                  
G13  22909509.874    22909508.507    22909510.308                    -9407785.694 8  -9407785.710 6                  -7330647.789 6       124.000          22.000          41.000                  
G17  23531021.270    23531020.924    23531021.634                    -4050354.012 8  -4050354.011 7                  -3156114.601 8       182.000          74.000         144.000                  
G19  21154992.057    21154990.556    21154990.993                   -12714130.935 8 -12714130.935 8                  -9907111.784 8       381.000         142.000         284.000                  
G20  20665171.486    20665170.206    20665170.631                   -21703668.338 9 -21703668.339 8                 -16911947.562 8       647.000         338.000         292.000                  
G30  23533866.100    23533865.023    23533868.819                    -5842703.159 8  -5842703.163 7                  -4552750.194 8       189.000          91.000         174.000                  
> 2024 10 31 08 27 50.0000000  0 11
G05  22477515.294    22477514.580    22477514.972                   -12205053.580 8 -12205053.580 8                  -9510430.290 8       302.000         221.000         478.000                  
G06  20232426.192    20232426.148    20232429.288                   -23991291.392 9 -23991291.396 9                 -18694511.312 9       732.000        1637.000        2398.000                  
G07  23755673.028    23755672.590    23755673.611                    -6046050.014 8  -6046050.015 7                  -4711209.836 8       200.000          94.000         135.000                  
G09  22362853.783    22362853.314    22362855.692                    -8380297.085 8  -8380297.088 8                  -6530103.722 9       262.000         204.000         613.000                  
G11  20432877.437    20432877.165    20432877.626                    -6859057.459 9  -6859057.454 9                  -5344721.982 9       654.000         510.000         640.000                  
G12  25182151.806    25182150.240    25182151.687                     1124389.977 7   1124389.970 6                    876147.890 6        73.000          29.000          31.000                  
G13  22968755.130    22968754.435    22968755.958                    -9096448.002 8  -9096448.018 6                  -7088047.039 6       119.000          24.000          42.000                  
G17  23602170.961    23602170.648    23602171.386                    -3676460.311 8  -3676460.321 7                  -2864768.909 8       172.000          65.000         131.000                  
G19  21218678.918    21218677.545    21218677.811                   -12379453.429 8 -12379453.428 8                  -9646324.135 8       361.000         133.000         277.000                  
G20  20638253.824    20638252.556    20638253.173                   -21845121.019 9 -21845121.019 8                 -17022170.402 8       651.000         341.000         326.000                  
G30  23560795.111    23560794.276    23560797.959                    -5701189.558 8  -5701189.555 7                  -4442479.859 8       184.000          84.000         166.000                  
> 2024 10 31 08 28  0.0000000  0 11
G05  22477367.796    22477367.153    22477367.687                   -12205827.337 8 -12205827.340 8                  -9511033.162 8       298.000         215.000         472.000                  
G06  20220966.709    20220966.609    20220969.775                   -24051511.433 9 -24051511.436 9                 -18741435.986 9       740.000        1681.000        2333.000                  
G07  23743978.174    23743978.248    23743979.306                    -6107503.095 8  -6107503.093 7                  -4759095.317 8       200.000          91.000         137.000                  
G09  22313841.714    22313841.550    22313843.925                    -8637855.253 8  -8637855.254 8                  -6730798.342 9       266.000         205.000         625.000                  
G11  20394648.417    20394648.486    20394649.007                    -7059950.624 9  -7059950.621 9                  -5501262.067 9       652.000         519.000         651.000                  
G12  25213934.960    25213934.275    25213935.671                     1291417.162 7   1291417.146 6                   1006298.885 6        74.000          20.000          31.000                  
G13  23028222.529    23028222.335    23028222.620                    -8783947.414 8  -8783947.401 6                  -6844540.126 6       118.000          23.000          38.000                  
G17  23673557.683    23673557.164    23673557.846                    -3301322.494 8  -3301322.497 7                  -2572453.778 8       164.000          57.000         123.000                  
G19  21283011.995    21283010.389    21283010.673                   -12041382.663 8 -12041382.666 8                  -9382892.387 8       360.000         131.000         270.000                  
G20  20612014.322    20612013.119    20612013.791                   -21983010.138 9 -21983010.140 8                 -17129616.423 8       652.000         341.000         334.000                  
G30  23587943.172    23587942.757    23587946.731                    -5558522.126 8  -5558522.121 7                  -4331310.441 8       184.000          81.000         161.000                  
> 2024 10 31 08 28 10.0000000  0 11
G05  22477658.501    22477657.826    22477658.283                   -12204299.589 8 -12204299.584 8                  -9509842.657 8       292.000         202.000         462.000                  
G06  20210542.973    20210542.840    20210545.875                   -24106288.442 9 -24106288.444 9                 -18784119.339 9       729.000        1630.000        2216.000                  
G07  23732519.131    23732518.803    23732520.015                    -6167722.959 8  -6167722.961 7                  -4806019.853 8       197.000          97.000         138.000                  
G09  22265149.694    22265149.227    22265151.607                    -8893734.833 8  -8893734.838 8                  -6930184.978 9       268.000         209.000         626.000                  
G11  20357331.564    20357331.240    20357331.986                    -7256052.885 9  -7256052.882 9                  -5654068.976 9       656.000         524.000         672.000                  
G12  25246160.979    25246160.376    25246161.683                     1460767.184 7   1460767.179 6                   1138259.955 6        72.000          19.000          25.000                  
G13  23087906.128    23087905.960    23087906.315                    -8470307.780 8  -8470307.824 6                  -6600145.610 6       114.000          19.000          31.000                  
G17  23745170.953    23745170.173    23745170.984                    -2924993.878 8  -2924993.877 7                  -2279210.768 8       157.000          51.000         118.000                  
G19  21347978.001    21347976.433    21347976.548                   -11699984.431 8 -11699984.433 8                  -9116867.800 8       354.000         123.000         279.000                  
G20  20586461.252    20586459.876    20586460.435                   -22117292.931 9 -22117292.932 8                 -17234252.328 8       648.000         336.000         350.000                  
G30  23615310.727    23615309.441    23615313.220                    -5414709.064 8  -5414709.071 7                  -4219248.323 8       185.000          77.000         152.000                  
> 2024 10 31 08 28 20.0000000  0 11
G05  22478392.935    22478392.751    22478392.971                   -12200438.393 8 -12200438.396 8                  -9506833.917 8       291.000         202.000         450.000                  
G06  20201161.551    20201161.390    20201164.380                   -24155588.611 9 -24155588.615 9                 -18822535.024 9       745.000        1688.000        2225.000                  
G07  23721299.879    23721299.923    23721301.096                    -6226678.748 8  -6226678.751 8                  -4851959.385 8       198.000         102.000         140.000                  
G09  22216786.895    22216786.390    22216788.842                    -9147882.923 8  -9147882.925 8                  -7128222.403 9       262.000         205.000         623.000                  
G11  20320940.753    20320940.537    20320941.041                    -7447287.810 9  -7447287.807 9                  -5803083.173 9       666.000         542.000         673.000                  
G12  25278828.536    25278828.054    25278829.851                     1632436.654 7   1632436.674 6                   1272028.388 6        69.000          28.000          31.000                  
G13  23147804.260    23147803.484    23147804.746                    -8155538.761 8  -8155538.776 6                  -6354871.078 6       110.000          21.000          30.000                  
G17  23817002.580    23817002.531    23817003.413                    -2547513.240 8  -2547513.230 6                  -1985070.083 8       143.000          47.000         114.000                  
G19  21413567.207    21413565.621    21413565.855                   -11355310.297 8 -11355310.296 8                  -8848290.563 8       343.000         119.000         273.000                  
G20  20561605.233    20561603.706    20561604.223                   -22247913.122 9 -22247913.124 8                 -17336034.244 8       635.000         335.000         354.000                  
G30  23642896.655    23642895.637    23642899.118                    -5269744.558 8  -5269744.553 7                  -4106288.972 8       183.000          82.000         148.000                  
> 2024 10 31 08 28 30.0000000  0 11
G05  22479565.493    22479565.431    22479565.817                   -12194275.055 8 -12194275.055 8                  -9502031.290 8       290.000         193.000         428.000                  
G06  20192816.259    20192816.128    20192819.341                   -24199442.493 9 -24199442.495 9                 -18856706.851 9       726.000        1621.000        2308.000                  
G07  23710315.967    23710315.432    23710316.439                    -6284402.518 8  -6284402.519 7                  -4896938.901 8       204.000          99.000         145.000                  
G09  22168751.272    22168751.027    22168753.588                    -9400309.458 8  -9400309.458 8                  -7324918.358 9       256.000         198.000         615.000                  
G11  20285478.612    20285478.434    20285478.781                    -7633642.658 9  -7633642.654 9                  -5948294.721 9       684.000         558.000         678.000                  
G12  25311924.870    25311924.008    25311925.859                     1806359.316 7   1806359.339 6                   1407552.511 6        68.000          23.000          30.000                  
G13  23207903.460    23207903.293    23207905.007                    -7839712.679 8  -7839712.694 6                  -6108772.863 6       112.000          23.000          30.000                  
G17  23889034.924    23889034.517    23889035.483                    -2168981.846 8  -2168981.862 6                  -1690110.638 8       135.000          42.000         102.000                  
G19  21479758.099    21479756.533    21479756.760                   -11007474.769 8 -11007474.773 8                  -8577249.893 8       351.000         124.000         264.000                  
G20  20537444.280    20537443.147    20537443.657                   -22374877.887 9 -22374877.886 8                 -17434967.784 8       633.000         330.000         355.000                  
G30  23670690.629    23670689.691    23670693.236                    -5123685.635 8  -5123685.633 7                  -3992476.833 8       189.000          87.000         150.000                  
> 2024 10 31 08 28 40.0000000  0 11
G05  22481184.287    22481184.267    22481184.570                   -12185768.259 8 -12185768.257 8                  -9495402.572 8       282.000         191.000         422.000                  
G06  20185515.244    20185515.155    20185518.258                   -24237809.466 9 -24237809.468 9                 -18886603.161 9       721.000        1598.000        2339.000                  
G07  23699573.342    23699573.095    23699574.104                    -6340853.773 8  -6340853.773 7                  -4940926.860 8       209.000          96.000         136.000                  
G09  22121055.869    22121055.357    22121058.057                    -9650951.682 8  -9650951.684 8                  -7520223.943 9       258.000         201.000         651.000                  
G11  20250960.943    20250961.016    20250961.387                    -7815032.901 9  -7815032.898 9                  -6089637.749 9       697.000         591.000         698.000                  
G12  25345451.234    25345450.190    25345451.581                     1982541.164 7   1982541.146 6                   1544837.089 6        63.000          22.000          26.000                  
G13  23268205.658    23268205.354    23268205.715                    -7522829.001 8  -7522828.990 6                  -5861850.538 6       109.000          21.000          24.000                  
G17  23961262.702    23961261.334    23961262.305                    -1789427.791 8  -1789427.788 6                  -1394354.308 7       127.000          40.000          93.000                  
G19  21546542.396    21546541.144    21546541.356                   -10656519.495 8 -10656519.493 8                  -8303778.256 8       365.000         138.000         261.000                  
G20  20513991.566    20513990.345    20513990.865                   -22498122.373 9 -22498122.371 8                 -17531002.406 8       630.000         322.000         359.000                  
G30  23698696.191    23698695.288    23698698.101                    -4976516.582 8  -4976516.578 7                  -3877799.669 8       190.000          90.000         152.000                  
> 2024 10 31 08 28 50.0000000  0 11
G05  22483244.759    22483244.389    22483244.775                   -12174941.539 8 -12174941.536 8                  -9486966.121 8       278.000         182.000         411.000                  
G06  20179253.451    20179253.418    20179256.592                   -24270714.828 9 -24270714.831 9                 -18912243.673 9       720.000        1594.000        2359.000                  
G07  23689068.515    23689068.352    23689069.315                    -6396056.262 8  -6396056.256 7                  -4983941.749 8       210.000          97.000         141.000                  
G09  22073699.415    22073698.952    22073701.551                    -9899811.230 8  -9899811.232 8                  -7714140.433 9       267.000         207.000         687.000                  
G11  20217392.172    20217391.997    20217392.478                    -7991439.434 9  -7991439.430 9                  -6227097.358 9       707.000         602.000         720.000                  
G12  25379397.073    25379394.859    25379396.328                     2160923.342 7   2160923.355 6                   1683836.210 6        64.000          23.000          23.000                  
G13  23328696.265    23328695.439    23328696.262                    -7204951.492 8  -7204951.499 6                  -5614153.817 6       113.000          20.000          29.000                  
G17  24033666.330    24033665.094    24033666.088                    -1408943.002 8  -1408942.998 6                  -1097872.720 7       117.000          35.000          81.000                  
G19  21613900.817    21613899.158    21613899.499                   -10302550.440 8 -10302550.444 8                  -8027958.211 8       365.000         132.000         249.000                  
G20  20491246.822    20491245.704    20491246.065                   -22617646.678 9 -22617646.680 8                 -17624138.186 8       626.000         313.000         363.000                  
G30  23726903.116    23726902.353    23726906.078                    -4828286.041 8  -4828286.043 7                  -3762295.385 8       190.000          84.000         155.000                  
> 2024 10 31 08 29  0.0000000  0 11
G05  22485752.928    22485752.190    22485752.626                   -12161762.215 8 -12161762.217 8                  -9476696.444 8       273.000         185.000         400.000                  
G06  20174036.840    20174036.727    20174039.868                   -24298128.560 9 -24298128.562 9                 -18933604.989 9       730.000        1606.000        2329.000                  
G07  23678807.616    23678807.348    23678808.643                    -6449977.099 8  -6449977.099 8                  -5025957.964 8       214.000         113.000         129.000                  
G09  22026692.959    22026692.312    22026694.921                   -10146832.911 8 -10146832.910 8                  -7906624.815 9       267.000         212.000         720.000                  
G11  20184785.830    20184785.492    20184785.953                    -8162787.297 9  -8162787.293 9                  -6360615.139 9       720.000         627.000         744.000                  
G12  25413759.195    25413759.529    25413761.594                     2341503.453 7   2341503.489 6                   1824547.976 6        65.000          21.000          27.000                  
G13  23389373.843    23389372.873    23389373.007                    -6886086.844 8  -6886086.841 6                  -5365687.830 6       110.000          19.000          24.000                  
G17  24106240.584    24106239.245    24106240.480                    -1027562.244 8  -1027562.237 6                   -800692.976 7       108.000          33.000          80.000                  
G19  21681822.990    21681821.793    21681821.781                    -9945616.526 8  -9945616.527 8                  -7749827.904 8       352.000         118.000         245.000                  
G20  20469220.690    20469219.331    20469219.876                   -22733394.643 9 -22733394.644 8                 -17714331.368 8       628.000         318.000         375.000                  
G30  23755314.108    23755313.768    23755317.118                    -4678985.798 8  -4678985.795 7                  -3645957.565 8       187.000          80.000         153.000                  
> 2024 10 31 08 29 10.0000000  0 11
G05  22488708.464    22488708.290    22488708.505                   -12146228.675 8 -12146228.675 8                  -9464592.310 8       270.000         180.000         384.000                  
G06  20169864.524    20169864.523    20169867.660                   -24320053.579 9 -24320053.582 9                 -18950689.385 9       737.000        1657.000        2326.000                  
G07  23668791.664    23668791.056    23668791.932                    -6502614.760 8  -6502614.756 8                  -5066974.293 8       218.000         107.000         131.000                  
G09  21980040.228    21980039.850    21980042.484                   -10391992.949 8 -10391992.952 8                  -8097658.567 9       262.000         205.000         733.000                  
G11  20153149.978    20153149.816    20153150.249                    -8329034.018 9  -8329034.014 9                  -6490158.005 9       731.000         647.000         758.000                  
G12  25448534.294    25448533.905    25448535.348                     2524247.378 7   2524247.358 6                   1966945.841 6        65.000          21.000          27.000                  
G13  23450233.817    23450231.154    23450232.117                    -6566273.012 8  -6566273.006 6                  -5116482.288 6       101.000          22.000          24.000                  
G17  24178971.378    24178971.439    24178972.653                     -645351.211 7   -645351.206 6                   -502866.280 7        95.000          32.000          61.000                  
G19  21750294.561    21750292.671    21750293.058                    -9585797.846 8  -9585797.850 8                  -7469449.723 8       339.000         116.000         227.000                  
G20  20447917.638    20447916.592    20447917.045                   -22845342.159 9 -22845342.160 8                 -17801563.158 8       631.000         325.000         391.000                  
G30  23783925.140    23783923.760    23783927.188                    -4528638.964 8  -4528638.969 7                  -3528804.221 8       186.000          92.000         157.000                  
> 2024 10 31 08 29 20.0000000  0 11
G05  22492110.485    22492110.249    22492110.542                   -12128350.584 8 -12128350.584 8                  -9450661.233 8       267.000         174.000         370.000                  
G06  20166734.023    20166733.990    20166737.067                   -24336504.880 9 -24336504.882 9                 -18963508.544 9       748.000        1715.000        2303.000                  
G07  23659017.333    23659016.729    23659017.673                    -6553978.387 8  -6553978.387 8                  -5106997.872 8       220.000         114.000         135.000                  
G09  21933744.774    21933744.049    21933746.693                   -10635278.186 8 -10635278.187 8                  -8287231.428 9       262.000         195.000         726.000                  
G11  20122490.990    20122490.743    20122491.088                    -8490148.716 9  -8490148.712 9                  -6615701.877 9       745.000         666.000         771.000                  
G12  25483714.852    25483711.523    25483713.797                     2709110.120 7   2709110.103 6                   2110994.742 6        64.000          27.000          28.000                  
G13  23511263.366    23511261.168    23511263.029                    -6245558.367 7  -6245558.374 6                  -4866574.819 6       100.000          25.000          24.000                  
G17  24251849.503    24251846.341    24251848.968                     -262385.637 7   -262385.655 6                   -204451.628 7        88.000          29.000          60.000                  
G19  21819297.459    21819295.741    21819295.830                    -9223184.978 8  -9223184.976 8                  -7186894.258 8       334.000         109.000         220.000                  
G20  20427340.342    20427339.235    20427339.784                   -22953476.339 9 -22953476.338 8                 -17885823.511 8       632.000         316.000         399.000                  
G30  23812726.877    23812726.430    23812729.918                    -4377279.260 8  -4377279.263 7                  -3410861.645 8       181.000          83.000         156.000                  
> 2024 10 31 08 29 30.0000000  0 11
G05  22495964.760    22495965.002    22495964.980                   -12108093.893 8 -12108093.896 8                  -9434876.736 8       267.000         177.000         372.000                  
G06  20164650.370    20164650.258    20164653.325                   -24347454.651 9 -24347454.654 9                 -18972040.790 9       748.000        1694.000        2298.000                  
G07  23649492.113    23649491.780    23649492.318                    -6604032.685 8  -6604032.684 8                  -5146001.181 8       228.000         116.000         129.000                  
G09  21887816.643    21887816.054    21887818.737                   -10876631.075 8 -10876631.076 8                  -8475298.563 9       266.000         212.000         729.000                  
G11  20092822.499    20092822.266    20092822.550                    -8646057.366 9  -8646057.361 9                  -6737189.096 9       753.000         675.000         767.000                  
G12  25519297.301    25519293.324    25519294.932                     2896090.991 7   2896090.988 6                   2256694.147 6        68.000          27.000          21.000                  
G13  23572463.876    23572462.359    23572463.954                    -5923946.639 7  -5923946.634 6                  -4615968.338 6        95.000          20.000          24.000                  
G17  24324862.414    24324860.858    24324862.266                      121303.675 7    121303.683 6                     94526.978 7        84.000          23.000          59.000                  
G19  21888823.111    21888821.594    21888821.743                    -8857823.804 8  -8857823.805 8                  -6902197.261 8       328.000         108.000         210.000                  
G20  20407499.730    20407498.491    20407498.944                   -23057740.686 9 -23057740.686 8                 -17967068.413 8       648.000         339.000         409.000                  
G30  23841725.025    23841724.154    23841727.603                    -4224895.888 8  -4224895.880 7                  -3292121.382 8       186.000          87.000         154.000                  
> 2024 10 31 08 29 40.0000000  0 11
G05  22500266.962    22500266.711    22500266.788                   -12085487.440 8 -12085487.436 8                  -9417261.260 8       273.000         177.000         374.000                  
G06  20163606.715    20163606.578    20163609.627                   -24352939.513 9 -24352939.516 9                 -18976314.654 9       760.000        1757.000        2326.000                  
G07  23640211.871    23640210.432    23640211.378                    -6652805.577 8  -6652805.579 8                  -5184006.013 8       232.000         119.000         129.000                  
G09  21842255.299    21842254.821    21842257.326                   -11116057.035 8 -11116057.038 8                  -8661864.188 9       281.000         221.000         733.000                  
G11  20064146.648    20064146.405    20064146.677                    -8796749.933 9  -8796749.927 9                  -6854611.839 9       757.000         678.000         781.000                  
G12  25555266.215    25555265.301    25555266.592                     3085125.893 7   3085125.895 6                   2403994.077 6        69.000          25.000          24.000                  
G13  23633822.445    23633821.315    23633822.523                    -5601504.434 7  -5601504.413 6                  -4364714.724 6        88.000          20.000          25.000                  
G17  24397994.307    24397994.826    24397996.809                      505623.298 7    505623.281 6                    393996.746 7        78.000          23.000          52.000                  
G19  21958851.344    21958849.985    21958850.094                    -8489822.887 8  -8489822.886 7                  -6615443.326 8       316.000          96.000         195.000                  
G20  20388393.719    20388392.589    20388393.045                   -23158142.282 9 -23158142.283 8                 -18045303.377 8       651.000         345.000         418.000                  
G30  23870907.536    23870906.400    23870910.198                    -4071541.006 8  -4071541.008 7                  -3172624.089 8       181.000          79.000         160.000                  
> 2024 10 31 08 29 50.0000000  0 11
G05  22505023.456    22505023.182    22505023.167                   -12060492.920 8 -12060492.919 8                  -9397784.956 8       278.000         178.000         366.000                  
G06  20163608.419    20163608.255    20163611.300                   -24352930.092 9 -24352930.095 9                 -18976307.258 9       749.000        1718.000        2235.000                  
G07  23631181.363    23631181.081    23631181.662                    -6700257.307 8  -6700257.306 8                  -5220981.326 8       232.000         122.000         127.000                  
G09  21797072.652    21797072.041    21797074.461                   -11353494.047 8 -11353494.049 8                  -8846879.994 9       277.000         228.000         732.000                  
G11  20036477.865    20036477.582    20036478.029                    -8942150.083 9  -8942150.077 9                  -6967910.626 9       756.000         675.000         796.000                  
G12  25591631.277    25591628.611    25591630.550                     3276217.856 7   3276217.823 6                   2552896.996 6        72.000          21.000          22.000                  
G13  23695339.217    23695338.365    23695338.935                    -5278230.600 7  -5278230.614 6                  -4112813.076 6        82.000          21.000          23.000                  
G17  24471244.917    24471243.780    24471244.918                      890547.929 7    890547.915 6                    693937.962 6        68.000          21.000          46.000                  
G19  22029374.362    22029372.687    22029372.997                    -8119223.065 8  -8119223.058 7                  -6326664.273 8       301.000          96.000         195.000                  
G20  20370034.611    20370033.327    20370033.574                   -23254621.343 9 -23254621.343 8                 -18120481.812 8       658.000         346.000         431.000                  
G30  23900277.923    23900276.868    23900280.593                    -3917199.221 8  -3917199.221 7                  -3052357.775 8       178.000          79.000         146.000                  
> 2024 10 31 08 30  0.0000000  0 11
G05  22510229.038    22510229.168    22510229.108                   -12033134.605 8 -12033134.602 8                  -9376466.711 8       277.000         188.000         369.000                  
G06  20164649.156    20164649.063    20164652.028                   -24347460.560 9 -24347460.562 9                 -18972045.214 9       741.000        1673.000        2137.000                  
G07  23622398.862    23622398.337    23622398.682                    -6746410.192 8  -6746410.195 8                  -5256944.510 8       237.000         128.000         134.000                  
G09  21752267.712    21752267.604    21752270.151                   -11588942.112 8 -11588942.116 8                  -9030345.962 9       280.000         241.000         730.000                  
G11  20009818.563    20009818.364    20009818.874                    -9082244.710 9  -9082244.705 9                  -7077075.245 9       761.000         696.000         820.000                  
G12  25628373.406    25628373.300    25628374.914                     3469307.542 7   3469307.547 6                   2703356.495 6        74.000          21.000          28.000                  
G13  23757003.555    23757001.698    23757003.114                    -4954185.825 7  -4954185.810 6                  -3860310.679 6        78.000          20.000          22.000                  
G17  24544591.214    24544590.783    24544592.415                     1275990.650 7   1275990.646 6                    994282.864 6        62.000          23.000          37.000                  
G19  22100372.211    22100370.469    22100370.855                    -7746126.804 8  -7746126.810 7                  -6035939.943 8       296.000          85.000         188.000                  
G20  20352420.894    20352419.719    20352420.023                   -23347180.840 9 -23347180.841 8                 -18192606.044 8       655.000         337.000         435.000                  
G30  23929826.722    23929825.895    23929829.539                    -3761917.080 8  -3761917.075 7                  -2931358.729 8       178.000          80.000         141.000                  
> 2024 10 31 08 30 10.0000000  0 11
G05  22515889.371    22515888.669    22515888.698                   -12003392.865 8 -12003392.865 8                  -9353291.259 8       277.000         183.000         375.000                  
G06  20166730.529    20166730.299    20166733.346                   -24336522.901 9 -24336522.904 9                 -18963522.314 9       726.000        1599.000        2188.000                  
G07  23613867.475    23613866.691    23613867.152                    -6791243.126 8  -6791243.127 8                  -5291879.228 8       238.000         131.000         143.000                  
G09  21707850.252    21707850.144    21707852.634                   -11822357.557 8 -11822357.559 8                  -9212228.081 9       280.000         242.000         759.000                  
G11  19984179.730    19984179.473    19984179.891                    -9216978.173 9  -9216978.166 9                  -7182062.346 9       770.000         702.000         827.000                  
G12  25665495.312    25665493.574    25665495.592                     3664379.356 7   3664379.351 6                   2855360.607 6        74.000          20.000          31.000                  
G13  23818809.395    23818808.098    23818811.285                    -4629386.776 7  -4629386.754 6                  -3607220.575 6        66.000          23.000          23.000                  
G17  24618028.736    24618028.505    24618029.491                     1661908.776 7   1661908.762 6                   1294998.169 6        59.000          19.000          31.000                  
G19  22171834.330    22171832.725    22171832.673                    -7370592.490 8  -7370592.500 7                  -5743315.830 8       299.000          93.000         183.000                  
G20  20335560.842    20335559.685    20335560.031                   -23435780.724 9 -23435780.725 8                 -18261644.868 8       654.000         344.000         448.000                  
G30  23959554.321    23959553.706    23959557.281                    -3605697.270 8  -3605697.270 7                  -2809629.022 8       174.000          75.000         138.000                  
> 2024 10 31 08 30 20.0000000  0 11
G05  22522005.897    22522005.711    22522005.387                   -11971248.331 8 -11971248.332 8                  -9328243.501 8       277.000         181.000         368.000                  
G06  20169853.637    20169853.482    20169856.504                   -24320110.277 9 -24320110.280 9                 -18950733.219 9       711.000        1542.000        2161.000                  
G07  23605590.631    23605590.183    23605591.114                    -6834734.286 8  -6834734.290 8                  -5325768.372 8       240.000         127.000         129.000                  
G09  21663828.632    21663827.814    21663830.192                   -12053696.381 8 -12053696.385 8                  -9392492.054 9       291.000         249.000         771.000                  
G11  19959571.309    19959571.196    19959571.498                    -9346295.805 9  -9346295.797 9                  -7282829.321 9       777.000         722.000         833.000                  
G12  25702990.852    25702988.211    25702990.721                     3861417.757 7   3861417.768 6                   3008897.133 6        72.000          21.000          29.000                  
G13  23880757.452    23880755.484    23880759.800                    -4303849.684 7  -4303849.678 6                  -3353555.319 6        63.000          20.000          20.000                  
G17  24691551.614    24691549.652    24691549.896                     2048260.604 7   2048260.624 6                   1596051.503 6        57.000          21.000          33.000                  
G19  22243749.265    22243747.358    22243747.422                    -6992677.964 8  -6992677.971 7                  -5448836.995 8       299.000          81.000         174.000                  
G20  20319461.700    20319460.767    20319461.121                   -23520381.340 9 -23520381.342 8                 -18327567.392 8       650.000         341.000         440.000                  
G30  23989459.943    23989459.516    23989463.171                    -3448542.202 8  -3448542.201 7                  -2687170.558 8       172.000          71.000         131.000                  
> 2024 10 31 08 30 30.0000000  0 11
G05  22528574.127    22528573.858    22528573.920                   -11936730.681 8 -11936730.679 8                  -9301346.564 8       277.000         180.000         372.000                  
G06  20174010.365    20174010.305    20174013.313                   -24298265.992 9 -24298265.993 9                 -18933711.687 9       706.000        1529.000        2223.000                  
G07  23597565.326    23597564.393    23597565.327                    -6876910.995 8  -6876910.992 8                  -5358633.301 8       237.000         126.000         142.000                  
G09  21620200.401    21620199.801    21620202.163                   -12282963.387 8 -12282963.392 8                  -9571141.646 9       307.000         276.000         829.000                  
G11  19935994.498    19935994.348    19935994.701                    -9470192.969 9  -9470192.962 9                  -7379372.590 9       787.000         735.000         873.000                  
G12  25740847.189    25740845.862    25740846.748                     4060357.867 7   4060357.839 6                   3163915.473 6        69.000          26.000          26.000                  
G13  23942834.196    23942831.539    23942833.392                    -3977639.191 7  -3977639.195 6                  -3099365.301 6        59.000          21.000          17.000                  
G17  24765135.422    24765135.672    24765136.377                     2434956.090 7   2434956.094 6                   1897372.564 6        52.000          20.000          30.000                  
G19  22316096.495    22316095.131    22316095.075                    -6612489.261 8  -6612489.258 7                  -5152586.067 8       281.000          78.000         165.000                  
G20  20304121.917    20304120.722    20304121.279                   -23600992.538 9 -23600992.540 8                 -18390381.301 8       650.000         336.000         448.000                  
G30  24019533.357    24019533.111    24019536.737                    -3290502.725 8  -3290502.733 7                  -2564022.921 8       164.000          69.000         128.000                  
> 2024 10 31 08 30 40.0000000  0 11
G05  22535600.949    22535600.603    22535600.692                   -11899805.308 8 -11899805.310 8                  -9272573.504 8       273.000         181.000         387.000                  
G06  20179204.699    20179204.627    20179207.576                   -24270969.625 9 -24270969.629 9                 -18912441.768 9       708.000        1515.000        2183.000                  
G07  23589796.172    23589796.093    23589796.519                    -6917735.134 8  -6917735.133 8                  -5390444.283 8       237.000         127.000         139.000                  
G09  21576978.123    21576977.447    21576979.851                   -12510098.187 8 -12510098.188 8                  -9748129.772 9       316.000         299.000         864.000                  
G11  19913462.301    19913461.994    19913462.406                    -9588601.045 9  -9588601.038 9                  -7471638.636 9       779.000         733.000         889.000                  
G12  25779065.311    25779064.583    25779066.422                     4261200.213 7   4261200.251 6                   3320416.034 6        70.000          25.000          32.000                  
G13  24005037.649    24005035.150    24005038.096                    -3650754.684 7  -3650754.656 6                  -2844650.131 6        51.000          22.000          22.000                  
G17  24838782.732    24838781.615    24838782.651                     2821970.905 7   2821970.906 6                   2198942.446 6        53.000          21.000          28.000                  
G19  22388868.908    22388867.716    22388867.348                    -6230067.067 8  -6230067.066 7                  -4854594.768 8       264.000          71.000         150.000                  
G20  20289551.705    20289550.533    20289550.963                   -23677559.654 9 -23677559.657 8                 -18450043.984 8       648.000         336.000         445.000                  
G30  24049778.407    24049777.985    24049781.890                    -3131564.665 8  -3131564.662 7                  -2440175.096 8       157.000          62.000         124.000                  
> 2024 10 31 08 30 50.0000000  0 10
G05  22543083.245    22543083.145    22543083.365                   -11860483.241 8 -11860483.247 8                  -9241932.870 8       266.000         173.000         394.000                  
G06  20185431.405    20185431.277    20185434.225                   -24238248.293 9 -24238248.296 9                 -18886944.604 9       708.000        1515.000        2174.000                  
G07  23582283.897    23582283.195    23582283.733                    -6957214.866 8  -6957214.868 8                  -5421207.641 8       233.000         124.000         138.000                  
G09  21534164.009    21534163.592    21534165.907                   -12735086.448 8 -12735086.451 8                  -9923445.245 9       326.000         320.000         903.000                  
G11  19891978.494    19891978.303    19891978.718                    -9701498.828 9  -9701498.819 9                  -7559610.909 9       773.000         715.000         925.000                  
G12  25817637.299    25817635.959    25817638.973                     4463898.514 7   4463898.528 6                   3478362.725 6        66.000          19.000          25.000                  
G17  24912478.159    24912475.380    24912477.157                     3209235.313 7   3209235.309 6                   2500706.798 6        55.000          21.000          27.000                  
G19  22462049.953    22462048.380    22462048.564                    -5845497.566 8  -5845497.572 7                  -4554930.261 8       254.000          65.000         124.000                  
G20  20275752.660    20275751.379    20275751.753                   -23750074.940 9 -23750074.943 8                 -18506549.399 8       644.000         339.000         437.000                  
G30  24080188.655    24080188.229    24080191.619                    -2971759.578 8  -2971759.573 7                  -2315651.667 8       153.000          62.000         128.000                  
> 2024 10 31 08 31  0.0000000  0 11
G04  24557061.080    24557066.417    24557081.342                     -256885.996 7   -256885.969 6                   -200173.743 6        83.000          23.000          19.000                  
G05  22551018.970    22551018.524    22551018.579                   -11818783.191 8 -11818783.190 8                  -9209439.272 8       266.000         168.000         398.000                  
G06  20192683.503    20192683.408    20192686.335                   -24200137.953 9 -24200137.956 9                 -18857248.154 9       733.000        1627.000        2175.000                  
G07  23575023.558    23575023.100    23575023.835                    -6995365.737 8  -6995365.738 8                  -5450935.492 8       232.000         124.000         133.000                  
G09  21491760.125    21491759.440    21491761.861                   -12957921.442 8 -12957921.441 8                 -10097082.856 9       330.000         332.000         947.000                  
G11  19871545.630    19871545.396    19871545.904                    -9808874.011 9  -9808874.003 9                  -7643279.846 9       760.000         695.000         950.000                  
G12  25856553.107    25856551.503    25856554.513                     4668399.600 7   4668399.593 6                   3637714.238 6        65.000          22.000          28.000                  
G17  24986203.472    24986202.191    24986204.298                     3596672.589 6   3596672.576 6                   2802605.930 6        50.000          21.000          35.000                  
G19  22535622.210    22535620.652    22535620.809                    -5458873.937 8  -5458873.940 7                  -4253665.131 8       249.000          69.000         108.000                  
G20  20262724.370    20262723.108    20262723.563                   -23818538.651 9 -23818538.653 8                 -18559897.744 8       650.000         340.000         443.000                  
G30  24110755.280    24110755.533    24110759.500                    -2811126.516 8  -2811126.509 7                  -2190483.092 8       149.000          54.000         120.000                  
> 2024 10 31 08 31 10.0000000  0 10
G04  24499761.292    24499763.373    24499766.014                     -557998.249 7   -557998.291 6                   -434807.482 6        86.000          19.000          21.000                  
G05  22559415.993    22559415.453    22559415.385                   -11774656.796 8 -11774656.796 8                  -9175055.024 8       258.000         163.000         403.000                  
G06  20200966.836    20200966.808    20200969.675                   -24156608.301 9 -24156608.303 9                 -18823328.916 9       735.000        1637.000        2139.000                  
G07  23568026.517    23568025.917    23568026.656                    -7032135.409 8  -7032135.408 8                  -5479587.065 8       234.000         130.000         140.000                  
G09  21449779.900    21449779.249    21449781.815                   -13178528.552 8 -13178528.557 8                 -10268984.471 9       334.000         332.000        1017.000                  
G11  19852178.599    19852178.427    19852178.910                    -9910647.777 9  -9910647.768 9                  -7722584.053 9       760.000         689.000         951.000                  
G12  25895815.041    25895813.287    25895815.080                     4874718.133 7   4874718.125 6                   3798482.018 6        63.000          23.000          29.000                  
G19  22609580.753    22609579.154    22609578.839                    -5070220.935 8  -5070220.934 7                  -3950818.648 7       248.000          62.000          90.000                  
G20  20250479.813    20250478.631    20250479.035                   -23882883.994 9 -23882883.994 8                 -18610036.952 8       657.000         348.000         439.000                  
G30  24141485.910    24141485.574    24141489.945                    -2649636.267 8  -2649636.271 7                  -2064646.501 8       145.000          54.000         117.000                  
> 2024 10 31 08 31 20.0000000  0 10
G04  24442545.922    24442544.323    24442545.338                     -858679.046 7   -858679.061 6                   -669104.145 6        89.000          22.000          25.000                  
G05  22568265.817    22568265.354    22568265.315                   -11728150.241 8 -11728150.237 8                  -9138816.101 8       254.000         157.000         396.000                  
G06  20210269.163    20210269.064    20210271.934                   -24107724.767 9 -24107724.769 9                 -18785237.794 9       741.000        1665.000        2153.000                  
G07  23561284.742    23561283.717    23561284.191                    -7067566.213 8  -7067566.213 8                  -5507195.394 8       236.000         133.000         147.000                  
G09  21408219.905    21408219.386    21408221.781                   -13396927.793 8 -13396927.794 8                 -10439165.662 9       343.000         353.000        1115.000                  
G11  19833874.505    19833874.260    19833874.603                   -10006837.243 9 -10006837.233 9                  -7797536.850 9       767.000         693.000         934.000                  
G12  25935404.729    25935405.434    25935406.066                     5082773.387 7   5082773.366 6                   3960603.065 6        58.000          25.000          22.000                  
