     3.03           OBSERVATION DATA    M (MIXED)           RINEX VERSION / TYPE
BJPP                CNES                20241031 085227 UTC PGM / RUN BY / DATE 
MARKER                                                      MARKER NAME         
SPACECRAFT                                                  MARKER TYPE         
OBSERVER            CNES                                    OBSERVER / AGENCY   
RECNUM              BLACKJACK           RECVERS             REC # / TYPE / VERS 
ANTNUM              BLACKJACK                               ANT # / TYPE        
        0.0000        0.0000        0.0000                  ANTENNA: DELTA H/E/N
G   12 C1C C1W C2W C2X L1C L1W L2X L2W S1C S1W S2W S2X      SYS / # / OBS TYPES 
DBHZ                                                        SIGNAL STRENGTH UNIT
This rinex produced from the following file(s):             COMMENT             
/tmp/mesos_work/slaves/d197f515-9ebc-49f2-8adc-fe7a9d3e6458-COMMENT             
S14/frameworks/8c1b9f46-52ed-4aff-9edf-38d17bf6761e-2876/exeCOMMENT             
cutors/toil-42857/runs/f129d425-401b-43e5-9861-03bfe4ef7214/COMMENT             
b05e97a940c357f3aec4b3b6c613f5f7/9570/d9b8/tmpebn9_3pppzmtnuCOMMENT             
2k/stgcc2155b7-0deb-452a-a8be-bab5395e3235/SWOT_KUX_20241031COMMENT             
T081145_20241031T051329_20241031T071000_O_APID1280.PTM_0    COMMENT             
  2024    10    31     5    13   10.0000000                 TIME OF FIRST OBS   
G L1C                                                       SYS / PHASE SHIFT   
G L1W -0.25000                                              SYS / PHASE SHIFT   
G L2W                                                       SYS / PHASE SHIFT   
G L2X  0.25000                                              SYS / PHASE SHIFT   
                                                            END OF HEADER       
> 2024 10 31 05 13 10.0000000  0 11
G02  21543645.949    21543644.943    21543642.996                   -16181483.666 9 -16181483.668 8                 -12608945.273 8       609.000         293.000         131.000                  
G03  19696463.095    19696463.024    19696465.483                   -24611261.644 9 -24611261.645 9                 -19177603.202 9       758.000        1468.000        1284.000                  
G04  24014670.868    24014668.834    24014669.680                    -1102675.289 7  -1102675.281 6                   -859221.123 6        88.000          21.000          21.000                  
G12  23636897.458    23636896.910    23636897.451                    -5950828.854 8  -5950828.853 7                  -4637009.857 7       153.000          62.000          80.000                  
G17  22009939.899    22009939.401    22009938.886                   -16012998.469 8 -16012998.471 8                 -12477658.596 8       350.000         262.000         305.000                  
G19  22048488.161    22048486.512    22048485.586                   -12731567.410 8 -12731567.406 7                  -9920702.909 7       276.000          74.000          67.000                  
G21  23026413.097    23026411.666    23026412.123                   -12998540.066 8 -12998540.072 6                 -10128729.050 7       230.000          49.000          64.000                  
G25  24095009.822    24094988.884    24095016.887                     -655656.912 7   -655656.915 6                   -510905.598 6        81.000          22.000          30.000                  
G28  21896544.153    21896544.066    21896544.427                   -15953858.235 8 -15953858.232 8                 -12431577.084 8       373.000         173.000         129.000                  
G31  23141913.052    23141912.228    23141912.683                    -7888568.505 8  -7888568.503 7                  -6146934.936 8       205.000          99.000         127.000                  
G32  22742475.484    22742475.286    22742477.665                   -12450444.957 8 -12450444.960 8                  -9701644.748 8       318.000         256.000         255.000                  
> 2024 10 31 05 13 20.0000000  0 12
G02  21596529.679    21596528.442    21596526.614                   -15903578.764 9 -15903578.765 8                 -12392396.035 8       595.000         276.000         104.000                  
G03  19722063.823    19722063.757    19722066.292                   -24476728.703 9 -24476728.703 9                 -19072772.344 9       754.000        1442.000        1195.000                  
G04  24077650.736    24077650.030    24077649.364                     -771708.279 7   -771708.287 6                   -601324.727 6        90.000          24.000          15.000                  
G06  24863982.900    24863974.558    24863991.009                     -164731.926 7   -164731.952 6                   -128367.326 6        61.000          24.000          28.000                  
G12  23569441.878    23569441.696    23569441.595                    -6305310.910 8  -6305310.914 7                  -4913229.646 7       162.000          69.000          80.000                  
G17  22034094.991    22034094.721    22034094.091                   -15886061.304 8 -15886061.307 8                 -12378746.541 8       347.000         262.000         292.000                  
G19  22031474.754    22031473.254    22031472.168                   -12820972.096 8 -12820972.091 7                  -9990368.939 7       276.000          68.000          65.000                  
G21  23082143.281    23082142.085    23082142.477                   -12705675.624 8 -12705675.605 6                  -9900523.024 7       228.000          50.000          61.000                  
G25  24021003.272    24020987.767    24021006.851                    -1044561.378 7  -1044561.404 6                   -813946.434 6        81.000          19.000          37.000                  
G28  21870219.151    21870218.733    21870219.264                   -16092198.835 8 -16092198.831 8                 -12539374.953 8       379.000         187.000         121.000                  
G31  23148385.434    23148385.390    23148385.098                    -7854554.372 8  -7854554.375 7                  -6120430.506 8       203.000          94.000         115.000                  
G32  22693577.883    22693577.876    22693580.463                   -12707401.943 8 -12707401.947 8                  -9901870.982 8       324.000         268.000         241.000                  
> 2024 10 31 05 13 30.0000000  0 12
G02  21650107.312    21650106.292    21650104.255                   -15622025.495 9 -15622025.497 8                 -12173003.911 8       560.000         243.000         104.000                  
G03  19748453.626    19748453.467    19748455.977                   -24338049.898 9 -24338049.899 9                 -18964710.955 9       737.000        1380.000        1142.000                  
G04  24140748.055    24140748.386    24140747.713                     -440128.236 7   -440128.231 6                   -342951.173 6        83.000          24.000          13.000                  
G06  24839798.112    24839793.606    24839801.045                     -291828.403 7   -291828.419 6                   -227400.907 6        64.000          24.000          47.000                  
G12  23502343.449    23502343.040    23502342.857                    -6657916.267 8  -6657916.264 7                  -5187987.084 7       168.000          71.000          91.000                  
G17  22059133.379    22059132.771    22059132.486                   -15754485.089 8 -15754485.092 8                 -12276219.646 8       339.000         250.000         291.000                  
G19  22015310.865    22015309.074    22015308.412                   -12905914.552 8 -12905914.552 7                 -10056557.892 7       269.000          72.000          71.000                  
G21  23138338.153    23138337.066    23138338.148                   -12410366.276 8 -12410366.265 7                  -9670411.909 7       217.000          53.000          60.000                  
G25  23947085.599    23947076.224    23947087.722                    -1433006.327 7  -1433006.368 6                  -1116630.765 6        81.000          23.000          37.000                  
G28  21844334.312    21844333.844    21844334.523                   -16228223.933 8 -16228223.932 8                 -12645368.538 8       373.000         174.000         118.000                  
G31  23155124.112    23155124.283    23155124.084                    -7819141.958 8  -7819141.964 7                  -6092836.487 8       201.000          88.000         117.000                  
G32  22644991.893    22644991.507    22644994.155                   -12962725.858 8 -12962725.854 8                 -10100824.693 8       319.000         253.000         243.000                  
> 2024 10 31 05 13 40.0000000  0 12
G02  21704373.587    21704372.479    21704370.410                   -15336855.015 9 -15336855.017 8                 -11950793.186 8       531.000         224.000         104.000                  
G03  19775633.382    19775633.387    19775635.785                   -24195218.753 9 -24195218.754 9                 -18853413.970 9       718.000        1315.000        1092.000                  
G04  24203961.200    24203961.693    24203962.512                     -107933.154 7   -107933.133 6                    -84099.397 6        84.000          25.000          22.000                  
G06  24815999.832    24815998.816    24816004.129                     -416881.426 7   -416881.432 6                   -324844.869 6        64.000          19.000          48.000                  
G12  23435618.492    23435618.710    23435618.933                    -7008555.480 8  -7008555.479 7                  -5461212.488 7       178.000          75.000          98.000                  
G17  22085054.187    22085054.153    22085053.989                   -15618267.496 8 -15618267.495 8                 -12170076.092 8       325.000         225.000         313.000                  
G19  22000006.706    22000004.518    22000004.432                   -12986338.878 8 -12986338.880 7                 -10119226.251 7       270.000          71.000          77.000                  
G21  23194994.840    23194993.312    23194994.029                   -12112637.275 8 -12112637.284 6                  -9438415.342 7       208.000          37.000          58.000                  
G25  23873269.340    23873266.375    23873272.331                    -1820907.538 7  -1820907.535 6                  -1418891.392 6        81.000          23.000          40.000                  
G28  21818901.072    21818900.796    21818901.463                   -16361875.312 8 -16361875.312 8                 -12749512.467 8       371.000         175.000         118.000                  
G31  23162135.632    23162135.482    23162135.501                    -7782297.175 8  -7782297.176 7                  -6064126.302 8       199.000          89.000         119.000                  
G32  22596727.834    22596727.460    22596730.001                   -13216353.970 8 -13216353.972 8                 -10298457.002 8       314.000         253.000         247.000                  
> 2024 10 31 05 13 50.0000000  0 12
G02  21759309.061    21759308.079    21759306.615                   -15048166.305 9 -15048166.304 8                 -11725840.976 8       521.000         214.000         102.000                  
G03  19803591.691    19803591.648    19803594.042                   -24048297.150 9 -24048297.152 9                 -18738929.609 9       719.000        1301.000        1039.000                  
G04  24267281.220    24267280.230    24267281.382                      224811.564 7    224811.562 6                    175177.131 6        79.000          23.000          17.000                  
G06  24792593.499    24792589.602    24792595.069                     -539895.560 7   -539895.578 6                   -420700.083 6        69.000          25.000          46.000                  
G12  23369273.244    23369272.573    23369272.561                    -7357206.470 8  -7357206.474 7                  -5732888.580 8       182.000          83.000         105.000                  
G17  22111846.669    22111845.927    22111846.166                   -15477474.662 8 -15477474.664 8                 -12060367.404 8       310.000         209.000         322.000                  
G19  21985559.658    21985558.465    21985557.295                   -13062257.768 8 -13062257.773 7                 -10178383.862 7       274.000          78.000          80.000                  
G21  23252093.248    23252092.104    23252092.525                   -11812581.303 8 -11812581.275 6                  -9204605.603 6       200.000          47.000          48.000                  
G25  23799560.959    23799559.232    23799564.541                    -2208247.959 7  -2208247.942 6                  -1720715.070 6        83.000          27.000          41.000                  
G28  21793918.265    21793917.570    21793918.297                   -16493162.535 8 -16493162.533 8                 -12851814.203 8       373.000         187.000         117.000                  
G31  23169413.347    23169412.917    23169413.345                    -7744053.553 8  -7744053.556 7                  -6034326.094 8       202.000          77.000         115.000                  
G32  22548785.838    22548785.492    22548788.137                   -13468291.084 8 -13468291.085 8                 -10494771.653 8       320.000         259.000         253.000                  
> 2024 10 31 05 14  0.0000000  0 12
G02  21814905.976    21814904.811    21814902.794                   -14756003.584 8 -14756003.584 8                 -11498181.732 7       494.000         198.000          97.000                  
G03  19832326.813    19832326.866    19832329.315                   -23897292.781 9 -23897292.783 9                 -18621263.881 9       701.000        1256.000         994.000                  
G04  24330701.902    24330702.327    24330707.656                      558095.666 7    558095.665 6                    434884.191 6        79.000          21.000          16.000                  
G06  24769580.950    24769578.969    24769583.829                     -660820.595 7   -660820.586 6                   -514927.412 6        70.000          25.000          43.000                  
G12  23303320.220    23303319.606    23303319.391                    -7703792.039 8  -7703792.037 7                  -6002955.229 7       188.000          84.000         100.000                  
G17  22139506.823    22139506.492    22139506.269                   -15332119.124 8 -15332119.127 8                 -11947103.394 8       305.000         193.000         330.000                  
G19  21971978.105    21971976.481    21971975.504                   -13133630.281 8 -13133630.283 7                 -10233998.867 7       270.000          69.000          79.000                  
G21  23309627.969    23309626.678    23309627.689                   -11510235.711 8 -11510235.715 6                  -8969011.680 6       195.000          42.000          46.000                  
G25  23725973.963    23725971.744    23725975.888                    -2594955.033 7  -2594955.009 6                  -2022045.217 6        87.000          25.000          46.000                  
G28  21769393.739    21769393.451    21769393.617                   -16622040.397 8 -16622040.394 8                 -12952238.527 8       374.000         176.000         108.000                  
G31  23176960.456    23176960.478    23176960.889                    -7704389.833 8  -7704389.827 7                  -6003419.322 8       194.000          80.000         109.000                  
G32  22501175.222    22501174.868    22501177.378                   -13718487.014 8 -13718487.013 8                 -10689729.540 8       326.000         266.000         260.000                  
> 2024 10 31 05 14 10.0000000  0 12
G02  21871149.943    21871149.048    21871148.064                   -14460437.338 8 -14460437.339 8                 -11267870.419 8       467.000         169.000         106.000                  
G03  19861832.523    19861832.436    19861834.855                   -23742240.171 9 -23742240.173 9                 -18500443.715 9       691.000        1208.000        1007.000                  
G04  24394221.279    24394219.876    24394223.901                      891883.074 7    891883.057 6                    695005.452 6        76.000          23.000          16.000                  
G06  24746972.666    24746970.552    24746975.136                     -779632.837 7   -779632.847 6                   -607508.478 6        73.000          31.000          42.000                  
G12  23237769.822    23237769.064    23237769.377                    -8048261.081 8  -8048261.082 7                  -6271372.677 8       188.000          88.000         111.000                  
G17  22168028.040    22168027.414    22168027.430                   -15182240.268 8 -15182240.270 8                 -11830314.697 8       292.000         186.000         346.000                  
G19  21959264.516    21959262.655    21959261.891                   -13200442.450 8 -13200442.452 7                 -10286060.340 7       275.000          72.000          89.000                  
G21  23367585.461    23367584.635    23367585.176                   -11205664.274 8 -11205664.266 6                  -8731683.376 6       193.000          44.000          44.000                  
G25  23652514.552    23652513.492    23652517.801                    -2980981.889 7  -2980981.909 6                  -2322845.332 6        91.000          29.000          37.000                  
G28  21745330.872    21745330.575    21745331.029                   -16748489.976 8 -16748489.974 8                 -13050770.680 8       379.000         187.000         109.000                  
G31  23184778.170    23184777.637    23184777.773                    -7663310.924 8  -7663310.926 7                  -5971409.805 8       185.000          71.000         116.000                  
G32  22453900.349    22453899.950    22453902.755                   -13966917.586 8 -13966917.589 8                 -10883311.817 8       322.000         262.000         274.000                  
> 2024 10 31 05 14 20.0000000  0 12
G02  21928026.928    21928025.777    21928024.718                   -14161547.602 8 -14161547.604 8                 -11034969.361 7       436.000         160.000          99.000                  
G03  19892099.926    19892099.850    19892102.338                   -23583183.957 9 -23583183.958 9                 -18376503.816 9       674.000        1160.000         955.000                  
G04  24457824.816    24457824.969    24457826.714                     1226128.373 7   1226128.376 6                    955486.910 6        72.000          26.000          19.000                  
G06  24724768.793    24724765.960    24724771.021                     -896318.069 7   -896318.057 6                   -698432.076 6        74.000          30.000          36.000                  
G12  23172630.019    23172629.728    23172629.465                    -8390571.825 8  -8390571.834 7                  -6538108.313 8       185.000          84.000         109.000                  
G17  22197400.399    22197399.632    22197399.660                   -15027888.143 8 -15027888.145 8                 -11710040.350 8       275.000         167.000         338.000                  
G19  21947418.829    21947417.142    21947415.996                   -13262691.197 8 -13262691.192 7                 -10334565.930 7       273.000          73.000          89.000                  
G21  23425953.798    23425951.665    23425953.532                   -10898939.921 8 -10898939.935 6                  -8492677.426 6       188.000          39.000          45.000                  
G25  23579193.054    23579192.213    23579195.830                    -3366290.779 7  -3366290.780 6                  -2623086.013 6        98.000          29.000          43.000                  
G28  21721732.100    21721732.050    21721732.073                   -16872502.157 8 -16872502.155 8                 -13147403.569 8       372.000         175.000         103.000                  
G31  23192861.247    23192861.157    23192861.346                    -7620831.294 8  -7620831.295 7                  -5938308.812 8       176.000          66.000         111.000                  
G32  22406964.267    22406964.002    22406966.692                   -14213568.242 8 -14213568.243 8                 -11075507.146 8       313.000         244.000         272.000                  
> 2024 10 31 05 14 30.0000000  0 12
G02  21985529.701    21985528.274    21985527.505                   -13859370.550 8 -13859370.551 8                 -10799506.758 7       409.000         143.000          96.000                  
G03  19923128.720    19923128.865    19923131.294                   -23420125.634 9 -23420125.635 9                 -18249445.404 9       679.000        1173.000         907.000                  
G04  24521514.938    24521516.889    24521513.798                     1560830.333 7   1560830.332 6                   1216345.555 6        73.000          20.000          16.000                  
G06  24702979.248    24702977.660    24702981.190                    -1010818.812 7  -1010818.814 6                   -787653.523 6        74.000          27.000          37.000                  
G12  23107917.848    23107916.733    23107917.080                    -8730638.306 8  -8730638.308 7                  -6803095.173 8       187.000          87.000         112.000                  
G17  22227622.900    22227621.673    22227621.860                   -14869069.778 8 -14869069.781 8                 -11586285.831 8       269.000         158.000         330.000                  
G19  21936450.449    21936448.857    21936448.073                   -13320330.470 8 -13320330.468 7                 -10379479.693 7       280.000          75.000          81.000                  
G21  23484726.020    23484723.870    23484725.389                   -10590091.744 8 -10590091.760 6                  -8252016.694 6       188.000          36.000          41.000                  
G25  23506023.884    23506023.013    23506026.106                    -3750799.434 8  -3750799.442 6                  -2922703.112 6       104.000          32.000          44.000                  
G28  21698607.372    21698607.100    21698607.334                   -16994023.956 8 -16994023.952 8                 -13242095.898 8       375.000         181.000         107.000                  
G31  23201216.950    23201216.669    23201217.262                    -7576921.549 8  -7576921.547 7                  -5904093.455 7       169.000          63.000          99.000                  
G32  22360378.374    22360377.787    22360380.464                   -14458380.325 8 -14458380.326 8                 -11266269.824 8       311.000         245.000         270.000                  
> 2024 10 31 05 14 40.0000000  0 12
G02  22043640.764    22043639.516    22043638.297                   -13553994.859 8 -13553994.863 8                 -10561551.733 7       369.000         111.000         100.000                  
G03  19954909.122    19954909.071    19954911.458                   -23253119.708 9 -23253119.708 9                 -18119310.933 9       682.000        1187.000         932.000                  
G04  24585287.142    24585284.874    24585280.215                     1895935.568 7   1895935.549 6                   1477521.043 6        64.000          20.000          18.000                  
G06  24681607.857    24681605.798    24681610.301                    -1123129.967 7  -1123129.958 6                   -875168.821 6        76.000          24.000          34.000                  
G12  23043638.402    23043637.832    23043638.190                    -9068426.913 8  -9068426.911 7                  -7066307.092 8       189.000          90.000         121.000                  
G17  22258683.006    22258682.360    22258682.545                   -14705845.614 8 -14705845.615 8                 -11459098.220 8       267.000         150.000         336.000                  
G19  21926357.862    21926356.524    21926355.140                   -13373367.714 8 -13373367.709 7                 -10420807.486 7       281.000          78.000          91.000                  
G21  23543886.280    23543885.037    23543885.914                   -10279200.427 8 -10279200.431 6                  -8009763.783 6       190.000          39.000          44.000                  
G25  23433011.636    23433011.177    23433015.048                    -4134477.598 8  -4134477.603 6                  -3221673.082 7       115.000          31.000          53.000                  
G28  21675956.374    21675956.229    21675956.844                   -17113055.063 8 -17113055.060 8                 -13334847.415 8       384.000         190.000         110.000                  
G31  23209840.642    23209840.499    23209840.642                    -7531604.750 8  -7531604.742 7                  -5868781.696 8       165.000          64.000         105.000                  
G32  22314142.631    22314142.708    22314145.364                   -14701347.593 8 -14701347.595 8                 -11455594.981 8       319.000         256.000         281.000                  
> 2024 10 31 05 14 50.0000000  0 12
G02  22102349.971    22102348.654    22102347.566                   -13245475.953 8 -13245475.952 7                 -10321147.455 7       337.000          99.000          94.000                  
G03  19987436.341    19987436.310    19987438.631                   -23082188.188 9 -23082188.189 9                 -17986117.570 9       676.000        1158.000         954.000                  
G04  24649128.283    24649126.022    24649124.028                     2231424.102 7   2231424.105 6                   1738981.525 6        65.000          20.000          16.000                  
G06  24660656.593    24660656.930    24660661.087                    -1233213.720 7  -1233213.715 6                   -960948.421 6        76.000          26.000          28.000                  
G12  22979805.496    22979804.800    22979805.008                    -9403870.808 8  -9403870.810 7                  -7327691.976 8       192.000          87.000         127.000                  
G17  22290576.590    22290575.880    22290576.058                   -14538243.654 8 -14538243.655 8                 -11328499.390 8       256.000         141.000         335.000                  
G19  21917145.851    21917144.076    21917142.823                   -13421778.305 8 -13421778.301 7                 -10458530.073 7       288.000          79.000          88.000                  
G21  23603426.641    23603425.998    23603426.481                    -9966313.970 8  -9966313.980 6                  -7765956.224 6       187.000          34.000          37.000                  
G25  23360171.470    23360169.765    23360173.856                    -4517261.391 8  -4517261.397 6                  -3519946.144 7       117.000          42.000          70.000                  
G28  21653786.008    21653785.857    21653786.207                   -17229562.252 8 -17229562.250 8                 -13425632.260 8       392.000         192.000         111.000                  
G31  23218734.325    23218733.497    23218734.219                    -7484870.892 8  -7484870.895 7                  -5832365.752 8       162.000          59.000         103.000                  
G32  22268266.511    22268266.100    22268268.805                   -14942430.582 8 -14942430.583 8                 -11643451.861 8       327.000         264.000         284.000                  
> 2024 10 31 05 15  0.0000000  0 12
G02  22161644.917    22161644.003    22161642.856                   -12933877.922 8 -12933877.928 7                 -10078343.857 7       327.000          95.000          94.000                  
G03  20020704.649    20020704.532    20020706.961                   -22907362.225 9 -22907362.226 9                 -17849889.557 9       660.000        1115.000         970.000                  
G04  24713035.914    24713035.805    24713035.614                     2567267.565 7   2567267.559 6                   2000714.850 6        64.000          20.000          14.000                  
G06  24640138.494    24640138.618    24640141.814                    -1341040.901 7  -1341040.907 6                  -1044969.609 6        76.000          25.000          30.000                  
G12  22916429.607    22916429.563    22916429.449                    -9736911.521 8  -9736911.528 7                  -7587204.263 8       196.000          92.000         140.000                  
G17  22323296.518    22323295.379    22323295.550                   -14366301.639 8 -14366301.641 8                 -11194518.697 8       248.000         138.000         341.000                  
G19  21908817.052    21908815.079    21908814.060                   -13465547.558 8 -13465547.559 7                 -10492636.008 7       289.000          87.000          92.000                  
G21  23663336.367    23663334.994    23663336.558                    -9651488.609 8  -9651488.592 6                  -7520637.867 6       189.000          42.000          37.000                  
G25  23287508.939    23287510.019    23287512.962                    -4899095.052 8  -4899095.047 6                  -3817478.845 7       117.000          38.000          76.000                  
G28  21632100.375    21632100.139    21632100.537                   -17343521.080 8 -17343521.080 8                 -13514431.354 8       395.000         202.000         122.000                  
G31  23227896.387    23227896.196    23227897.344                    -7436718.675 8  -7436718.664 7                  -5794844.571 8       159.000          56.000         118.000                  
G32  22222754.217    22222753.830    22222756.509                   -15181598.459 8 -15181598.463 8                 -11829816.444 8       331.000         282.000         303.000                  
> 2024 10 31 05 15 10.0000000  0 12
G02  22221511.733    22221510.441    22221509.193                   -12619277.250 8 -12619277.246 7                  -9833200.532 7       305.000          78.000          97.000                  
G03  20054705.406    20054705.481    20054707.903                   -22728686.173 9 -22728686.175 9                 -17710661.487 9       639.000        1043.000         937.000                  
G04  24777004.772    24777004.420    24777005.234                     2903425.409 7   2903425.420 6                   2262708.730 6        52.000          19.000          17.000                  
G06  24620054.427    24620052.634    24620056.015                    -1446595.809 7  -1446595.808 6                  -1127220.238 6        79.000          31.000          30.000                  
G12  22853519.869    22853519.989    22853520.181                   -10067502.821 8 -10067502.816 8                  -7844807.855 8       202.000         102.000         156.000                  
G17  22356831.797    22356831.309    22356831.545                   -14190070.295 8 -14190070.299 8                 -11057195.675 8       240.000         133.000         319.000                  
G19  21901371.269    21901369.611    21901368.889                   -13504674.461 8 -13504674.462 7                 -10523124.556 7       282.000          79.000          91.000                  
G21  23723601.735    23723599.819    23723601.071                    -9334792.670 8  -9334792.660 6                  -7273861.926 6       188.000          39.000          35.000                  
G25  23215037.765    23215038.019    23215041.828                    -5279934.850 8  -5279934.856 6                  -4114237.107 7       120.000          34.000          85.000                  
G28  21610901.771    21610901.769    21610902.025                   -17454919.816 8 -17454919.815 8                 -13601235.569 8       392.000         199.000         129.000                  
G31  23237327.783    23237327.620    23237328.084                    -7387159.232 8  -7387159.229 7                  -5756226.859 8       154.000          60.000         108.000                  
G32  22177610.096    22177609.574    22177612.361                   -15418832.855 8 -15418832.855 8                 -12014674.428 8       323.000         269.000         306.000                  
> 2024 10 31 05 15 20.0000000  0 11
G02  22281940.950    22281939.667    22281938.708                   -12301718.371 8 -12301718.372 7                  -9585752.123 7       280.000          65.000          96.000                  
G03  20089436.724    20089436.678    20089439.010                   -22546172.696 9 -22546172.697 9                 -17568443.231 9       630.000        1016.000         888.000                  
G06  24600408.993    24600407.336    24600411.272                    -1549830.177 7  -1549830.151 6                  -1207662.621 6        77.000          27.000          29.000                  
G12  22791092.227    22791091.471    22791091.754                   -10395566.578 8 -10395566.587 8                  -8100441.933 8       211.000         108.000         161.000                  
G17  22391180.203    22391179.560    22391179.813                   -14009568.933 8 -14009568.937 8                 -10916545.310 8       239.000         128.000         305.000                  
G19  21894815.688    21894813.487    21894812.524                   -13539126.857 8 -13539126.859 7                 -10549970.626 7       282.000          71.000          89.000                  
G21  23784215.630    23784214.062    23784215.344                    -9016261.946 8  -9016261.956 6                  -7025656.224 6       183.000          39.000          37.000                  
G25  23142772.185    23142770.160    23142773.627                    -5659704.358 8  -5659704.364 6                  -4410161.382 8       121.000          39.000         101.000                  
G28  21590198.942    21590198.688    21590199.075                   -17563714.880 8 -17563714.881 8                 -13686010.972 8       396.000         206.000         128.000                  
G31  23247030.264    23247029.929    23247030.426                    -7336171.798 8  -7336171.804 7                  -5716496.443 7       154.000          55.000         100.000                  
G32  22132843.092    22132842.960    22132845.834                   -15654083.186 8 -15654083.185 8                 -12197986.393 8       324.000         272.000         314.000                  
> 2024 10 31 05 15 30.0000000  0 11
G02  22342916.752    22342915.140    22342914.729                   -11981289.479 8 -11981289.472 7                  -9336067.337 7       276.000          70.000          94.000                  
G03  20124887.462    20124887.193    20124889.612                   -22359879.047 9 -22359879.048 9                 -17423279.406 9       630.000        1008.000         854.000                  
G06  24581205.554    24581205.355    24581207.802                    -1650740.602 7  -1650740.586 6                  -1286294.244 6        81.000          28.000          28.000                  
G12  22729151.173    22729150.706    22729150.469                   -10721068.421 8 -10721068.424 8                  -8354079.731 8       221.000         117.000         166.000                  
G17  22426328.672    22426328.097    22426328.324                   -13824862.053 8 -13824862.055 8                 -10772617.917 8       236.000         128.000         291.000                  
G19  21889146.066    21889144.244    21889143.894                   -13568917.748 8 -13568917.743 7                 -10573184.367 7       285.000          77.000          88.000                  
G21  23845164.147    23845163.126    23845164.081                    -8695976.391 8  -8695976.409 6                  -6776083.178 6       180.000          35.000          38.000                  
G25  23070712.710    23070712.157    23070715.770                    -6038370.722 8  -6038370.729 6                  -4705226.041 8       130.000          42.000         109.000                  
G28  21569991.569    21569991.029    21569991.509                   -17669906.784 8 -17669906.784 8                 -13768757.927 8       408.000         205.000         135.000                  
G31  23256999.598    23256999.866    23257001.009                    -7283779.502 8  -7283779.488 7                  -5675671.335 8       152.000          53.000         108.000                  
G32  22088455.324    22088455.236    22088457.937                   -15887342.902 8 -15887342.905 8                 -12379747.279 8       341.000         297.000         329.000                  
> 2024 10 31 05 15 40.0000000  0 11
G02  22404431.520    22404429.993    22404428.707                   -11658027.893 8 -11658027.896 7                  -9084175.253 7       275.000          65.000          87.000                  
G03  20161055.650    20161055.874    20161058.156                   -22169812.053 9 -22169812.054 9                 -17275175.274 9       614.000         961.000         787.000                  
G06  24562457.159    24562455.108    24562458.236                    -1749272.359 7  -1749272.342 6                  -1363072.141 6        75.000          26.000          30.000                  
G12  22667714.197    22667713.543    22667713.601                   -11043923.024 8 -11043923.029 8                  -8605654.770 8       221.000         117.000         181.000                  
G17  22462275.258    22462274.302    22462274.591                   -13635964.175 8 -13635964.174 8                 -10625424.800 8       225.000         112.000         288.000                  
G19  21884370.933    21884369.273    21884368.826                   -13594010.603 8 -13594010.603 7                 -10592737.341 7       282.000          81.000          85.000                  
G21  23906441.563    23906440.273    23906440.775                    -8373964.731 8  -8373964.734 6                  -6525165.106 6       178.000          34.000          43.000                  
G25  22998881.158    22998880.143    22998883.917                    -6415849.833 8  -6415849.837 6                  -4999365.581 8       141.000          48.000         112.000                  
G28  21550288.550    21550288.248    21550288.563                   -17773445.582 8 -17773445.581 8                 -13849437.537 8       400.000         203.000         143.000                  
G31  23267243.259    23267242.944    23267243.057                    -7229954.695 8  -7229954.690 6                  -5633729.970 8       146.000          50.000         101.000                  
G32  22044457.528    22044457.213    22044459.946                   -16118554.298 8 -16118554.301 8                 -12559911.965 8       349.000         302.000         344.000                  
> 2024 10 31 05 15 50.0000000  0 11
G02  22466467.318    22466466.019    22466465.114                   -11332027.878 8 -11332027.882 7                  -8830149.318 7       270.000          71.000          99.000                  
G03  20197929.991    20197930.114    20197932.423                   -21976036.443 9 -21976036.444 9                 -17124181.327 9       609.000         934.000         790.000                  
G06  24544158.916    24544157.329    24544160.027                    -1845429.437 7  -1845429.446 6                  -1437999.761 6        75.000          26.000          28.000                  
G12  22606785.582    22606785.246    22606785.645                   -11364102.302 8 -11364102.304 8                  -8855145.112 8       225.000         122.000         201.000                  
G17  22499004.809    22499004.027    22499004.417                   -13442947.292 8 -13442947.292 8                 -10475022.085 8       215.000         102.000         297.000                  
G19  21880486.077    21880484.404    21880483.421                   -13614426.882 8 -13614426.879 7                 -10608646.135 7       282.000          74.000          90.000                  
G21  23968030.724    23968028.985    23968029.606                    -8050312.591 8  -8050312.571 6                  -6272968.745 6       176.000          39.000          34.000                  
G25  22927280.817    22927279.698    22927283.184                    -6792114.261 8  -6792114.252 7                  -5292558.614 8       154.000          52.000         116.000                  
G28  21531089.297    21531089.032    21531089.288                   -17874338.658 8 -17874338.655 8                 -13928055.538 8       405.000         211.000         145.000                  
G31  23277752.838    23277751.871    23277752.535                    -7174727.017 8  -7174727.012 6                  -5590695.445 7       143.000          49.000          96.000                  
G32  22000849.039    22000848.918    22000851.479                   -16347717.349 8 -16347717.351 8                 -12738480.571 8       361.000         333.000         386.000                  
> 2024 10 31 05 16  0.0000000  0 11
G02  22529014.787    22529012.935    22529012.287                   -11003339.889 8 -11003339.902 7                  -8574028.870 8       271.000          58.000         110.000                  
G03  20235506.305    20235506.105    20235508.325                   -21778573.611 9 -21778573.611 9                 -16970314.232 9       611.000         951.000         778.000                  
G06  24526318.076    24526318.894    24526322.423                    -1939171.549 7  -1939171.570 6                  -1511045.575 6        71.000          25.000          31.000                  
G12  22546380.443    22546380.061    22546380.126                   -11681534.389 8 -11681534.391 8                  -9102494.758 8       239.000         143.000         219.000                  
G17  22536512.826    22536512.196    22536512.548                   -13245840.705 8 -13245840.706 8                 -10321432.610 8       215.000         105.000         298.000                  
G19  21877495.430    21877493.388    21877492.338                   -13630146.095 8 -13630146.100 7                 -10620894.933 7       290.000          83.000          93.000                  
G21  24029923.772    24029922.619    24029923.624                    -7725061.526 8  -7725061.500 6                  -6019526.478 6       177.000          35.000          34.000                  
G25  22855924.341    22855923.780    22855927.356                    -7167092.444 8  -7167092.451 7                  -5584749.399 8       165.000          73.000         120.000                  
G28  21512400.195    21512400.051    21512400.257                   -17972550.012 8 -17972550.013 8                 -14004583.891 8       415.000         223.000         141.000                  
G31  23288531.658    23288530.667    23288531.429                    -7118082.520 8  -7118082.530 7                  -5546556.922 7       144.000          53.000          93.000                  
G32  21957639.148    21957638.904    21957641.395                   -16574788.077 8 -16574788.079 8                 -12915418.811 8       381.000         367.000         419.000                  
> 2024 10 31 05 16 10.0000000  0 11
G02  22592062.171    22592060.617    22592059.864                   -10672022.736 8 -10672022.727 7                  -8315859.721 8       270.000          66.000         109.000                  
G03  20273777.983    20273777.930    20273780.186                   -21577453.873 9 -21577453.874 9                 -16813597.633 9       609.000         944.000         746.000                  
G06  24508945.229    24508944.545    24508949.444                    -2030467.595 7  -2030467.586 6                  -1582185.341 6        73.000          21.000          29.000                  
G12  22486510.223    22486509.670    22486509.767                   -11996156.004 8 -11996156.005 8                  -9347654.501 8       247.000         146.000         231.000                  
G17  22574792.048    22574791.547    22574791.695                   -13044682.762 8 -13044682.768 8                 -10164686.229 8       216.000         103.000         298.000                  
G19  21875399.579    21875397.977    21875397.218                   -13641156.872 8 -13641156.872 7                 -10629474.789 8       288.000          83.000         105.000                  
G21  24092112.099    24092110.642    24092111.231                    -7398261.015 8  -7398261.039 6                  -5764876.834 6       173.000          31.000          31.000                  
G25  22784825.545    22784824.281    22784827.894                    -7540720.762 8  -7540720.765 7                  -5875888.348 8       170.000          81.000         120.000                  
G28  21494226.649    21494226.385    21494226.918                   -18068052.305 8 -18068052.302 8                 -14079001.276 8       420.000         221.000         138.000                  
G31  23299581.898    23299580.947    23299581.543                    -7060015.652 8  -7060015.637 6                  -5501310.065 7       148.000          49.000          84.000                  
G32  21914833.825    21914833.746    21914836.245                   -16799730.876 8 -16799730.878 8                 -13090698.924 8       398.000         399.000         418.000                  
> 2024 10 31 05 16 20.0000000  0 11
G02  22655594.382    22655592.879    22655592.177                   -10338159.339 8 -10338159.350 7                  -8055706.488 8       271.000          58.000         108.000                  
G03  20312735.154    20312735.295    20312737.562                   -21372732.202 9 -21372732.204 9                 -16654074.310 9       609.000         941.000         787.000                  
G06  24492041.200    24492037.342    24492042.914                    -2119311.026 7  -2119311.013 6                  -1651413.970 6        70.000          20.000          34.000                  
G12  22427181.753    22427181.403    22427181.508                   -12307927.760 8 -12307927.756 8                  -9590593.521 8       249.000         143.000         264.000                  
G17  22613830.017    22613829.437    22613829.812                   -12839536.784 8 -12839536.789 8                 -10004832.300 8       218.000         104.000         325.000                  
G19  21874197.249    21874195.937    21874195.298                   -13647473.637 8 -13647473.631 7                 -10634397.007 8       288.000          79.000         103.000                  
G21  24154580.679    24154579.346    24154579.649                    -7069984.754 8  -7069984.760 6                  -5509077.253 6       172.000          30.000          30.000                  
G25  22713990.286    22713989.545    22713993.378                    -7912959.465 8  -7912959.471 7                  -6165944.479 8       169.000          78.000         145.000                  
G28  21476569.504    21476569.167    21476569.254                   -18160842.794 8 -18160842.791 8                 -14151305.572 8       425.000         229.000         148.000                  
G31  23310897.168    23310897.813    23310897.990                    -7000545.289 8  -7000545.303 7                  -5454969.568 7       145.000          51.000          82.000                  
G32  21872435.707    21872435.501    21872438.164                   -17022534.517 8 -17022534.518 8                 -13264312.164 8       408.000         426.000         463.000                  
> 2024 10 31 05 16 30.0000000  0 11
G02  22719603.532    22719602.462    22719601.747                   -10001786.596 8 -10001786.592 7                  -7793597.922 8       262.000          62.000         108.000                  
G03  20352376.360    20352376.115    20352378.426                   -21164418.456 9 -21164418.457 9                 -16491751.948 9       612.000         956.000         770.000                  
G06  24475608.588    24475608.283    24475613.018                    -2205650.067 7  -2205650.085 6                  -1718691.213 6        66.000          26.000          37.000                  
G12  22368412.222    22368411.682    22368411.899                   -12616764.868 8 -12616764.869 8                  -9831245.848 8       240.000         142.000         277.000                  
G17  22653623.611    22653623.090    22653623.409                   -12630421.001 8 -12630421.007 8                  -9841885.001 8       221.000         113.000         320.000                  
G19  21873894.146    21873892.950    21873892.463                   -13649066.062 8 -13649066.064 7                 -10635637.868 8       294.000          88.000         106.000                  
G21  24217325.020    24217323.645    24217325.158                    -6740260.555 8  -6740260.574 6                  -5252149.376 6       169.000          31.000          29.000                  
G25  22643437.316    22643435.803    22643439.650                    -8283722.723 8  -8283722.719 7                  -6454850.886 8       176.000          71.000         163.000                  
G28  21459437.084    21459436.758    21459437.180                   -18250873.428 8 -18250873.425 8                 -14221459.348 8       434.000         229.000         148.000                  
G31  23322487.322    23322486.683    23322487.318                    -6939644.603 8  -6939644.603 7                  -5407514.523 7       150.000          53.000          82.000                  
G32  21830455.634    21830455.483    21830458.008                   -17243142.182 8 -17243142.183 8                 -13436214.250 9       423.000         457.000         502.000                  
> 2024 10 31 05 16 40.0000000  0 11
G02  22784071.734    22784070.593    22784070.292                    -9663003.781 8  -9663003.776 7                  -7529611.365 8       260.000          56.000         115.000                  
G03  20392686.599    20392686.592    20392688.897                   -20952585.383 9 -20952585.383 9                 -16326687.243 9       603.000         926.000         801.000                  
G06  24459653.822    24459653.377    24459657.620                    -2289495.618 7  -2289495.636 6                  -1784025.376 6        68.000          22.000          39.000                  
G12  22310204.989    22310204.210    22310204.594                   -12922645.193 8 -12922645.193 8                 -10069594.151 8       234.000         134.000         299.000                  
G17  22694157.013    22694156.388    22694156.660                   -12417416.965 8 -12417416.963 8                  -9675907.925 8       223.000         113.000         330.000                  
G19  21874484.398    21874482.306    21874482.270                   -13645967.776 8 -13645967.779 7                 -10633223.641 8       299.000          94.000         108.000                  
G21  24280328.104    24280326.457    24280327.740                    -6409178.344 8  -6409178.365 6                  -4994163.374 6       165.000          29.000          32.000                  
G25  22573168.219    22573167.430    22573170.871                    -8652986.751 8  -8652986.751 7                  -6742589.066 8       180.000          82.000         200.000                  
G28  21442827.399    21442826.982    21442827.332                   -18338158.776 8 -18338158.773 8                 -14289473.922 8       442.000         237.000         163.000                  
G31  23334342.592    23334341.534    23334341.858                    -6877349.443 8  -6877349.446 7                  -5358972.890 7       152.000          51.000          84.000                  
G32  21788892.116    21788891.996    21788894.628                   -17461559.518 8 -17461559.518 8                 -13606409.588 9       443.000         493.000         569.000                  
> 2024 10 31 05 16 50.0000000  0 11
G02  22848993.377    22848991.807    22848991.219                    -9321841.817 8  -9321841.818 7                  -7263770.947 8       277.000          62.000         125.000                  
G03  20433665.651    20433665.892    20433668.218                   -20737238.093 9 -20737238.094 9                 -16158884.219 9       597.000         914.000         790.000                  
G06  24444183.330    24444183.558    24444188.664                    -2370791.063 7  -2370791.067 6                  -1847372.386 6        69.000          24.000          45.000                  
G12  22252577.707    22252577.171    22252577.491                   -13225478.460 8 -13225478.462 8                 -10305568.125 8       235.000         142.000         316.000                  
G17  22735427.695    22735427.204    22735427.524                   -12200538.496 8 -12200538.497 8                  -9506911.795 8       232.000         116.000         318.000                  
G19  21875972.741    21875971.153    21875970.658                   -13638145.321 8 -13638145.319 7                 -10627128.245 8       303.000          88.000         122.000                  
G21  24343585.777    24343583.286    24343584.370                    -6076759.431 8  -6076759.435 6                  -4735135.778 6       162.000          33.000          27.000                  
G25  22503202.180    22503201.571    22503205.175                    -9020659.214 8  -9020659.213 7                  -7029087.050 8       187.000          91.000         233.000                  
G28  21426750.006    21426749.834    21426750.150                   -18422645.720 8 -18422645.719 8                 -14355307.912 8       447.000         254.000         156.000                  
G31  23346466.763    23346467.532    23346467.495                    -6813627.513 8  -6813627.502 7                  -5309319.482 7       155.000          53.000          79.000                  
G32  21747757.508    21747757.340    21747759.895                   -17677724.075 8 -17677724.077 9                 -13774849.503 9       463.000         536.000         596.000                  
> 2024 10 31 05 17  0.0000000  0 11
G02  22914349.418    22914348.531    22914346.882                    -8978393.698 8  -8978393.700 7                  -6996149.110 8       302.000          77.000         120.000                  
G03  20475300.834    20475300.986    20475303.421                   -20518444.320 9 -20518444.321 9                 -15988395.634 9       587.000         869.000         767.000                  
G06  24429198.416    24429197.169    24429201.955                    -2449542.613 7  -2449542.623 6                  -1908737.179 6        79.000          26.000          49.000                  
G12  22195535.435    22195534.878    22195535.602                   -13525236.646 8 -13525236.649 8                 -10539145.842 8       234.000         132.000         319.000                  
G17  22777421.290    22777420.237    22777420.786                   -11979862.518 8 -11979862.519 8                  -9334956.579 8       236.000         117.000         309.000                  
G19  21878354.724    21878352.786    21878352.587                   -13625628.725 8 -13625628.723 7                 -10617375.028 8       307.000          92.000         113.000                  
G21  24407080.420    24407079.856    24407080.782                    -5743087.302 8  -5743087.293 6                  -4475131.654 6       154.000          31.000          29.000                  
G25  22433545.275    22433544.375    22433548.046                    -9386709.762 8  -9386709.763 7                  -7314321.211 8       198.000          99.000         259.000                  
G28  21411203.424    21411203.135    21411203.560                   -18504343.793 8 -18504343.791 8                 -14418968.760 8       451.000         260.000         156.000                  
G31  23358859.006    23358859.122    23358859.586                    -6748509.020 8  -6748509.015 7                  -5258577.845 7       159.000          63.000          74.000                  
G32  21707051.325    21707051.147    21707053.884                   -17891635.864 8 -17891635.866 9                 -13941534.009 9       461.000         535.000         595.000                  
> 2024 10 31 05 17 10.0000000  0 11
G02  22980131.473    22980130.172    22980128.675                    -8632708.425 8  -8632708.428 7                  -6726784.027 8       320.000          83.000         119.000                  
G03  20517587.450    20517587.234    20517589.643                   -20296228.484 9 -20296228.486 9                 -15815240.512 9       578.000         847.000         722.000                  
G06  24414704.430    24414702.941    24414707.068                    -2525713.059 7  -2525713.053 6                  -1968090.669 6        83.000          30.000          49.000                  
G12  22139091.676    22139091.114    22139091.947                   -13821848.747 8 -13821848.746 8                 -10770272.206 8       234.000         133.000         327.000                  
G17  22820130.504    22820129.947    22820130.347                   -11755422.637 8 -11755422.641 8                  -9160068.438 8       240.000         125.000         287.000                  
G19  21881631.903    21881630.675    21881629.542                   -13608405.594 8 -13608405.592 7                 -10603954.354 8       312.000          95.000         112.000                  
G21  24470807.694    24470806.342    24470808.149                    -5408201.295 8  -5408201.282 6                  -4214181.591 6       153.000          25.000          26.000                  
G25  22364210.863    22364209.883    22364213.645                    -9751063.863 8  -9751063.864 8                  -7598233.454 8       212.000         108.000         283.000                  
G28  21396193.816    21396193.521    21396194.032                   -18583219.121 8 -18583219.118 8                 -14480430.052 8       460.000         269.000         153.000                  
G31  23371519.411    23371518.602    23371519.198                    -6681980.454 8  -6681980.451 7                  -5206737.432 7       162.000          64.000          71.000                  
G32  21666782.260    21666781.998    21666784.711                   -18103251.242 8 -18103251.243 9                 -14106429.104 9       453.000         522.000         555.000                  
> 2024 10 31 05 17 20.0000000  0 11
G02  23046329.232    23046328.260    23046327.484                    -8284834.977 8  -8284834.986 7                  -6455713.868 8       322.000          79.000         114.000                  
G03  20560520.046    20560519.996    20560522.447                   -20070615.551 9 -20070615.553 9                 -15639438.294 9       572.000         831.000         706.000                  
G06  24400708.115    24400706.123    24400710.389                    -2599266.067 7  -2599266.047 6                  -2025404.708 6        91.000          31.000          48.000                  
G12  22083261.107    22083260.209    22083260.877                   -14115243.352 8 -14115243.354 8                 -10998891.453 8       241.000         140.000         322.000                  
