     3.03           OBSERVATION DATA    M (MIXED)           RINEX VERSION / TYPE
BJPP                CNES                20241031 073231 UTC PGM / RUN BY / DATE 
MARKER                                                      MARKER NAME         
SPACECRAFT                                                  MARKER TYPE         
OBSERVER            CNES                                    OBSERVER / AGENCY   
RECNUM              BLACKJACK           RECVERS             REC # / TYPE / VERS 
ANTNUM              BLACKJACK                               ANT # / TYPE        
        0.0000        0.0000        0.0000                  ANTENNA: DELTA H/E/N
G   12 C1C C1W C2W C2X L1C L1W L2X L2W S1C S1W S2W S2X      SYS / # / OBS TYPES 
DBHZ                                                        SIGNAL STRENGTH UNIT
This rinex produced from the following file(s):             COMMENT             
/tmp/mesos_work/slaves/d197f515-9ebc-49f2-8adc-fe7a9d3e6458-COMMENT             
S45/frameworks/8c1b9f46-52ed-4aff-9edf-38d17bf6761e-2813/exeCOMMENT             
cutors/toil-39358/runs/dd1a9bf3-f2cc-4d87-a11c-bd23331dd2ee/COMMENT             
da418760a432553f9ac4d0c25b2abe00/e769/2e8e/tmpkjpkc4x35nag8cCOMMENT             
19/stgdf5f1a16-e2e9-4f91-ad17-69af36e166c8/SWOT_KRX_20241031COMMENT             
T064902_20241031T032119_20241031T051329_O_APID1280.PTM_0    COMMENT             
  2024    10    31     3    21    0.0000000                 TIME OF FIRST OBS   
G L1C                                                       SYS / PHASE SHIFT   
G L1W -0.25000                                              SYS / PHASE SHIFT   
G L2W                                                       SYS / PHASE SHIFT   
G L2X  0.25000                                              SYS / PHASE SHIFT   
                                                            END OF HEADER       
> 2024 10 31 03 21  0.0000000  0  9
G02  22004309.363    22004308.419    22004306.260                   -16892634.927 8 -16892634.923 7                 -13163093.238 8       329.000          98.000         113.000                  
G03  23813120.822    23813121.084    23813125.840                    -4283656.593 7  -4283656.567 6                  -3337914.323 7        75.000          22.000          77.000                  
G08  20814970.373    20814970.041    20814973.617                   -20487481.632 8 -20487481.637 9                 -15964269.546 9       456.000         506.000         611.000                  
G10  22219613.027    22219612.941    22219615.772                   -13869254.345 8 -13869254.344 8                 -10807212.500 8       283.000         189.000         392.000                  
G21  20552018.558    20552017.414    20552017.895                   -22881769.350 9 -22881769.353 8                 -17829950.674 8       551.000         282.000         205.000                  
G27  22408756.009    22408755.309    22408758.741                   -12747633.124 8 -12747633.125 8                  -9933220.938 8       268.000         196.000         428.000                  
G28  23490278.998    23490278.199    23490279.466                    -8026694.991 8  -8026695.016 6                  -6254563.037 6       152.000          36.000          32.000                  
G31  24954083.239    24954081.417    24954082.855                      529361.928 7    529361.925 6                    412488.731 6        74.000          26.000          27.000                  
G32  20568657.861    20568657.482    20568660.105                   -22721389.125 9 -22721389.128 9                 -17704975.805 9       688.000        1187.000        1071.000                  
> 2024 10 31 03 21 10.0000000  0  9
G02  21967147.376    21967146.145    21967144.831                   -17087920.463 8 -17087920.462 7                 -13315263.744 8       336.000          93.000         110.000                  
G03  23828836.226    23828835.415    23828839.379                    -4201080.950 7  -4201080.938 6                  -3273569.718 7        73.000          32.000          76.000                  
G08  20858521.991    20858521.416    20858524.877                   -20258617.948 8 -20258617.950 8                 -15785934.181 9       453.000         488.000         589.000                  
G10  22178846.293    22178846.339    22178849.198                   -14083483.802 8 -14083483.799 8                 -10974144.496 8       272.000         182.000         432.000                  
G21  20524404.259    20524402.875    20524403.507                   -23026884.320 9 -23026884.324 8                 -17943027.251 8       552.000         294.000         209.000                  
G27  22479201.074    22479200.555    22479204.225                   -12377440.040 8 -12377440.043 8                  -9644758.824 8       259.000         181.000         402.000                  
G28  23513074.525    23513074.006    23513074.039                    -7906901.077 8  -7906901.092 6                  -6161217.086 6       147.000          33.000          28.000                  
G31  25006530.619    25006528.440    25006530.194                      804975.284 7    804975.303 6                    627252.301 6        73.000          28.000          28.000                  
G32  20544994.253    20544993.961    20544996.704                   -22845741.067 9 -22845741.068 9                 -17801873.379 9       688.000        1185.000        1082.000                  
> 2024 10 31 03 21 20.0000000  0  9
G02  21930708.850    21930707.897    21930706.327                   -17279405.994 8 -17279405.988 7                 -13464473.220 8       336.000          97.000         111.000                  
G03  23844814.063    23844813.328    23844817.528                    -4117113.261 7  -4117113.244 6                  -3208140.357 7        72.000          23.000          83.000                  
G08  20903006.074    20903005.769    20903009.025                   -20024851.319 8 -20024851.321 8                 -15603778.340 9       441.000         483.000         574.000                  
G10  22138609.874    22138609.118    22138612.268                   -14294930.557 8 -14294930.556 8                 -11138908.156 8       264.000         168.000         487.000                  
G21  20497765.465    20497764.417    20497764.616                   -23166870.631 9 -23166870.632 8                 -18052107.454 8       551.000         283.000         218.000                  
G27  22550163.396    22550162.955    22550166.531                   -12004530.646 8 -12004530.648 8                  -9354180.101 8       245.000         169.000         383.000                  
G28  23536094.144    23536093.508    23536095.224                    -7785930.742 8  -7785930.758 6                  -6066954.463 6       143.000          33.000          26.000                  
G31  25058990.907    25058992.079    25058992.289                     1080666.663 7   1080666.650 6                    842076.729 6        71.000          24.000          26.000                  
G32  20521975.934    20521975.568    20521978.151                   -22966703.765 9 -22966703.768 9                 -17896129.991 9       695.000        1210.000        1128.000                  
> 2024 10 31 03 21 30.0000000  0  9
G02  21895004.087    21895002.899    21895001.740                   -17467034.993 8 -17467034.990 8                 -13610677.618 8       346.000         101.000         115.000                  
G03  23861058.024    23861058.210    23861061.970                    -4031747.954 7  -4031747.972 6                  -3141621.899 7        69.000          21.000          81.000                  
G08  20948413.802    20948413.259    20948416.545                   -19786232.964 8 -19786232.968 8                 -15417841.935 9       431.000         451.000         546.000                  
G10  22098909.232    22098908.719    22098911.712                   -14503557.835 8 -14503557.834 8                 -11301474.813 9       259.000         167.000         512.000                  
G21  20472112.367    20472111.280    20472111.473                   -23301679.300 9 -23301679.302 8                 -18157153.140 8       558.000         291.000         229.000                  
G27  22621630.214    22621629.613    22621633.177                   -11628970.923 8 -11628970.924 8                  -9061536.179 8       237.000         159.000         353.000                  
G28  23559336.841    23559336.747    23559337.359                    -7663790.789 8  -7663790.776 6                  -5971780.475 6       141.000          34.000          29.000                  
G31  25111464.542    25111465.673    25111465.960                     1356417.418 7   1356417.409 6                   1056947.435 6        67.000          23.000          25.000                  
G32  20499607.454    20499607.131    20499609.732                   -23084250.513 9 -23084250.514 9                 -17987724.821 9       703.000        1250.000        1172.000                  
> 2024 10 31 03 21 40.0000000  0  9
G02  21860039.541    21860038.027    21860036.708                   -17650777.067 8 -17650777.064 8                 -13753853.212 8       351.000         101.000         118.000                  
G03  23877564.651    23877564.020    23877569.010                    -3945005.025 7  -3945005.014 6                  -3074029.954 7        74.000          22.000          80.000                  
G08  20994729.982    20994729.298    20994732.593                   -19542840.389 8 -19542840.392 8                 -15228185.366 8       417.000         423.000         499.000                  
G10  22059746.981    22059746.580    22059749.897                   -14709354.450 8 -14709354.446 8                 -11461835.769 9       257.000         165.000         514.000                  
G21  20447448.736    20447447.522    20447447.801                   -23431287.819 9 -23431287.818 8                 -18258146.746 8       558.000         296.000         238.000                  
G27  22693583.590    22693583.334    22693586.910                   -11250851.969 8 -11250851.971 8                  -8766898.045 8       233.000         149.000         321.000                  
G28  23582795.824    23582795.188    23582796.499                    -7540513.328 8  -7540513.317 6                  -5875720.107 6       141.000          29.000          27.000                  
G31  25163940.580    25163942.870    25163942.310                     1632183.769 7   1632183.760 6                   1271830.199 6        62.000          21.000          26.000                  
G32  20477889.142    20477888.886    20477891.468                   -23198380.437 9 -23198380.439 9                 -18076657.188 9       680.000        1166.000        1161.000                  
> 2024 10 31 03 21 50.0000000  0  9
G02  21825825.331    21825823.902    21825822.515                   -17830573.760 8 -17830573.759 7                 -13893954.475 8       359.000          98.000         122.000                  
G03  23894335.467    23894334.938    23894339.545                    -3856875.817 7  -3856875.816 6                  -3005357.809 7        68.000          25.000          85.000                  
G08  21041945.266    21041944.491    21041947.758                   -19294723.054 8 -19294723.058 8                 -15034847.174 8       413.000         408.000         463.000                  
G10  22021131.732    22021131.102    22021134.293                   -14912280.863 8 -14912280.862 8                 -11619960.208 9       250.000         163.000         529.000                  
G21  20423784.025    20423782.723    20423782.907                   -23555646.284 9 -23555646.285 8                 -18355049.401 8       570.000         313.000         240.000                  
G27  22766012.174    22766012.109    22766015.622                   -10870235.776 8 -10870235.774 8                  -8470314.007 8       235.000         156.000         290.000                  
G28  23606469.495    23606470.255    23606471.127                    -7416101.755 8  -7416101.751 6                  -5778776.047 6       140.000          31.000          31.000                  
G31  25216417.336    25216419.763    25216418.791                     1907951.041 7   1907951.044 6                   1486713.748 6        63.000          28.000          24.000                  
G32  20456826.582    20456826.310    20456828.920                   -23309064.449 9 -23309064.451 9                 -18162904.424 9       691.000        1187.000        1168.000                  
> 2024 10 31 03 22  0.0000000  0  9
G02  21792372.335    21792371.118    21792369.190                   -18006370.497 8 -18006370.503 8                 -14030938.910 8       369.000         110.000         111.000                  
G03  23911372.996    23911370.423    23911374.249                    -3767355.115 7  -3767355.114 6                  -2935601.407 7        71.000          25.000          73.000                  
G08  21090049.043    21090048.572    21090051.854                   -19041934.515 8 -19041934.518 8                 -14837869.100 8       411.000         396.000         419.000                  
G10  21983069.143    21983068.457    21983071.697                   -15112301.144 8 -15112301.143 8                 -11775820.123 9       253.000         152.000         521.000                  
G21  20401126.946    20401125.817    20401126.173                   -23674709.287 9 -23674709.290 8                 -18447825.719 8       586.000         319.000         233.000                  
G27  22838904.415    22838903.885    22838907.306                   -10487187.381 8 -10487187.379 8                  -8171834.742 8       237.000         140.000         251.000                  
G28  23630360.224    23630359.201    23630361.160                    -7290562.741 8  -7290562.733 6                  -5680953.424 6       137.000          27.000          26.000                  
G31  25268893.310    25268892.200    25268894.030                     2183701.380 7   2183701.365 6                   1701584.090 6        59.000          20.000          27.000                  
G32  20436424.615    20436424.426    20436426.983                   -23416277.267 9 -23416277.269 9                 -18246446.844 9       704.000        1242.000        1127.000                  
> 2024 10 31 03 22 10.0000000  0  9
G02  21759685.576    21759684.257    21759682.608                   -18178140.422 8 -18178140.419 8                 -14164785.559 8       380.000         122.000         112.000                  
G03  23928667.187    23928665.909    23928670.368                    -3676464.889 7  -3676464.870 6                  -2864777.833 7        73.000          27.000          56.000                  
G08  21139026.589    21139025.925    21139029.185                   -18784556.157 8 -18784556.159 8                 -14637314.555 8       390.000         376.000         400.000                  
G10  21945561.434    21945560.397    21945563.756                   -15309406.857 8 -15309406.854 8                 -11929408.946 9       255.000         162.000         506.000                  
G21  20379481.164    20379479.748    20379479.997                   -23788459.883 9 -23788459.882 8                 -18536462.511 8       593.000         335.000         233.000                  
G27  22912241.186    22912240.782    22912244.418                   -10101798.649 8 -10101798.649 8                  -7871531.838 8       219.000         135.000         219.000                  
G28  23654458.017    23654456.952    23654457.894                    -7163930.003 8  -7163930.020 6                  -5582278.560 6       139.000          36.000          31.000                  
G31  25321357.435    25321353.775    25321354.966                     2459389.523 7   2459389.536 6                   1916405.874 6        55.000          23.000          24.000                  
G32  20416682.949    20416682.536    20416685.214                   -23520021.272 9 -23520021.272 9                 -18327286.291 9       705.000        1256.000        1129.000                  
> 2024 10 31 03 22 20.0000000  0  9
G02  21727779.019    21727777.466    21727775.879                   -18345810.557 8 -18345810.557 8                 -14295437.547 8       392.000         122.000         119.000                  
G03  23946226.733    23946226.715    23946231.230                    -3584180.576 7  -3584180.577 6                  -2792867.975 7        76.000          21.000          65.000                  
G08  21188870.625    21188870.168    21188873.593                   -18522623.259 8 -18522623.264 8                 -14433211.031 8       383.000         357.000         403.000                  
G10  21908618.174    21908617.429    21908620.621                   -15503543.177 8 -15503543.179 8                 -12080683.962 9       260.000         166.000         506.000                  
G21  20358857.828    20358856.613    20358856.774                   -23896835.505 9 -23896835.508 8                 -18620911.018 8       604.000         338.000         238.000                  
G27  22986015.766    22986014.676    22986018.303                    -9714114.294 8  -9714114.292 8                  -7569440.152 8       206.000         121.000         203.000                  
G28  23678765.689    23678765.349    23678765.224                    -7036190.511 8  -7036190.491 6                  -5482741.311 6       139.000          32.000          24.000                  
G31  25373805.415    25373804.537    25373805.674                     2735018.852 7   2735018.818 6                   2131181.919 6        52.000          24.000          19.000                  
G32  20397609.325    20397609.122    20397611.765                   -23620252.642 9 -23620252.644 9                 -18405388.619 9       708.000        1264.000        1182.000                  
> 2024 10 31 03 22 30.0000000  0  8
G02  21696654.577    21696653.190    21696651.780                   -18509370.133 8 -18509370.130 8                 -14422886.518 8       406.000         133.000         119.000                  
G03  23964045.945    23964045.945    23964050.307                    -3490539.070 7  -3490539.052 6                  -2719900.543 7        77.000          28.000          61.000                  
G08  21239562.884    21239562.509    21239565.968                   -18256233.211 8 -18256233.216 8                 -14225634.388 8       372.000         338.000         402.000                  
G10  21872238.820    21872238.469    21872241.443                   -15694717.117 8 -15694717.117 8                 -12229650.625 8       262.000         175.000         484.000                  
G21  20339257.309    20339256.095    20339256.496                   -23999836.438 9 -23999836.441 8                 -18701171.447 8       613.000         352.000         235.000                  
G27  23060205.847    23060205.365    23060209.038                    -9324240.177 8  -9324240.183 8                  -7265642.161 8       192.000         108.000         179.000                  
G28  23703275.291    23703273.894    23703276.311                    -6907392.734 8  -6907392.748 6                  -5382379.425 6       139.000          30.000          27.000                  
G32  20379200.749    20379200.671    20379203.301                   -23716989.571 9 -23716989.572 9                 -18480768.000 9       724.000        1305.000        1205.000                  
> 2024 10 31 03 22 40.0000000  0  8
G02  21666327.530    21666326.055    21666324.420                   -18668740.570 8 -18668740.568 8                 -14547071.233 8       402.000         142.000         124.000                  
G03  23982130.069    23982130.070    23982134.290                    -3395509.094 7  -3395509.084 6                  -2645851.169 7        76.000          29.000          57.000                  
G08  21291097.909    21291097.433    21291100.964                   -17985415.532 8 -17985415.540 8                 -14014607.630 8       348.000         297.000         410.000                  
G10  21836435.084    21836434.756    21836437.625                   -15882867.534 8 -15882867.530 8                 -12376261.294 8       267.000         176.000         498.000                  
G21  20320692.390    20320691.169    20320691.255                   -24097395.797 9 -24097395.797 8                 -18777191.693 8       610.000         343.000         234.000                  
G27  23134805.767    23134805.769    23134809.545                    -8932213.258 8  -8932213.260 7                  -6960166.659 8       183.000          99.000         183.000                  
G28  23727989.049    23727988.916    23727990.119                    -6777516.615 8  -6777516.631 6                  -5281177.232 6       135.000          27.000          26.000                  
G32  20361466.702    20361466.666    20361469.286                   -23810182.279 9 -23810182.280 9                 -18553385.647 9       731.000        1346.000        1288.000                  
> 2024 10 31 03 22 50.0000000  0  8
G02  21636800.672    21636799.073    21636797.652                   -18823905.934 8 -18823905.930 8                 -14667979.270 8       414.000         148.000         143.000                  
G03  24000473.577    24000472.004    24000476.185                    -3299121.299 7  -3299121.284 6                  -2570743.764 6        77.000          27.000          50.000                  
G08  21343457.878    21343457.321    21343460.854                   -17710262.232 8 -17710262.235 8                 -13800202.465 8       334.000         268.000         383.000                  
G10  21801205.974    21801205.703    21801208.886                   -16067995.661 8 -16067995.659 8                 -12520516.933 8       272.000         188.000         470.000                  
G21  20303163.770    20303162.416    20303162.347                   -24189509.992 9 -24189509.996 8                 -18848968.955 8       609.000         348.000         243.000                  
G27  23209797.587    23209796.838    23209800.700                    -8538132.086 8  -8538132.090 7                  -6653090.444 8       183.000          94.000         159.000                  
G28  23752901.219    23752900.806    23752902.347                    -6646604.005 8  -6646603.974 6                  -5179167.479 6       137.000          33.000          29.000                  
G32  20344404.906    20344404.620    20344407.258                   -23899843.524 9 -23899843.526 9                 -18623251.502 9       739.000        1368.000        1271.000                  
> 2024 10 31 03 23  0.0000000  0  8
G02  21608084.815    21608083.368    21608081.821                   -18974808.227 8 -18974808.226 8                 -14785565.413 8       419.000         146.000         142.000                  
G03  24019073.845    24019074.644    24019079.407                    -3201363.748 7  -3201363.764 6                  -2494569.014 7        81.000          27.000          54.000                  
G08  21396633.398    21396632.567    21396636.372                   -17430823.049 8 -17430823.053 8                 -13582457.657 8       317.000         250.000         363.000                  
G10  21766560.751    21766560.045    21766562.915                   -16250060.320 8 -16250060.319 8                 -12662385.456 8       277.000         185.000         433.000                  
G21  20286679.541    20286678.211    20286678.594                   -24276134.055 9 -24276134.058 8                 -18916468.197 8       607.000         351.000         242.000                  
G27  23285168.644    23285168.372    23285172.125                    -8142051.966 8  -8142051.967 7                  -6344456.604 8       175.000          90.000         143.000                  
G28  23778010.640    23778009.824    23778010.381                    -6514653.728 8  -6514653.731 6                  -5076349.047 6       132.000          34.000          24.000                  
G32  20328020.487    20328020.289    20328022.843                   -23985943.823 9 -23985943.824 9                 -18690342.598 9       761.000        1464.000        1231.000                  
> 2024 10 31 03 23 10.0000000  0  8
G02  21580189.545    21580188.362    21580186.643                   -19121396.850 8 -19121396.850 8                 -14899790.252 8       439.000         159.000         142.000                  
G03  24037941.077    24037938.767    24037942.733                    -3102231.165 7  -3102231.170 6                  -2417322.808 6        88.000          28.000          43.000                  
G08  21450613.793    21450612.978    21450616.520                   -17147154.803 8 -17147154.811 8                 -13361417.472 8       309.000         231.000         370.000                  
G10  21732504.251    21732503.733    21732506.538                   -16429027.318 8 -16429027.320 8                 -12801840.220 8       291.000         215.000         410.000                  
G21  20271247.162    20271246.125    20271246.333                   -24357231.096 9 -24357231.097 8                 -18979660.673 8       631.000         372.000         248.000                  
G27  23360909.682    23360909.084    23360912.344                    -7744034.396 8  -7744034.399 7                  -6034313.060 8       175.000          83.000         123.000                  
G28  23803316.549    23803316.216    23803317.070                    -6381671.447 8  -6381671.448 6                  -4972726.483 6       139.000          32.000          20.000                  
G32  20312318.112    20312317.905    20312320.377                   -24068460.796 9 -24068460.797 9                 -18754641.496 9       821.000        1693.000        1224.000                  
> 2024 10 31 03 23 20.0000000  0  8
G02  21553119.220    21553117.886    21553115.983                   -19263653.639 8 -19263653.639 8                 -15010639.651 8       443.000         159.000         171.000                  
G03  24057061.065    24057059.478    24057063.854                    -3001750.028 7  -3001750.026 6                  -2339025.791 6        90.000          30.000          49.000                  
G08  21505381.786    21505381.130    21505384.856                   -16859346.331 8 -16859346.335 8                 -13137151.132 8       301.000         220.000         407.000                  
G10  21699037.829    21699037.148    21699040.008                   -16604894.480 8 -16604894.476 8                 -12938879.521 8       308.000         225.000         479.000                  
G21  20256867.532    20256866.233    20256866.414                   -24432797.107 9 -24432797.108 8                 -19038543.232 8       636.000         382.000         288.000                  
G27  23437001.117    23436999.920    23437003.632                    -7344172.059 8  -7344172.058 7                  -5722732.038 8       163.000          76.000         135.000                  
G28  23828811.420    23828810.226    23828812.561                    -6247694.246 8  -6247694.271 6                  -4868328.701 6       142.000          39.000          26.000                  
G32  20297295.701    20297295.445    20297297.767                   -24147404.333 9 -24147404.335 9                 -18816155.895 9       838.000        1743.000        1354.000                  
> 2024 10 31 03 23 30.0000000  0  8
G02  21526884.700    21526883.341    21526881.786                   -19401515.632 8 -19401515.635 8                 -15118064.530 8       446.000         159.000         172.000                  
G03  24076442.192    24076441.044    24076445.022                    -2899901.295 7  -2899901.288 6                  -2259663.114 6        90.000          31.000          46.000                  
G08  21560929.489    21560928.923    21560932.472                   -16567441.250 8 -16567441.252 8                 -12909692.623 8       296.000         219.000         381.000                  
G10  21666169.903    21666169.520    21666172.545                   -16777614.413 8 -16777614.412 8                 -13073466.427 8       324.000         251.000         466.000                  
G21  20243549.233    20243548.235    20243548.420                   -24502784.085 9 -24502784.086 8                 -19093078.544 8       644.000         395.000         289.000                  
G27  23513433.806    23513433.690    23513437.123                    -6942511.514 8  -6942511.515 7                  -5409749.823 8       150.000          62.000         107.000                  
G28  23854496.796    23854496.291    23854497.208                    -6112713.503 8  -6112713.508 6                  -4763148.880 6       141.000          34.000          29.000                  
G32  20282959.835    20282959.579    20282961.896                   -24222739.207 9 -24222739.208 9                 -18874858.358 9       837.000        1758.000        1292.000                  
> 2024 10 31 03 23 40.0000000  0  8
G02  21501491.179    21501489.853    21501488.344                   -19534958.702 8 -19534958.705 8                 -15222046.083 8       441.000         158.000         175.000                  
G03  24096079.509    24096079.835    24096082.941                    -2796704.027 7  -2796704.023 6                  -2179249.624 6        91.000          29.000          43.000                  
G08  21617241.147    21617240.506    21617244.009                   -16271521.587 8 -16271521.592 8                 -12679105.862 8       284.000         199.000         358.000                  
G10  21633903.407    21633902.678    21633905.500                   -16947178.210 8 -16947178.208 8                 -13205594.005 8       327.000         258.000         453.000                  
G21  20231294.623    20231293.507    20231293.637                   -24567183.273 9 -24567183.273 8                 -19143259.718 8       636.000         379.000         297.000                  
G27  23590194.808    23590192.897    23590196.787                    -6539136.907 8  -6539136.913 6                  -5095431.981 8       137.000          49.000         104.000                  
G28  23880368.976    23880368.289    23880369.347                    -5976758.556 8  -5976758.563 6                  -4657209.941 6       140.000          36.000          23.000                  
G32  20269310.157    20269309.874    20269312.166                   -24294468.772 9 -24294468.773 9                 -18930751.476 9       823.000        1688.000        1289.000                  
> 2024 10 31 03 23 50.0000000  0  8
G02  21476946.687    21476945.357    21476943.601                   -19663941.781 8 -19663941.782 8                 -15322552.340 8       456.000         169.000         177.000                  
G03  24115972.967    24115973.985    24115976.458                    -2692159.744 7  -2692159.740 6                  -2097786.522 6        86.000          30.000          42.000                  
G08  21674304.513    21674303.745    21674307.360                   -15971651.945 8 -15971651.949 8                 -12445441.203 8       277.000         181.000         351.000                  
G10  21602241.915    21602241.323    21602243.973                   -17113559.605 8 -17113559.608 8                 -13335241.801 8       339.000         284.000         431.000                  
G21  20220108.028    20220106.750    20220107.017                   -24625969.579 9 -24625969.581 8                 -19189067.170 8       649.000         394.000         289.000                  
G27  23667266.791    23667266.465    23667269.963                    -6134114.158 8  -6134114.164 7                  -4779829.871 7       133.000          56.000          95.000                  
G28  23906424.015    23906422.876    23906423.387                    -5839840.938 8  -5839840.932 6                  -4550520.830 6       143.000          32.000          21.000                  
G32  20256348.998    20256348.767    20256351.150                   -24362579.234 9 -24362579.236 9                 -18983824.506 9       841.000        1775.000        1237.000                  
> 2024 10 31 03 24  0.0000000  0  8
G02  21453259.301    21453257.896    21453256.272                   -19788419.308 8 -19788419.307 8                 -15419547.792 8       459.000         177.000         174.000                  
G03  24136124.600    24136124.862    24136128.011                    -2586264.544 7  -2586264.526 6                  -2015270.754 6        88.000          34.000          44.000                  
G08  21732107.629    21732107.194    21732111.021                   -15667891.918 8 -15667891.922 8                 -12208745.097 8       264.000         174.000         338.000                  
G10  21571192.035    21571191.580    21571194.111                   -17276727.403 8 -17276727.400 8                 -13462385.485 8       348.000         289.000         446.000                  
G21  20209994.941    20209993.680    20209993.752                   -24679114.412 9 -24679114.414 8                 -19230478.719 8       646.000         390.000         291.000                  
G27  23744642.010    23744641.466    23744645.189                    -5727503.292 8  -5727503.301 6                  -4462990.265 7       124.000          45.000          75.000                  
G28  23932660.052    23932659.210    23932660.217                    -5701966.872 8  -5701966.880 6                  -4443086.465 6       144.000          37.000          24.000                  
G32  20244080.089    20244079.929    20244082.215                   -24427052.010 9 -24427052.012 9                 -19034062.979 9       840.000        1766.000        1192.000                  
> 2024 10 31 03 24 10.0000000  0  8
G02  21430433.392    21430432.008    21430430.420                   -19908370.813 8 -19908370.817 8                 -15513016.487 8       472.000         175.000         182.000                  
G03  24156529.220    24156528.798    24156532.265                    -2479038.751 7  -2479038.738 6                  -1931718.145 6        87.000          24.000          43.000                  
G08  21790635.685    21790635.140    21790639.019                   -15360325.319 8 -15360325.320 8                 -11969082.837 8       256.000         163.000         350.000                  
G10  21540754.868    21540754.382    21540757.061                   -17436674.962 8 -17436674.963 8                 -13587019.902 8       353.000         302.000         498.000                  
G21  20200955.836    20200954.613    20200954.714                   -24726614.357 9 -24726614.359 8                 -19267491.599 8       653.000         394.000         305.000                  
G27  23822303.198    23822303.238    23822307.077                    -5319387.936 8  -5319387.938 6                  -4144978.326 7       122.000          43.000          82.000                  
G28  23959072.234    23959072.592    23959073.433                    -5563166.411 8  -5563166.396 6                  -4334930.250 6       146.000          30.000          23.000                  
G32  20232502.469    20232502.220    20232504.592                   -24487893.200 9 -24487893.201 9                 -19081471.651 9       863.000        1876.000        1231.000                  
> 2024 10 31 03 24 20.0000000  0  8
G02  21408479.218    21408477.848    21408476.447                   -20023739.809 8 -20023739.816 8                 -15602914.361 8       479.000         181.000         186.000                  
G03  24177189.664    24177188.758    24177192.513                    -2370466.165 7  -2370466.141 6                  -1847116.062 6        86.000          27.000          35.000                  
G08  21849879.476    21849878.423    21849882.400                   -15048999.399 8 -15048999.406 8                 -11726491.207 8       243.000         144.000         347.000                  
G10  21510938.738    21510938.407    21510941.076                   -17593359.318 8 -17593359.317 8                 -13709111.556 9       364.000         325.000         523.000                  
G21  20192998.292    20192996.993    20192997.123                   -24768431.176 9 -24768431.178 8                 -19300076.048 8       649.000         391.000         306.000                  
G27  23900242.984    23900242.739    23900246.649                    -4909814.478 8  -4909814.483 6                  -3825830.203 7       122.000          49.000          62.000                  
G28  23985663.252    23985662.875    23985663.720                    -5423432.837 8  -5423432.836 6                  -4226046.914 6       146.000          37.000          25.000                  
G32  20221621.646    20221621.304    20221623.657                   -24545072.749 9 -24545072.749 9                 -19126027.106 9       884.000        1963.000        1235.000                  
> 2024 10 31 03 24 30.0000000  0  8
G02  21387402.064    21387400.635    21387398.867                   -20134502.226 8 -20134502.225 8                 -15689222.721 8       479.000         184.000         182.000                  
G03  24198103.040    24198103.450    24198105.949                    -2260561.791 7  -2260561.762 6                  -1761476.230 6        86.000          28.000          36.000                  
G08  21909822.898    21909822.055    21909826.058                   -14733992.991 8 -14733992.996 8                 -11481031.649 8       231.000         126.000         338.000                  
G10  21481746.356    21481745.610    21481748.205                   -17746769.215 8 -17746769.216 8                 -13828651.687 9       378.000         353.000         547.000                  
G21  20186123.388    20186122.149    20186122.289                   -24804559.111 9 -24804559.114 8                 -19328227.605 8       631.000         371.000         306.000                  
G27  23978445.543    23978445.152    23978448.221                    -4498859.993 8  -4498859.985 6                  -3505605.952 6       115.000          44.000          48.000                  
G28  24012425.808    24012426.253    24012427.284                    -5282790.664 8  -5282790.675 6                  -4116455.608 6       143.000          30.000          28.000                  
G32  20211436.961    20211436.801    20211439.145                   -24598592.377 9 -24598592.378 9                 -19167730.665 9       871.000        1909.000        1215.000                  
> 2024 10 31 03 24 40.0000000  0  8
G02  21367206.449    21367205.004    21367203.277                   -20240630.567 8 -20240630.570 8                 -15771920.105 8       487.000         194.000         186.000                  
G03  24219270.059    24219268.466    24219272.003                    -2149336.605 7  -2149336.622 6                  -1674807.196 6        86.000          27.000          36.000                  
G08  21970452.675    21970452.087    21970456.020                   -14415380.832 8 -14415380.836 8                 -11232762.392 8       223.000         124.000         353.000                  
G10  21453179.024    21453178.659    21453181.264                   -17896889.732 8 -17896889.732 8                 -13945628.676 9       400.000         383.000         581.000                  
G21  20180332.620    20180331.229    20180331.551                   -24834989.827 9 -24834989.830 8                 -19351939.760 8       622.000         360.000         309.000                  
G27  24056896.785    24056896.193    24056899.086                    -4086596.833 8  -4086596.846 6                  -3184361.953 6       113.000          40.000          42.000                  
G28  24039357.844    24039358.359    24039359.589                    -5141259.980 8  -5141259.984 6                  -4006171.905 6       139.000          38.000          26.000                  
G32  20201949.502    20201949.160    20201951.560                   -24648450.268 9 -24648450.270 9                 -19206580.940 9       903.000        2030.000        1254.000                  
> 2024 10 31 03 24 50.0000000  0  8
G02  21347901.699    21347900.447    21347898.807                   -20342076.427 8 -20342076.429 8                 -15850968.709 8       485.000         191.000         189.000                  
G03  24240687.845    24240687.568    24240690.830                    -2036779.810 7  -2036779.802 6                  -1587100.490 6        85.000          31.000          35.000                  
G08  22031758.769    22031757.870    22031762.108                   -14093216.077 8 -14093216.084 8                 -10981724.892 8       219.000         120.000         356.000                  
G10  21425244.958    21425244.558    21425247.092                   -18043684.589 8 -18043684.591 8                 -14060014.244 9       409.000         407.000         615.000                  
G21  20175631.266    20175629.803    20175629.871                   -24859694.914 9 -24859694.914 8                 -19371190.414 8       610.000         351.000         311.000                  
G27  24135588.243    24135587.400    24135589.913                    -3673075.074 8  -3673075.080 6                  -2862137.244 6       108.000          37.000          31.000                  
G28  24066460.719    24066460.479    24066460.663                    -4998839.150 8  -4998839.150 6                  -3895194.606 6       137.000          32.000          28.000                  
G32  20193163.149    20193162.825    20193165.100                   -24694623.430 9 -24694623.431 9                 -19242560.010 9       928.000        2154.000        1314.000                  
> 2024 10 31 03 25  0.0000000  0  8
G02  21329492.210    21329490.915    21329488.976                   -20438818.735 8 -20438818.741 8                 -15926352.245 8       483.000         184.000         172.000                  
G03  24262356.818    24262356.645    24262360.082                    -1922906.657 7  -1922906.651 6                  -1498368.049 6        82.000          25.000          34.000                  
G08  22093725.927    22093725.016    22093729.030                   -13767577.760 8 -13767577.764 8                 -10727980.730 8       219.000         122.000         323.000                  
G10  21397945.561    21397945.114    21397947.646                   -18187143.860 8 -18187143.860 8                 -14171800.660 9       419.000         423.000         589.000                  
G21  20172019.847    20172018.407    20172018.675                   -24878673.115 9 -24878673.116 8                 -19385978.582 8       608.000         352.000         287.000                  
G27  24214502.952    24214502.642    24214506.528                    -3258370.083 7  -3258370.099 6                  -2538990.569 6        96.000          31.000          34.000                  
G28  24093726.905    24093726.694    24093727.558                    -4855552.280 8  -4855552.280 6                  -3783542.490 6       134.000          31.000          24.000                  
G32  20185077.225    20185076.836    20185079.155                   -24737115.194 9 -24737115.196 9                 -19275670.429 9       935.000        2190.000        1255.000                  
> 2024 10 31 03 25 10.0000000  0  8
G02  21311982.850    21311981.732    21311979.981                   -20530830.065 8 -20530830.063 8                 -15998049.364 8       483.000         195.000         190.000                  
G03  24284276.743    24284275.013    24284278.896                    -1807725.325 7  -1807725.322 6                  -1408616.245 6        81.000          25.000          30.000                  
G08  22156339.956    22156339.078    22156342.988                   -13438537.793 8 -13438537.797 8                 -10471585.921 8       219.000         126.000         298.000                  
G10  21371283.675    21371283.504    21371286.041                   -18327250.928 8 -18327250.926 8                 -14280974.973 9       423.000         444.000         624.000                  
G21  20169499.308    20169498.068    20169498.218                   -24891917.760 9 -24891917.762 8                 -19396299.062 8       610.000         351.000         305.000                  
G27  24293631.291    24293630.848    24293633.376                    -2842549.445 7  -2842549.436 6                  -2214974.501 6        86.000          24.000          28.000                  
G28  24121156.158    24121154.574    24121155.377                    -4711416.026 8  -4711416.007 6                  -3671228.539 6       134.000          34.000          24.000                  
G32  20177692.392    20177692.017    20177694.317                   -24775922.485 9 -24775922.486 9                 -19305909.837 9       945.000        2224.000        1348.000                  
> 2024 10 31 03 25 20.0000000  0  8
G02  21295382.342    21295381.300    21295379.348                   -20618065.933 8 -20618065.932 8                 -16066025.346 8       494.000         195.000         194.000                  
G03  24306445.139    24306444.201    24306447.822                    -1691226.121 7  -1691226.133 6                  -1317837.468 6        81.000          24.000          34.000                  
G08  22219591.475    22219590.193    22219594.069                   -13106150.246 8 -13106150.255 8                 -10212582.603 8       222.000         119.000         279.000                  
G10  21345266.700    21345266.225    21345268.966                   -18463971.826 8 -18463971.825 8                 -14387510.718 9       434.000         453.000         670.000                  
G21  20168074.181    20168073.336    20168073.317                   -24899405.710 9 -24899405.712 8                 -19402133.800 8       625.000         366.000         308.000                  
G27  24372962.471    24372961.428    24372964.153                    -2425662.395 7  -2425662.402 6                  -1890127.503 6        78.000          25.000          24.000                  
G28  24148746.778    24148744.971    24148746.282                    -4566429.239 8  -4566429.239 6                  -3558251.827 6       134.000          33.000          20.000                  
G32  20171012.621    20171012.244    20171014.482                   -24811024.900 9 -24811024.901 9                 -19333262.330 9       963.000        2328.000        1390.000                  
> 2024 10 31 03 25 30.0000000  0  8
G02  21279694.445    21279693.174    21279690.916                   -20700508.018 8 -20700508.019 8                 -16130265.903 8       482.000         190.000         210.000                  
G03  24328860.093    24328861.271    24328864.166                    -1573424.418 7  -1573424.439 6                  -1226043.778 6        75.000          28.000          43.000                  
G08  22283464.416    22283463.742    22283467.410                   -12770494.250 8 -12770494.252 8                  -9951032.414 8       220.000         119.000         294.000                  
G10  21319895.641    21319895.128    21319897.821                   -18597298.046 8 -18597298.045 8                 -14491401.251 9       434.000         456.000         766.000                  
G21  20167744.039    20167743.036    20167743.146                   -24901140.592 9 -24901140.594 8                 -19403485.610 8       608.000         354.000         346.000                  
G27  24452482.718    24452480.958    24452484.061                    -2007782.524 7  -2007782.537 6                  -1564506.849 6        70.000          24.000          23.000                  
G28  24176492.127    24176492.433    24176491.408                    -4420615.681 8  -4420615.653 6                  -3444630.823 6       128.000          27.000          23.000                  
G32  20165036.732    20165036.471    20165038.733                   -24842427.600 9 -24842427.602 9                 -19357731.946 9       927.000        2162.000        1516.000                  
> 2024 10 31 03 25 40.0000000  0  8
G02  21264922.924    21264921.829    21264919.947                   -20778131.507 8 -20778131.508 8                 -16190751.727 8       497.000         201.000         184.000                  
G03  24351524.564    24351524.001    24351526.210                    -1454328.186 7  -1454328.168 6                  -1133241.369 6        75.000          25.000          34.000                  
G08  22347946.235    22347945.274    22347948.942                   -12431641.278 8 -12431641.282 8                  -9686991.074 8       224.000         126.000         238.000                  
G10  21295173.424    21295172.962    21295175.548                   -18727214.004 8 -18727214.004 9                 -14592634.445 9       456.000         509.000         674.000                  
G21  20168509.302    20168508.044    20168508.301                   -24897119.889 9 -24897119.890 8                 -19400352.594 8       629.000         374.000         311.000                  
G27  24532178.728    24532176.912    24532180.888                    -1588975.208 7  -1588975.194 6                  -1238163.472 6        67.000          24.000          24.000                  
G28  24204393.764    24204393.938    24204395.510                    -4273991.174 8  -4273991.176 6                  -3330377.898 6       129.000          31.000          23.000                  
G32  20159765.360    20159765.092    20159767.384                   -24870128.690 9 -24870128.692 9                 -19379317.183 9       944.000        2225.000        1373.000                  
> 2024 10 31 03 25 50.0000000  0  8
G02  21251075.954    21251074.756    21251072.743                   -20850898.320 8 -20850898.321 8                 -16247453.135 8       499.000         195.000         187.000                  
G03  24374435.131    24374434.467    24374437.677                    -1333930.942 7  -1333930.931 6                  -1039425.160 6        73.000          27.000          37.000                  
G08  22413024.625    22413024.256    22413027.884                   -12089648.450 8 -12089648.452 8                  -9420503.107 8       223.000         121.000         215.000                  
G10  21271105.882    21271105.323    21271107.975                   -18853690.305 8 -18853690.305 9                 -14691187.389 9       469.000         527.000         683.000                  
G21  20170372.687    20170371.417    20170371.503                   -24887328.289 9 -24887328.291 8                 -19392722.778 8       637.000         379.000         312.000                  
G27  24612042.850    24612040.753    24612044.026                    -1169291.022 7  -1169291.034 6                   -911136.914 6        64.000          23.000          24.000                  
G28  24232449.550    24232449.763    24232449.874                    -4126557.356 8  -4126557.366 6                  -3215494.358 6       130.000          25.000          21.000                  
G32  20155201.496    20155201.137    20155203.392                   -24894112.630 9 -24894112.632 9                 -19398005.947 9       948.000        2260.000        1372.000                  
> 2024 10 31 03 26  0.0000000  0  8
G02  21238155.473    21238154.116    21238152.034                   -20918796.555 9 -20918796.556 8                 -16300360.835 8       519.000         210.000         177.000                  
G03  24397590.639    24397589.667    24397593.534                    -1212251.521 7  -1212251.512 6                   -944609.880 6        76.000          24.000          38.000                  
G08  22478685.632    22478685.205    22478688.324                   -11744597.868 8 -11744597.874 8                  -9151632.475 8       217.000         112.000         182.000                  
G10  21247693.460    21247693.008    21247695.563                   -18976723.169 8 -18976723.169 9                 -14787057.126 9       484.000         569.000         634.000                  
G21  20173331.873    20173330.687    20173330.875                   -24871777.153 9 -24871777.154 8                 -19380604.990 8       646.000         397.000         291.000                  
G27  24692058.038    24692056.392    24692061.221                     -748804.968 7   -748804.959 6                   -583485.446 6        66.000          23.000          22.000                  
G28  24260655.181    24260654.400    24260654.138                    -3978340.860 8  -3978340.877 6                  -3100001.011 6       131.000          31.000          20.000                  
G32  20151342.792    20151342.559    20151344.791                   -24914389.524 9 -24914389.525 9                 -19413806.106 9       953.000        2276.000        1275.000                  
> 2024 10 31 03 26 10.0000000  0  8
G02  21226166.163    21226164.936    21226163.205                   -20981799.681 9 -20981799.680 8                 -16349454.165 8       531.000         222.000         199.000                  
G03  24420989.764    24420987.280    24420990.133                    -1089292.440 7  -1089292.445 6                   -848797.281 6        73.000          28.000          46.000                  
G08  22544915.742    22544915.215    22544918.571                   -11396555.883 8 -11396555.890 8                  -8880430.910 8       206.000         104.000         177.000                  
G10  21224939.897    21224939.436    21224942.001                   -19096293.573 8 -19096293.573 9                 -14880228.852 9       495.000         581.000         657.000                  
G21  20177387.650    20177386.480    20177386.568                   -24850463.791 9 -24850463.793 8                 -19363997.182 8       649.000         393.000         323.000                  
G27  24772215.320    24772214.117    24772217.598                     -327575.754 7   -327575.766 6                   -255254.956 6        67.000          26.000          24.000                  
G28  24289006.711    24289005.749    24289005.232                    -3829352.011 8  -3829352.021 6                  -2983905.770 6       128.000          27.000          23.000                  
G32  20148190.527    20148190.224    20148192.560                   -24930954.324 9 -24930954.325 9                 -19426713.720 9       922.000        2110.000        1361.000                  
> 2024 10 31 03 26 20.0000000  0  8
G02  21215114.976    21215113.719    21215111.630                   -21039875.117 9 -21039875.119 8                 -16394707.748 8       530.000         228.000         219.000                  
G03  24444631.370    24444629.682    24444632.942                     -965050.878 7   -965050.856 6                   -751985.520 6        74.000          26.000          48.000                  
G08  22611704.008    22611703.592    22611707.043                   -11045581.329 8 -11045581.335 7                  -8606944.210 8       194.000          93.000         173.000                  
G10  21202850.274    21202849.665    21202852.192                   -19212375.896 8 -19212375.896 9                 -14970682.589 9       496.000         599.000         647.000                  
G21  20182541.665    20182540.384    20182540.479                   -24823379.743 9 -24823379.747 8                 -19342892.708 8       639.000         391.000         350.000                  
G27  24852503.811    24852503.103    24852506.512                       94345.755 7     94345.763 6                     73515.010 6        68.000          25.000          27.000                  
G28  24317502.976    24317504.021    24317505.020                    -3679594.308 8  -3679594.313 6                  -2867211.445 6       119.000          26.000          20.000                  
G32  20145747.014    20145746.661    20145748.950                   -24943795.405 9 -24943795.406 9                 -19436719.734 9       906.000        2052.000        1450.000                  
> 2024 10 31 03 26 30.0000000  0  8
G02  21205001.900    21205000.769    21204998.467                   -21093019.629 9 -21093019.628 8                 -16436119.048 8       554.000         245.000         205.000                  
G03  24468510.208    24468511.749    24468515.067                     -839550.483 7   -839550.512 6                   -654192.859 6        80.000          32.000          39.000                  
G08  22679033.741    22679033.008    22679036.734                   -10691761.234 8 -10691761.239 7                  -8331240.207 8       193.000          92.000         160.000                  
G10  21181423.610    21181423.214    21181425.606                   -19324973.217 9 -19324973.217 9                 -15058420.739 9       525.000         666.000         590.000                  
G21  20188789.398    20188788.392    20188788.475                   -24790546.462 9 -24790546.466 8                 -19317308.336 8       653.000         394.000         321.000                  
G27  24932909.730    24932908.946    24932912.585                      516881.109 7    516881.127 6                    402763.307 6        74.000          22.000          27.000                  
G28  24346142.303    24346142.220    24346142.534                    -3529099.020 8  -3529099.000 6                  -2749942.326 6       117.000          21.000          19.000                  
G32  20144008.645    20144008.432    20144010.689                   -24952929.927 9 -24952929.927 9                 -19443837.517 9       940.000        2209.000        1300.000                  
> 2024 10 31 03 26 40.0000000  0  8
G02  21195832.675    21195831.468    21195829.436                   -21141203.730 9 -21141203.730 8                 -16473665.095 8       545.000         237.000         196.000                  
G03  24492634.344    24492633.887    24492636.813                     -712788.017 7   -712787.996 6                   -555416.765 6        78.000          30.000          47.000                  
G08  22746893.524    22746893.187    22746896.994                   -10335154.940 8 -10335154.939 7                  -8053365.133 8       186.000          86.000         144.000                  
G10  21160664.673    21160664.345    21160666.704                   -19434061.660 9 -19434061.658 9                 -15143424.702 9       523.000         664.000         533.000                  
G21  20196132.534    20196131.234    20196131.146                   -24751959.359 9 -24751959.361 8                 -19287240.451 8       640.000         390.000         280.000                  
G27  25013422.000    25013422.277    25013425.700                      939979.893 7    939979.907 6                    732450.617 6        70.000          26.000          20.000                  
G28  24374920.023    24374920.024    24374919.673                    -3377870.042 8  -3377870.061 6                  -2632101.597 6       116.000          34.000          21.000                  
G32  20142977.555    20142977.358    20142979.557                   -24958348.152 9 -24958348.153 9                 -19448059.495 9       915.000        2105.000        1171.000                  
> 2024 10 31 03 26 50.0000000  0  8
G02  21187612.515    21187611.229    21187609.232                   -21184401.238 9 -21184401.240 8                 -16507325.485 8       539.000         231.000         216.000                  
