     3.03           OBSERVATION DATA    M (MIXED)           RINEX VERSION / TYPE
BJPP                CNES                20241031 160231 UTC PGM / RUN BY / DATE 
MARKER                                                      MARKER NAME         
SPACECRAFT                                                  MARKER TYPE         
OBSERVER            CNES                                    OBSERVER / AGENCY   
RECNUM              BLACKJACK           RECVERS             REC # / TYPE / VERS 
ANTNUM              BLACKJACK                               ANT # / TYPE        
        0.0000        0.0000        0.0000                  ANTENNA: DELTA H/E/N
G   12 C1C C1W C2W C2X L1C L1W L2X L2W S1C S1W S2W S2X      SYS / # / OBS TYPES 
DBHZ                                                        SIGNAL STRENGTH UNIT
This rinex produced from the following file(s):             COMMENT             
/tmp/mesos_work/slaves/d197f515-9ebc-49f2-8adc-fe7a9d3e6458-COMMENT             
S44/frameworks/8c1b9f46-52ed-4aff-9edf-38d17bf6761e-3268/exeCOMMENT             
cutors/toil-84222/runs/ea83cc72-73ec-4d95-a610-712c95a797d5/COMMENT             
beb63b58bc9f5106b54c6bf0e9153e25/4502/cd72/tmpzkdju4szhvomehCOMMENT             
ze/stg2c25579f-77db-4ac8-bea4-dc1397054f5b/SWOT_IVK_20241031COMMENT             
T152202_20241031T122349_20241031T140320_O_APID1280.PTM_0    COMMENT             
  2024    10    31    12    23   30.0000000                 TIME OF FIRST OBS   
G L1C                                                       SYS / PHASE SHIFT   
G L1W -0.25000                                              SYS / PHASE SHIFT   
G L2W                                                       SYS / PHASE SHIFT   
G L2X  0.25000                                              SYS / PHASE SHIFT   
                                                            END OF HEADER       
> 2024 10 31 12 23 30.0000000  0 11
G05  23854736.095    23854735.905    23854737.853                    -5037419.141 8  -5037419.156 6                  -3925267.720 6       135.000          42.000          36.000                  
G07  20539906.571    20539906.043    20539906.540                   -23828909.858 9 -23828909.858 9                 -18567983.402 9       602.000         825.000         598.000                  
G08  22118142.741    22118141.875    22118146.015                   -12062947.264 8 -12062947.266 8                  -9399699.869 8       238.000         130.000         267.000                  
G09  23810432.438    23810432.381    23810436.097                    -4194969.748 7  -4194969.735 6                  -3268811.314 6        93.000          28.000          28.000                  
G13  21581306.965    21581306.003    21581306.646                   -14646133.464 8 -14646133.435 6                 -11412489.431 7       226.000          36.000          58.000                  
G14  19983303.601    19983303.333    19983304.156                   -25143132.732 9 -25143132.732 9                 -19592050.641 8       611.000         502.000         269.000                  
G15  24563962.358    24563961.604    24563962.423                     3302253.480 7   3302253.482 6                   2573182.457 6        59.000          24.000          12.000                  
G17  23613552.125    23613519.341    23613554.706                    -2190323.899 7  -2190323.879 6                  -1706749.493 6        92.000          23.000          40.000                  
G22  21483921.018    21483919.890    21483920.692                   -17232426.240 8 -17232426.237 8                 -13427867.313 7       360.000         105.000          59.000                  
G27  25091765.689    25091766.573    25091771.454                     4210574.379 7   4210574.386 6                   3280961.448 6        56.000          25.000          21.000                  
G30  19552201.220    19552200.451    19552203.616                   -24639875.363 9 -24639875.363 9                 -19199906.670 9       931.000        2067.000        1252.000                  
> 2024 10 31 12 23 40.0000000  0 11
G05  23885635.488    23885635.917    23885637.001                    -4875041.563 8  -4875041.580 6                  -3798739.825 6       129.000          46.000          33.000                  
G07  20532141.426    20532140.878    20532141.351                   -23869716.237 9 -23869716.238 9                 -18599780.607 9       594.000         800.000         583.000                  
G08  22149242.639    22149242.041    22149246.128                   -11899515.311 8 -11899515.315 8                  -9272350.333 8       224.000         127.000         273.000                  
G09  23748229.047    23748228.843    23748231.352                    -4521855.160 7  -4521855.150 6                  -3523527.154 6        94.000          36.000          26.000                  
G13  21626380.005    21626379.144    21626379.799                   -14409272.841 8 -14409272.861 6                 -11227922.739 7       218.000          31.000          54.000                  
G14  19973179.833    19973179.592    19973180.641                   -25196333.093 9 -25196333.094 9                 -19633505.497 8       611.000         505.000         268.000                  
G15  24623491.443    24623491.776    24623494.042                     3615086.265 7   3615086.261 6                   2816948.090 6        58.000          20.000          19.000                  
G17  23536771.459    23536738.770    23536772.382                    -2593813.428 7  -2593813.405 6                  -2021156.816 6       100.000          19.000          45.000                  
G22  21460625.136    21460624.109    21460625.503                   -17354846.072 8 -17354846.077 8                 -13523259.389 7       361.000         102.000          61.000                  
G27  25149116.435    25149115.292    25149120.903                     4511944.181 7   4511944.175 6                   3515794.845 6        54.000          22.000          21.000                  
G30  19564383.427    19564382.948    19564386.068                   -24575855.990 9 -24575855.990 9                 -19150021.466 9       906.000        1965.000        1232.000                  
> 2024 10 31 12 23 50.0000000  0 11
G05  23916694.689    23916694.234    23916695.129                    -4711830.107 8  -4711830.103 6                  -3671562.179 6       129.000          48.000          30.000                  
G07  20525105.846    20525105.154    20525105.659                   -23906689.289 9 -23906689.290 9                 -18628590.802 9       601.000         822.000         551.000                  
G08  22181102.589    22181102.222    22181106.210                   -11732089.524 8 -11732089.529 8                  -9141888.714 8       220.000         123.000         278.000                  
G09  23686173.800    23686173.201    23686176.723                    -4847957.897 8  -4847957.895 6                  -3777633.117 6       102.000          35.000          27.000                  
G13  21671825.448    21671825.073    21671825.489                   -14170454.209 8 -14170454.220 6                 -11041830.361 6       203.000          34.000          47.000                  
G14  19964066.494    19964066.148    19964067.029                   -25244225.128 9 -25244225.127 9                 -19670823.986 8       630.000         519.000         256.000                  
G15  24683050.409    24683048.471    24683048.815                     3928056.812 7   3928056.815 6                   3060820.854 6        53.000          19.000          18.000                  
G17  23460195.233    23460161.898    23460196.172                    -2996223.790 8  -2996223.801 6                  -2334723.236 6       115.000          19.000          44.000                  
G22  21438103.132    21438102.032    21438102.670                   -17473200.597 8 -17473200.600 7                 -13615483.693 7       363.000         100.000          58.000                  
G27  25206709.219    25206708.590    25206711.998                     4814595.834 7   4814595.834 6                   3751627.139 6        51.000          18.000          21.000                  
G30  19577433.697    19577433.135    19577436.365                   -24507276.827 9 -24507276.826 9                 -19096583.185 9       892.000        1907.000        1192.000                  
> 2024 10 31 12 24  0.0000000  0 11
G05  23947910.354    23947909.540    23947911.301                    -4547790.601 8  -4547790.590 6                  -3543739.280 6       130.000          44.000          34.000                  
G07  20518802.357    20518801.989    20518802.466                   -23939813.103 9 -23939813.103 9                 -18654401.591 9       606.000         834.000         547.000                  
G08  22213717.766    22213716.958    22213720.999                   -11560698.325 8 -11560698.326 8                  -9008337.162 8       227.000         123.000         274.000                  
G09  23624275.442    23624276.090    23624278.821                    -5173231.084 8  -5173231.085 6                  -4031092.677 6       105.000          38.000          31.000                  
G13  21717641.353    21717640.863    21717640.808                   -13929691.689 8 -13929691.681 6                 -10854223.255 6       194.000          30.000          47.000                  
G14  19955969.198    19955968.958    19955970.084                   -25286776.023 9 -25286776.024 9                 -19703980.551 8       632.000         531.000         261.000                  
G15  24742630.379    24742630.121    24742632.015                     4241154.902 7   4241154.884 6                   3304793.449 6        52.000          19.000          16.000                  
G17  23383840.178    23383806.294    23383840.212                    -3397475.438 8  -3397475.464 6                  -2647386.774 6       127.000          19.000          46.000                  
G22  21416364.349    21416363.150    21416363.714                   -17587439.550 8 -17587439.550 8                 -13704501.059 7       370.000         104.000          63.000                  
G27  25264539.404    25264539.052    25264541.340                     5118492.433 7   5118492.456 6                   3988429.468 6        52.000          25.000          21.000                  
G30  19591351.316    19591350.798    19591353.990                   -24434139.614 9 -24434139.613 9                 -19039593.175 9       887.000        1890.000        1190.000                  
> 2024 10 31 12 24 10.0000000  0 10
G05  23979275.431    23979274.852    23979276.158                    -4382965.908 8  -4382965.910 6                  -3415304.570 6       128.000          46.000          34.000                  
G07  20513227.330    20513226.927    20513227.367                   -23969109.763 9 -23969109.763 9                 -18677230.179 9       612.000         851.000         557.000                  
G08  22247074.351    22247073.599    22247077.580                   -11385408.050 8 -11385408.052 8                  -8871747.378 8       222.000         121.000         272.000                  
G09  23562539.568    23562538.201    23562541.609                    -5497664.872 8  -5497664.872 6                  -4283898.171 6       107.000          40.000          31.000                  
G13  21763817.474    21763816.010    21763817.657                   -13687036.631 8 -13687036.612 6                 -10665141.446 6       191.000          31.000          49.000                  
G14  19948887.411    19948887.013    19948888.170                   -25323991.619 9 -25323991.620 9                 -19732979.726 8       627.000         521.000         269.000                  
G15  24802223.204    24802225.807    24802226.955                     4554333.297 6   4554333.305 6                   3548830.284 6        50.000          19.000          21.000                  
G17  23307713.573    23307679.873    23307712.970                    -3797525.654 8  -3797525.660 6                  -2959114.140 7       133.000          25.000          59.000                  
G22  21395410.602    21395409.550    21395410.981                   -17697550.558 8 -17697550.562 8                 -13790301.845 7       372.000         107.000          68.000                  
G30  19606128.925    19606128.100    19606131.307                   -24356484.296 9 -24356484.296 9                 -18979082.557 9       881.000        1854.000        1188.000                  
> 2024 10 31 12 24 20.0000000  0 10
G05  24010786.105    24010786.115    24010786.901                    -4217373.283 8  -4217373.283 6                  -3286271.446 6       128.000          49.000          35.000                  
G07  20508381.425    20508380.855    20508381.269                   -23994576.420 9 -23994576.420 9                 -18697074.353 9       619.000         860.000         551.000                  
G08  22281164.608    22281164.652    22281168.401                   -11206260.032 8 -11206260.032 8                  -8732151.566 8       217.000         124.000         266.000                  
G09  23500967.519    23500966.641    23500970.244                    -5821223.505 8  -5821223.499 6                  -4536021.719 6       115.000          43.000          38.000                  
G13  21810348.031    21810346.962    21810348.057                   -13442514.699 8 -13442514.680 6                 -10474604.920 6       189.000          33.000          41.000                  
G14  19942824.194    19942823.896    19942825.200                   -25355853.437 9 -25355853.438 9                 -19757807.129 8       623.000         526.000         268.000                  
G15  24861830.131    24861832.913    24861833.813                     4867570.787 6   4867570.785 6                   3792911.277 6        49.000          21.000          20.000                  
G17  23231827.652    23231795.417    23231828.754                    -4196305.482 8  -4196305.512 6                  -3269851.588 7       131.000          19.000          64.000                  
G22  21375250.181    21375248.688    21375249.418                   -17803496.555 8 -17803496.553 8                 -13872857.173 7       373.000         105.000          58.000                  
G30  19621763.073    19621762.255    19621765.440                   -24274326.060 9 -24274326.060 9                 -18915063.172 9       870.000        1807.000        1139.000                  
> 2024 10 31 12 24 30.0000000  0  9
G05  24042445.649    24042444.105    24042446.130                    -4051007.283 8  -4051007.277 6                  -3156635.698 6       125.000          41.000          31.000                  
G07  20504268.824    20504268.228    20504268.702                   -24016188.399 9 -24016188.400 9                 -18713914.882 9       622.000         882.000         546.000                  
G08  22315986.342    22315985.503    22315989.439                   -11023273.678 8 -11023273.687 8                  -8589564.847 8       217.000         111.000         255.000                  
G09  23439574.064    23439573.367    23439576.547                    -6143848.455 8  -6143848.448 6                  -4787417.730 6       116.000          47.000          38.000                  
G13  21857233.511    21857232.399    21857233.868                   -13196128.933 8 -13196128.920 6                 -10282616.083 6       186.000          28.000          36.000                  
G14  19937787.462    19937787.174    19937788.122                   -25382321.871 9 -25382321.872 8                 -19778431.909 8       609.000         494.000         255.000                  
G17  23156201.406    23156169.370    23156201.538                    -4593722.743 8  -4593722.729 6                  -3579527.275 7       132.000          16.000          83.000                  
G22  21355892.721    21355891.699    21355892.067                   -17905218.743 8 -17905218.738 8                 -13952121.217 7       373.000         110.000          62.000                  
G30  19638255.098    19638254.575    19638257.767                   -24187658.552 9 -24187658.551 9                 -18847530.072 9       853.000        1733.000        1105.000                  
> 2024 10 31 12 24 40.0000000  0  9
G05  24074242.062    24074241.470    24074241.997                    -3883916.112 8  -3883916.102 6                  -3026434.884 6       122.000          39.000          36.000                  
G07  20500883.925    20500883.631    20500884.062                   -24033975.536 9 -24033975.537 9                 -18727775.026 9       622.000         882.000         547.000                  
G08  22351523.441    22351523.074    22351526.967                   -10836522.901 8 -10836522.912 8                  -8444044.810 8       210.000         102.000         245.000                  
G09  23378357.953    23378358.597    23378362.045                    -6465534.810 8  -6465534.809 6                  -5038082.365 6       123.000          45.000          45.000                  
G13  21904462.418    21904462.520    21904462.881                   -12947936.132 8 -12947936.127 6                 -10089219.145 6       181.000          26.000          38.000                  
G14  19933773.982    19933773.724    19933774.789                   -25403412.586 9 -25403412.587 8                 -19794866.255 8       595.000         478.000         257.000                  
G17  23080841.754    23080809.362    23080842.991                    -4989738.761 8  -4989738.774 6                  -3888111.090 7       133.000          18.000          95.000                  
G22  21337340.341    21337339.059    21337340.024                   -18002712.863 8 -18002712.866 8                 -14028090.675 7       376.000         117.000          63.000                  
G30  19655596.340    19655595.699    19655598.900                   -24096530.132 9 -24096530.132 9                 -18776520.942 9       834.000        1661.000        1078.000                  
> 2024 10 31 12 24 50.0000000  0  9
G05  24106175.051    24106176.059    24106177.381                    -3716096.974 8  -3716096.961 6                  -2895666.816 6       119.000          41.000          34.000                  
G07  20498231.199    20498230.495    20498230.924                   -24047917.577 9 -24047917.577 9                 -18738638.970 9       625.000         879.000         545.000                  
G08  22387773.059    22387772.347    22387776.385                   -10646031.205 8 -10646031.209 7                  -8295609.773 8       205.000          99.000         237.000                  
G09  23317333.762    23317332.515    23317336.285                    -6786226.534 8  -6786226.543 6                  -5287971.956 7       116.000          43.000          54.000                  
G13  21952035.520    21952035.021    21952035.865                   -12697942.285 8 -12697942.273 6                  -9894418.789 6       179.000          29.000          42.000                  
G14  19930790.113    19930790.100    19930791.171                   -25419091.726 9 -25419091.726 8                 -19807083.787 8       581.000         454.000         247.000                  
G17  23005766.013    23005733.033    23005767.324                    -5384263.154 8  -5384263.183 6                  -4195532.603 8       145.000          21.000         102.000                  
G22  21319602.862    21319601.571    21319602.685                   -18095924.568 8 -18095924.572 8                 -14100723.166 7       379.000         119.000          61.000                  
G30  19673786.754    19673786.125    19673789.366                   -24000939.129 9 -24000939.128 9                 -18702034.472 9       818.000        1597.000        1018.000                  
> 2024 10 31 12 25  0.0000000  0  9
G05  24138242.579    24138241.729    24138243.721                    -3547590.670 8  -3547590.671 6                  -2764363.323 6       118.000          43.000          35.000                  
G07  20496305.106    20496304.552    20496304.906                   -24058038.750 9 -24058038.751 9                 -18746525.627 9       622.000         873.000         548.000                  
G08  22424721.266    22424721.084    22424724.670                   -10451866.651 8 -10451866.660 7                  -8144312.775 8       204.000         100.000         219.000                  
G09  23256499.184    23256498.792    23256502.638                    -7105911.240 8  -7105911.249 6                  -5537076.876 6       121.000          46.000          49.000                  
G13  21999940.503    21999939.712    21999940.988                   -12446197.266 8 -12446197.252 6                  -9698253.924 6       181.000          25.000          46.000                  
G14  19928834.568    19928834.111    19928835.280                   -25429370.787 9 -25429370.789 8                 -19815093.467 8       571.000         441.000         254.000                  
G17  22930983.096    22930949.693    22930984.416                    -5777249.101 8  -5777249.117 6                  -4501755.342 8       166.000          21.000         103.000                  
G22  21302682.052    21302680.733    21302681.669                   -18184844.464 8 -18184844.463 8                 -14170011.415 7       382.000         113.000          62.000                  
G30  19692818.136    19692817.434    19692820.671                   -23900928.685 9 -23900928.685 9                 -18624104.286 9       802.000        1543.000         962.000                  
> 2024 10 31 12 25 10.0000000  0  9
G05  24170436.768    24170436.353    24170437.759                    -3378406.888 8  -3378406.876 6                  -2632531.938 6       115.000          44.000          24.000                  
G07  20495107.415    20495106.798    20495107.244                   -24064332.994 9 -24064332.994 9                 -18751430.258 9       618.000         864.000         549.000                  
G08  22462361.681    22462360.858    22462364.808                   -10254066.654 8 -10254066.653 7                  -7990182.971 8       198.000          98.000         220.000                  
G09  23195865.411    23195864.312    23195868.547                    -7424545.234 8  -7424545.248 6                  -5785363.055 7       123.000          46.000          51.000                  
G13  22048177.081    22048175.290    22048175.779                   -12192719.665 8 -12192719.682 6                  -9500738.946 6       177.000          29.000          37.000                  
G14  19927909.448    19927909.008    19927910.470                   -25434231.584 9 -25434231.584 8                 -19818881.123 8       586.000         463.000         268.000                  
G17  22856508.191    22856475.611    22856509.155                    -6168618.107 8  -6168618.102 6                  -4806718.135 8       182.000          19.000         105.000                  
G22  21286585.448    21286584.098    21286584.915                   -18269432.837 8 -18269432.841 8                 -14235924.443 7       386.000         117.000          64.000                  
G30  19712688.016    19712687.336    19712690.653                   -23796511.665 9 -23796511.665 9                 -18542740.402 9       799.000        1521.000         945.000                  
> 2024 10 31 12 25 20.0000000  0 10
G02  24663975.230    24663976.270    24663999.439                     -364766.960 7   -364766.952 6                   -284236.129 6        96.000          19.000          15.000                  
G05  24202757.823    24202757.393    24202759.147                    -3208557.500 8  -3208557.509 6                  -2500181.850 6       117.000          36.000          27.000                  
G07  20494638.318    20494637.810    20494638.288                   -24066797.381 9 -24066797.381 9                 -18753350.588 9       613.000         858.000         544.000                  
G08  22500686.194    22500685.300    22500689.125                   -10052671.585 8 -10052671.585 7                  -7833251.808 8       192.000          90.000         211.000                  
G09  23135439.608    23135437.937    23135441.706                    -7742086.984 8  -7742086.992 6                  -6032798.163 7       122.000          48.000          51.000                  
G13  22096737.074    22096736.648    22096737.439                   -11937530.508 8 -11937530.517 6                  -9301890.325 6       175.000          27.000          42.000                  
G14  19928018.182    19928018.046    19928019.116                   -25433659.764 9 -25433659.764 8                 -19818435.583 8       598.000         490.000         266.000                  
G17  22782355.412    22782322.817    22782356.528                    -6558293.547 8  -6558293.533 6                  -5110361.283 7       193.000          19.000         100.000                  
G22  21271319.834    21271318.851    21271318.963                   -18349653.251 8 -18349653.252 8                 -14298433.884 7       390.000         116.000          60.000                  
G30  19733393.395    19733392.763    19733395.954                   -23687704.227 9 -23687704.226 9                 -18457955.415 9       797.000        1532.000         884.000                  
> 2024 10 31 12 25 30.0000000  0 10
G02  24623705.545    24623705.771    24623723.249                     -576379.551 7   -576379.545 6                   -449128.822 6        95.000          20.000          17.000                  
G05  24235199.496    24235197.910    24235199.424                    -3038084.997 8  -3038084.984 6                  -2367346.237 6       116.000          31.000          27.000                  
G07  20494892.811    20494892.261    20494892.748                   -24065460.349 9 -24065460.350 9                 -18752308.775 9       610.000         848.000         546.000                  
G08  22539680.264    22539679.868    22539684.063                    -9847753.012 8  -9847753.013 7                  -7673575.058 8       190.000          88.000         210.000                  
G09  23075222.191    23075222.012    23075225.670                    -8058525.511 8  -8058525.511 6                  -6279373.589 7       125.000          48.000          55.000                  
G13  22145613.905    22145613.501    22145613.306                   -11680681.465 8 -11680681.468 6                  -9101748.290 6       173.000          31.000          35.000                  
G14  19929157.461    19929157.210    19929158.362                   -25427673.184 9 -25427673.186 9                 -19813770.736 8       614.000         504.000         277.000                  
G17  22708533.520    22708501.196    22708534.921                    -6946229.150 8  -6946229.151 6                  -5412648.717 8       202.000          18.000         107.000                  
G22  21256886.155    21256885.678    21256885.958                   -18425500.959 8 -18425500.962 8                 -14357536.007 7       390.000         119.000          68.000                  
G30  19754925.318    19754924.506    19754927.753                   -23574554.089 9 -23574554.088 9                 -18369786.506 9       807.000        1561.000         877.000                  
> 2024 10 31 12 25 40.0000000  0 10
G02  24583892.713    24583891.924    24583924.540                     -785605.728 7   -785605.727 6                   -612164.102 6        94.000          22.000          15.000                  
G05  24267758.113    24267757.436    24267758.088                    -2866986.629 8  -2866986.627 6                  -2234022.953 6       116.000          37.000          23.000                  
G07  20495873.435    20495873.132    20495873.732                   -24060305.951 9 -24060305.951 9                 -18748292.392 9       609.000         847.000         526.000                  
G08  22579340.298    22579340.004    22579344.198                    -9639337.891 8  -9639337.897 7                  -7511173.728 8       187.000          87.000         205.000                  
G09  23015226.731    23015226.626    23015230.074                    -8373804.450 8  -8373804.449 7                  -6525045.452 7       126.000          56.000          65.000                  
G13  22194805.122    22194804.509    22194805.275                   -11422179.041 8 -11422179.029 6                  -8900317.885 6       177.000          23.000          40.000                  
G14  19931332.099    19931331.758    19931332.893                   -25416246.007 9 -25416246.009 9                 -19804866.459 8       626.000         529.000         275.000                  
G17  22635060.868    22635026.284    22635060.791                    -7332332.900 8  -7332332.893 6                  -5713508.736 8       203.000          23.000         114.000                  
G22  21243294.467    21243293.251    21243293.733                   -18496927.164 8 -18496927.164 8                 -14413192.815 7       392.000         123.000          60.000                  
G30  19777282.785    19777282.124    19777285.264                   -23457064.654 9 -23457064.654 9                 -18278236.325 9       822.000        1611.000         855.000                  
> 2024 10 31 12 25 50.0000000  0 10
G02  24544538.296    24544536.472    24544550.866                     -992415.371 7   -992415.396 6                   -773312.503 6        92.000          21.000          18.000                  
G05  24300430.937    24300430.200    24300430.849                    -2695288.010 8  -2695288.017 6                  -2100231.907 6       112.000          38.000          26.000                  
G07  20497578.270    20497577.813    20497578.419                   -24051347.576 9 -24051347.576 9                 -18741311.874 9       605.000         831.000         546.000                  
G08  22619655.962    22619654.699    22619658.919                    -9427482.244 8  -9427482.250 7                  -7346091.470 8       189.000          83.000         206.000                  
G09  22955457.813    22955456.856    22955460.461                    -8687895.949 8  -8687895.955 7                  -6769792.051 7       133.000          56.000          67.000                  
G13  22244304.399    22244303.815    22244305.122                   -11162058.273 8 -11162058.276 6                  -8697626.440 6       179.000          25.000          44.000                  
G14  19934541.179    19934540.813    19934541.889                   -25399382.501 9 -25399382.503 9                 -19791726.087 8       633.000         536.000         282.000                  
G17  22561948.393    22561913.470    22561948.862                    -7716541.021 8  -7716541.026 6                  -6012891.643 8       199.000          20.000         145.000                  
G22  21230547.439    21230546.485    21230547.443                   -18563912.441 8 -18563912.440 8                 -14465389.143 7       390.000         125.000          64.000                  
G30  19800459.814    19800459.056    19800462.292                   -23335268.832 9 -23335268.831 9                 -18183330.515 9       824.000        1622.000         881.000                  
> 2024 10 31 12 26  0.0000000  0 10
G02  24505648.029    24505644.219    24505680.220                    -1196786.815 7  -1196786.814 6                   -932565.265 6        87.000          19.000          13.000                  
G05  24333212.685    24333211.036    24333212.404                    -2523023.215 8  -2523023.222 6                  -1965999.730 6       109.000          35.000          24.000                  
G07  20500002.544    20500002.162    20500002.780                   -24038607.438 9 -24038607.438 9                 -18731384.530 9       605.000         824.000         531.000                  
G08  22660612.864    22660612.258    22660616.460                    -9212250.777 8  -9212250.787 7                  -7178378.709 8       190.000          87.000         199.000                  
G09  22895917.842    22895916.919    22895920.264                    -9000780.154 8  -9000780.160 7                  -7013597.894 7       142.000          57.000          72.000                  
G13  22294104.259    22294103.621    22294104.307                   -10900362.497 8 -10900362.494 6                  -8493707.722 6       184.000          27.000          46.000                  
G14  19938782.055    19938781.682    19938782.749                   -25377096.672 9 -25377096.674 9                 -19774360.525 8       632.000         534.000         286.000                  
G17  22489206.591    22489172.632    22489208.217                    -8098797.543 8  -8098797.552 6                  -6310753.823 8       210.000          18.000         173.000                  
G22  21218647.681    21218646.821    21218647.322                   -18626446.830 8 -18626446.829 8                 -14514117.252 7       402.000         135.000          66.000                  
G30  19824448.403    19824447.576    19824450.783                   -23209208.518 9 -23209208.516 9                 -18085101.726 9       831.000        1648.000         862.000                  
> 2024 10 31 12 26 10.0000000  0 10
G02  24467232.259    24467229.197    24467243.417                    -1398657.704 7  -1398657.743 6                  -1089864.873 6        85.000          19.000          15.000                  
G05  24366102.814    24366101.371    24366102.508                    -2350184.681 8  -2350184.685 6                  -1831320.464 6       110.000          36.000          25.000                  
G07  20503150.031    20503149.662    20503150.160                   -24022067.892 9 -24022067.892 9                 -18718496.609 9       603.000         833.000         536.000                  
G08  22702207.758    22702207.345    22702211.278                    -8993667.673 8  -8993667.684 7                  -7008054.281 8       184.000          82.000         206.000                  
G09  22836618.341    22836618.525    22836621.980                    -9312396.097 8  -9312396.107 7                  -7256415.488 7       139.000          60.000          82.000                  
G13  22344202.630    22344201.394    22344202.404                   -10637093.884 8 -10637093.864 6                  -8288563.428 6       188.000          33.000          38.000                  
G14  19944059.418    19944059.238    19944060.373                   -25349363.023 9 -25349363.024 9                 -19752749.912 8       629.000         529.000         288.000                  
G17  22416856.375    22416822.826    22416856.967                    -8479005.100 8  -8479005.078 6                  -6607019.404 8       225.000          20.000         215.000                  
G22  21207604.449    21207603.331    21207603.832                   -18684480.333 8 -18684480.333 8                 -14559338.185 7       412.000         133.000          71.000                  
G30  19849248.078    19849247.290    19849250.386                   -23078885.482 9 -23078885.481 9                 -17983551.337 9       840.000        1687.000         873.000                  
> 2024 10 31 12 26 20.0000000  0 10
G02  24429293.305    24429289.865    24429324.459                    -1598028.026 7  -1598028.035 6                  -1245220.741 6        86.000          22.000          18.000                  
G05  24399090.051    24399090.220    24399091.717                    -2176826.930 8  -2176826.924 6                  -1696236.644 6       107.000          32.000          24.000                  
G07  20507012.038    20507011.585    20507012.041                   -24001773.728 9 -24001773.728 9                 -18702683.019 9       608.000         840.000         523.000                  
G08  22744424.794    22744423.453    22744427.502                    -8771819.434 8  -8771819.444 7                  -6835185.595 8       184.000          85.000         201.000                  
G09  22777561.403    22777560.992    22777564.245                    -9622744.593 8  -9622744.595 7                  -7498245.464 7       143.000          64.000          88.000                  
G13  22394587.416    22394586.946    22394587.857                   -10372316.595 8 -10372316.601 6                  -8082243.551 6       191.000          27.000          39.000                  
G14  19950366.542    19950366.208    19950367.416                   -25316219.499 9 -25316219.499 9                 -19726923.815 8       621.000         520.000         271.000                  
G17  22344901.992    22344869.098    22344902.599                    -8857127.714 8  -8857127.700 6                  -6901660.363 8       238.000          19.000         229.000                  
G22  21197415.093    21197413.726    21197414.915                   -18738025.972 8 -18738025.975 8                 -14601062.093 7       418.000         132.000          84.000                  
G30  19874846.656    19874845.886    19874849.064                   -22944364.211 9 -22944364.210 9                 -17878729.601 9       847.000        1706.000         873.000                  
> 2024 10 31 12 26 30.0000000  0 10
G02  24391842.606    24391838.372    24391840.135                    -1794835.826 7  -1794835.832 6                  -1398571.463 6        88.000          21.000          21.000                  
G05  24432179.546    24432179.525    24432180.094                    -2002942.115 8  -2002942.127 6                  -1560742.117 6       107.000          36.000          26.000                  
G07  20511591.670    20511591.170    20511591.507                   -23977708.101 9 -23977708.100 9                 -18683930.625 9       609.000         836.000         506.000                  
G08  22787257.843    22787256.859    22787260.756                    -8546730.704 8  -8546730.709 7                  -6659791.854 8       186.000          87.000         181.000                  
G09  22718757.090    22718756.383    22718759.865                    -9931763.960 8  -9931763.965 7                  -7739039.765 7       146.000          75.000          90.000                  
G13  22445259.924    22445259.136    22445260.653                   -10106032.418 8 -10106032.377 6                  -7874749.465 6       198.000          25.000          44.000                  
G14  19957707.366    19957707.160    19957708.243                   -25277643.208 9 -25277643.208 9                 -19696864.397 8       621.000         522.000         271.000                  
G17  22273363.106    22273332.873    22273363.884                    -9233066.877 8  -9233066.869 6                  -7194599.936 8       241.000          19.000         239.000                  
G22  21188089.008    21188087.993    21188088.706                   -18787035.467 8 -18787035.470 8                 -14639251.343 7       429.000         146.000          89.000                  
G30  19901243.532    19901242.855    19901246.058                   -22805647.662 9 -22805647.662 9                 -17770638.822 9       846.000        1714.000         893.000                  
> 2024 10 31 12 26 40.0000000  0 10
G02  24354882.156    24354881.149    24354882.688                    -1989049.284 7  -1989049.322 6                  -1549906.549 6        90.000          19.000          16.000                  
G05  24465364.843    24465365.361    24465366.588                    -1828551.960 8  -1828551.958 6                  -1424853.779 6       111.000          30.000          21.000                  
G07  20516886.324    20516885.736    20516886.090                   -23949884.742 9 -23949884.742 9                 -18662250.130 9       615.000         863.000         516.000                  
G08  22830697.065    22830695.566    22830699.661                    -8318456.195 8  -8318456.197 7                  -6481915.694 8       188.000          79.000         172.000                  
G09  22660211.321    22660211.028    22660214.644                   -10239422.172 8 -10239422.185 7                  -7978773.429 7       147.000          65.000          99.000                  
G13  22496214.168    22496212.243    22496214.006                    -9838272.954 8  -9838272.948 6                  -7666105.828 6       204.000          32.000          46.000                  
G14  19966080.499    19966080.078    19966081.539                   -25233642.537 9 -25233642.537 9                 -19662578.200 8       610.000         511.000         263.000                  
G17  22202253.033    22202238.798    22202253.417                    -9606753.421 8  -9606753.422 7                  -7485784.226 8       255.000          59.000         253.000                  
G22  21179629.167    21179628.254    21179629.086                   -18831491.417 8 -18831491.418 8                 -14673892.382 7       438.000         154.000          83.000                  
G30  19928432.443    19928431.681    19928434.800                   -22662769.313 9 -22662769.313 9                 -17659305.081 9       842.000        1689.000         908.000                  
> 2024 10 31 12 26 50.0000000  0 11
G02  24318424.527    24318420.752    24318423.749                    -2180651.211 7  -2180651.206 6                  -1699206.783 6        93.000          26.000          18.000                  
G05  24498641.943    24498639.586    24498641.066                    -1653692.250 8  -1653692.254 6                  -1288599.645 6       105.000          38.000          23.000                  
G07  20522890.414    20522890.001    20522890.471                   -23918332.255 9 -23918332.254 9                 -18637663.826 9       607.000         833.000         542.000                  
G08  22874729.053    22874727.910    22874732.155                    -8087065.336 8  -8087065.336 7                  -6301611.209 8       184.000          75.000         162.000                  
G09  22601928.014    22601927.679    22601931.940                   -10545701.377 8 -10545701.381 7                  -8217432.547 8       150.000          70.000         107.000                  
G13  22547437.807    22547437.585    22547438.665                    -9569083.944 8  -9569083.963 6                  -7456348.229 6       206.000          35.000          37.000                  
G14  19975481.145    19975480.915    19975482.091                   -25184241.678 9 -25184241.676 9                 -19624084.061 8       616.000         504.000         284.000                  
G17  22131581.824    22131581.053    22131582.717                    -9978132.140 8  -9978132.145 8                  -7775170.218 8       263.000         148.000         272.000                  
G21  23978819.714    23978788.974    23978802.637                      -49399.537 7    -49399.518 6                    -38496.156 6        74.000          18.000          18.000                  
G22  21172036.592    21172035.355    21172036.552                   -18871391.819 8 -18871391.824 8                 -14704983.637 7       439.000         152.000          86.000                  
G30  19956404.193    19956403.299    19956406.432                   -22515777.694 9 -22515777.693 9                 -17544766.196 9       816.000        1588.000         942.000                  
> 2024 10 31 12 27  0.0000000  0 11
G02  24282471.816    24282469.044    24282471.807                    -2369579.935 7  -2369579.943 6                  -1846423.951 6        99.000          19.000          21.000                  
G05  24532006.194    24532006.334    24532007.367                    -1478353.825 8  -1478353.814 6                  -1151972.423 6       110.000          34.000          29.000                  
G07  20529607.418    20529606.927    20529607.400                   -23883035.137 9 -23883035.136 9                 -18610159.630 9       611.000         845.000         525.000                  
G08  22919349.577    22919348.542    22919352.622                    -7852582.936 8  -7852582.947 7                  -6118897.755 8       184.000          80.000         149.000                  
G09  22543919.961    22543919.345    22543922.965                   -10850538.606 8 -10850538.612 7                  -8454968.047 8       156.000          71.000         103.000                  
G13  22598935.214    22598934.582    22598935.617                    -9298466.062 8  -9298466.073 6                  -7245477.265 6       211.000          32.000          44.000                  
G14  19985913.027    19985912.832    19985914.099                   -25129421.315 9 -25129421.314 9                 -19581366.939 8       613.000         514.000         276.000                  
G17  22061369.489    22061368.554    22061370.129                   -10347102.516 8 -10347102.519 8                  -8062679.587 8       278.000         164.000         284.000                  
G21  23965104.687    23965074.815    23965102.048                     -121461.088 7   -121461.099 6                    -94649.285 6        77.000          23.000          19.000                  
G22  21165319.389    21165318.210    21165319.152                   -18906690.811 8 -18906690.811 8                 -14732489.389 7       445.000         150.000          85.000                  
G30  19985157.580    19985156.791    19985160.014                   -22364677.105 9 -22364677.104 9                 -17427025.524 9       804.000        1558.000         968.000                  
> 2024 10 31 12 27 10.0000000  0 11
G02  24247027.898    24247025.706    24247028.501                    -2555836.059 8  -2555836.059 6                  -1991558.673 6       106.000          25.000          23.000                  
G05  24565452.314    24565452.367    24565454.321                    -1302589.287 8  -1302589.297 6                  -1015013.174 6       107.000          32.000          28.000                  
G07  20537027.783    20537027.345    20537027.905                   -23844040.557 9 -23844040.558 9                 -18579774.297 9       605.000         838.000         572.000                  
G08  22964541.776    22964540.858    22964545.203                    -7615096.000 8  -7615096.008 7                  -5933843.092 8       176.000          77.000         148.000                  
G09  22486186.563    22486185.452    22486188.780                   -11153932.671 8 -11153932.673 7                  -8691379.007 8       161.000          82.000         110.000                  
G13  22650691.660    22650691.288    22650692.160                    -9026482.055 8  -9026482.053 6                  -7033541.772 6       204.000          33.000          45.000                  
G14  19997367.987    19997367.805    19997369.031                   -25069225.565 9 -25069225.562 9                 -19534461.200 8       621.000         511.000         292.000                  
G17  21991622.092    21991621.707    21991622.993                   -10713625.656 8 -10713625.656 8                  -8348282.018 8       290.000         185.000         313.000                  
G21  23951962.411    23951930.848    23951962.219                     -190524.345 7   -190524.343 6                   -148471.379 6        75.000          21.000          16.000                  
G22  21159474.600    21159473.673    21159474.408                   -18937405.594 8 -18937405.597 8                 -14756423.029 7       450.000         155.000          97.000                  
G30  20014680.215    20014679.501    20014682.726                   -22209534.474 9 -22209534.474 9                 -17306135.209 9       792.000        1500.000        1029.000                  
> 2024 10 31 12 27 20.0000000  0 11
G02  24212106.283    24212103.490    24212104.773                    -2739354.292 8  -2739354.268 6                  -2134559.940 6       117.000          20.000          21.000                  
G05  24598984.057    24598983.382    24598985.529                    -1126384.842 8  -1126384.846 6                   -877711.205 6       101.000          30.000          28.000                  
G07  20545155.492    20545154.961    20545155.638                   -23801330.013 9 -23801330.014 9                 -18546493.413 9       606.000         836.000         625.000                  
G08  23010301.937    23010301.280    23010305.262                    -7374625.467 8  -7374625.474 7                  -5746463.554 8       169.000          73.000         140.000                  
G09  22428739.676    22428738.839    22428742.341                   -11455815.931 8 -11455815.934 7                  -8926612.720 8       171.000          91.000         124.000                  
G13  22702709.597    22702708.786    22702710.398                    -8753128.119 8  -8753128.118 6                  -6820538.806 6       195.000          33.000          49.000                  
G14  20009849.913    20009849.578    20009850.742                   -25003633.619 9 -25003633.616 9                 -19483350.638 8       632.000         540.000         305.000                  
G17  21922360.662    21922360.234    21922361.620                   -11077595.937 8 -11077595.943 8                  -8631895.216 8       294.000         189.000         347.000                  
G21  23939398.330    23939365.619    23939398.845                     -256545.358 7   -256545.350 6                   -199934.701 6        71.000          22.000          15.000                  
G22  21154511.224    21154510.294    21154511.115                   -18963488.127 8 -18963488.128 8                 -14776747.128 8       453.000         158.000         106.000                  
G30  20044972.025    20044971.081    20044974.325                   -22050351.076 9 -22050351.075 9                 -17182096.249 9       780.000        1459.000        1102.000                  
> 2024 10 31 12 27 30.0000000  0 11
G02  24177705.339    24177702.538    24177704.665                    -2920133.534 8  -2920133.503 6                  -2275426.868 6       119.000          26.000          24.000                  
G05  24632589.694    24632588.465    24632591.187                     -949790.297 8   -949790.270 6                   -740105.250 6       103.000          36.000          29.000                  
G07  20553981.502    20553980.953    20553981.524                   -23754949.424 9 -23754949.423 9                 -18510352.759 9       608.000         846.000         676.000                  
G08  23056613.773    23056612.805    23056616.701                    -7131256.392 8  -7131256.394 7                  -5556825.431 8       165.000          67.000         144.000                  
G09  22371580.983    22371580.845    22371584.279                   -11756184.414 8 -11756184.412 7                  -9160666.090 8       181.000          94.000         135.000                  
G13  22754976.927    22754975.259    22754976.558                    -8478464.204 8  -8478464.174 6                  -6606515.074 7       196.000          30.000          52.000                  
G14  20023349.878    20023349.746    20023350.947                   -24932689.955 9 -24932689.951 9                 -19428069.910 8       643.000         555.000         333.000                  
G17  21853593.369    21853592.967    21853594.354                   -11438971.436 8 -11438971.437 8                  -8913486.508 8       300.000         193.000         385.000                  
G21  23927412.068    23927375.544    23927413.583                     -319544.531 7   -319544.537 6                   -249072.094 6        70.000          22.000          18.000                  
G22  21150426.043    21150425.084    21150426.013                   -18984955.314 8 -18984955.314 8                 -14793474.860 8       452.000         160.000         111.000                  
G30  20076019.910    20076019.147    20076022.476                   -21887192.596 9 -21887192.595 9                 -17054959.826 9       781.000        1467.000        1220.000                  
> 2024 10 31 12 27 40.0000000  0 10
G02  24143836.122    24143834.118    24143834.764                    -3098116.118 8  -3098116.113 6                  -2414114.720 6       123.000          23.000          25.000                  
G05  24666269.674    24666269.485    24666270.389                     -772798.398 8   -772798.391 6                   -602189.644 6       102.000          23.000          26.000                  
G07  20563507.471    20563507.239    20563507.928                   -23704888.438 9 -23704888.438 9                 -18471344.265 9       611.000         847.000         720.000                  
G08  23103470.787    23103470.719    23103474.855                    -6885017.038 8  -6885017.047 7                  -5364950.729 8       162.000          63.000         139.000                  
G09  22314723.028    22314722.416    22314725.741                   -12054977.077 8 -12054977.076 8                  -9393491.556 8       191.000         110.000         146.000                  
G13  22807492.450    22807491.322    22807492.530                    -8202493.151 8  -8202493.125 6                  -6391472.824 6       188.000          29.000          44.000                  
G14  20037870.562    20037870.402    20037871.749                   -24856383.508 9 -24856383.504 9                 -19368610.391 8       645.000         553.000         357.000                  
G17  21785338.838    21785338.037    21785339.301                   -11797652.767 8 -11797652.773 8                  -9192978.454 8       304.000         193.000         400.000                  
G22  21147226.751    21147225.717    21147226.841                   -19001768.254 8 -19001768.252 8                 -14806575.915 8       458.000         167.000         107.000                  
G30  20107822.551    20107821.840    20107825.207                   -21720068.463 9 -21720068.463 9                 -16924733.287 9       780.000        1465.000        1322.000                  
> 2024 10 31 12 27 50.0000000  0 10
G02  24110503.386    24110501.171    24110503.494                    -3273279.606 8  -3273279.617 6                  -2550605.789 6       122.000          28.000          23.000                  
G05  24700020.117    24700020.326    24700020.814                     -595436.442 7   -595436.422 6                   -463985.730 6        98.000          32.000          22.000                  
G07  20573729.651    20573729.145    20573729.825                   -23651172.102 9 -23651172.103 9                 -18429487.450 9       615.000         849.000         765.000                  
G08  23150863.157    23150862.833    23150866.825                    -6635970.708 8  -6635970.718 7                  -5170888.778 8       160.000          68.000         140.000                  
G09  22258169.192    22258168.617    22258172.397                   -12352167.478 8 -12352167.482 8                  -9625068.501 8       196.000         110.000         176.000                  
G13  22860249.730    22860248.438    22860249.393                    -7925252.520 8  -7925252.521 6                  -6175441.260 6       190.000          25.000          48.000                  
G14  20053407.004    20053406.858    20053408.052                   -24774739.395 9 -24774739.389 9                 -19304991.646 8       655.000         580.000         387.000                  
G17  21717608.715    21717608.247    21717609.676                   -12153575.070 8 -12153575.070 8                  -9470320.512 8       314.000         206.000         432.000                  
G22  21144913.791    21144912.807    21144913.562                   -19013923.950 8 -19013923.948 8                 -14816047.953 8       470.000         173.000         115.000                  
G30  20140371.396    20140370.711    20140374.043                   -21549023.430 9 -21549023.429 9                 -16791451.502 9       776.000        1444.000        1442.000                  
> 2024 10 31 12 28  0.0000000  0 10
G02  24077711.266    24077709.688    24077710.576                    -3445601.532 8  -3445601.539 6                  -2684882.692 6       129.000          26.000          32.000                  
G05  24733836.322    24733836.199    24733838.388                     -417731.107 7   -417731.128 6                   -325514.304 6        97.000          32.000          22.000                  
G07  20584642.142    20584641.882    20584642.543                   -23593825.588 9 -23593825.587 9                 -18384801.927 9       614.000         847.000         782.000                  
G08  23198777.336    23198776.695    23198781.095                    -6384180.324 8  -6384180.317 7                  -4974688.614 8       159.000          63.000         137.000                  
G09  22201925.751    22201925.304    22201929.071                   -12647728.558 8 -12647728.562 8                  -9855375.852 8       200.000         123.000         198.000                  
G13  22913241.419    22913240.339    22913241.626                    -7646779.381 8  -7646779.371 6                  -5958449.333 6       191.000          30.000          50.000                  
G14  20069954.163    20069953.824    20069955.210                   -24687783.610 9 -24687783.603 9                 -19237233.951 8       634.000         540.000         381.000                  
G17  21650416.612    21650415.777    21650417.398                   -12506672.807 8 -12506672.812 8                  -9745461.616 8       303.000         198.000         460.000                  
G22  21143487.108    21143486.104    21143487.164                   -19021420.119 8 -19021420.118 8                 -14821889.189 8       473.000         175.000         117.000                  
G30  20173657.807    20173657.062    20173660.475                   -21374102.338 9 -21374102.338 9                 -16655149.417 9       760.000        1387.000        1463.000                  
> 2024 10 31 12 28 10.0000000  0 10
G02  24045470.531    24045470.247    24045471.262                    -3615027.568 8  -3615027.587 6                  -2816903.040 6       132.000          21.000          31.000                  
G05  24767719.633    24767718.673    24767721.054                     -239676.615 7   -239676.626 6                   -186770.760 6        96.000          27.000          30.000                  
G07  20596247.181    20596246.615    20596247.298                   -23532842.578 9 -23532842.579 9                 -18337282.778 9       629.000         909.000         842.000                  
G08  23247207.933    23247207.840    23247211.496                    -6129676.722 8  -6129676.730 7                  -4776374.254 8       165.000          65.000         138.000                  
G09  22146004.139    22146003.503    22146007.261                   -12941600.881 8 -12941600.886 8                 -10084367.285 8       215.000         138.000         239.000                  
G13  22966466.374    22966466.044    22966466.853                    -7367078.227 8  -7367078.229 6                  -5740500.537 6       185.000          29.000          43.000                  
G14  20087512.931    20087512.745    20087514.062                   -24595511.284 9 -24595511.278 9                 -19165333.505 8       626.000         535.000         405.000                  
