     3.03           OBSERVATION DATA    M (MIXED)           RINEX VERSION / TYPE
BJPP                CNES                20241102 091353 UTC PGM / RUN BY / DATE 
MARKER                                                      MARKER NAME         
SPACECRAFT                                                  MARKER TYPE         
OBSERVER            CNES                                    OBSERVER / AGENCY   
RECNUM              BLACKJACK           RECVERS             REC # / TYPE / VERS 
ANTNUM              BLACKJACK                               ANT # / TYPE        
        0.0000        0.0000        0.0000                  ANTENNA: DELTA H/E/N
G   12 C1C C1W C2W C2X L1C L1W L2X L2W S1C S1W S2W S2X      SYS / # / OBS TYPES 
DBHZ                                                        SIGNAL STRENGTH UNIT
This rinex produced from the following file(s):             COMMENT             
/tmp/mesos_work/slaves/d197f515-9ebc-49f2-8adc-fe7a9d3e6458-COMMENT             
S19/frameworks/8c1b9f46-52ed-4aff-9edf-38d17bf6761e-4559/exeCOMMENT             
cutors/toil-126171/runs/ef0a88bc-db22-4880-9f81-9acd6b36f191COMMENT             
/4c7d837d52f95e5a9cd4a3e2df6d607f/8635/3549/tmp3cc9uu07r_nhuCOMMENT             
476/stg9a0ea41b-6fd4-4b29-a869-11b490f2263d/SWOT_IVK_2024103COMMENT             
1T203754_20241031T190652_20241031T205229_O_APID1280.PTM_0   COMMENT             
  2024    10    31    19     6   30.0000000                 TIME OF FIRST OBS   
G L1C                                                       SYS / PHASE SHIFT   
G L1W -0.25000                                              SYS / PHASE SHIFT   
G L2W                                                       SYS / PHASE SHIFT   
G L2X  0.25000                                              SYS / PHASE SHIFT   
                                                            END OF HEADER       
> 2024 10 31 19 06 30.0000000  0  2
G03  21462787.566    21462787.583    21462790.400                   -11603441.022 8 -11603441.021 8                  -9041645.314 9       340.000         291.000         701.000                  
G26  21659893.212    21659893.099    21659897.075                   -14625094.881 8 -14625094.880 8                 -11396180.065 9       267.000         167.000         889.000                  
> 2024 10 31 19 06 40.0000000  0 11
G03  21491957.295    21491956.899    21491959.692                   -11450155.180 8 -11450155.182 8                  -8922201.758 9       334.000         290.000         704.000                  
G04  22029260.068    22029259.620    22029261.450                    -4738200.026 8  -4738200.016 7                  -3692105.586 8       239.000          86.000         123.000                  
G06  23100630.537    23100630.779    23100634.396                    -8623913.010 8  -8623913.013 8                  -6719930.543 8       202.000         124.000         280.000                  
G11  23942770.749    23942769.296    23942770.853                    -5225406.517 8  -5225406.505 6                  -4071743.142 7       178.000          45.000          83.000                  
G12  25321599.678    25321597.868    25321600.534                     2316193.242 7   2316193.242 6                   1804820.922 6        56.000          20.000          19.000                  
G25  21610086.785    21610085.725    21610089.399                   -14931367.865 8 -14931367.866 8                 -11634832.624 8       300.000         223.000         395.000                  
G26  21612198.346    21612197.435    21612201.334                   -14875738.050 8 -14875738.049 8                 -11591486.435 9       275.000         179.000         875.000                  
G28  20325871.162    20325871.035    20325871.239                   -24110287.466 9 -24110287.469 9                 -18787240.255 9       658.000         542.000         530.000                  
G29  22811426.544    22811425.736    22811426.359                   -11118372.520 8 -11118372.521 8                  -8663666.616 9       289.000         188.000         576.000                  
G31  19600072.565    19600072.255    19600071.774                   -26454396.070 9 -26454396.071 9                 -20613814.034 9       889.000        1735.000        1908.000                  
G32  24715884.496    24715882.925    24715887.479                     -791262.395 7   -791262.404 6                   -616570.290 7        71.000          24.000          82.000                  
> 2024 10 31 19 06 50.0000000  0 11
G03  21521583.198    21521583.215    21521586.043                   -11294468.163 8 -11294468.164 8                  -8800887.331 9       328.000         278.000         710.000                  
G04  22077713.588    22077713.102    22077714.794                    -4483575.023 8  -4483575.014 7                  -3493696.428 8       239.000          82.000         123.000                  
G06  23167140.243    23167140.064    23167143.619                    -8274405.150 8  -8274405.155 8                  -6447586.790 8       194.000         116.000         252.000                  
G11  23972297.138    23972296.497    23972297.376                    -5070243.429 8  -5070243.435 6                  -3950837.171 7       177.000          37.000          87.000                  
G12  25344291.254    25344288.634    25344291.025                     2435432.542 7   2435432.554 6                   1897734.655 6        55.000          21.000          18.000                  
G25  21602745.801    21602744.973    21602748.667                   -14969943.807 8 -14969943.807 8                 -11664891.815 8       299.000         223.000         420.000                  
G26  21565050.235    21565050.127    21565054.183                   -15123497.746 8 -15123497.745 8                 -11784545.909 9       280.000         182.000         890.000                  
G28  20291862.746    20291862.580    20291862.988                   -24289002.425 9 -24289002.427 9                 -18926498.581 9       666.000         553.000         542.000                  
G29  22758643.232    22758642.897    22758643.294                   -11395748.437 8 -11395748.440 8                  -8879803.440 9       301.000         207.000         605.000                  
G31  19585000.224    19584999.797    19584999.359                   -26533602.037 9 -26533602.037 9                 -20675532.920 9       895.000        1755.000        1939.000                  
G32  24652312.545    24652311.494    24652315.095                    -1125334.458 7  -1125334.478 6                   -876886.123 7        69.000          25.000          88.000                  
> 2024 10 31 19 07  0.0000000  0 11
G03  21551662.555    21551662.380    21551665.086                   -11136401.888 8 -11136401.888 8                  -8677718.842 9       326.000         272.000         693.000                  
G04  22126500.984    22126500.072    22126501.757                    -4227199.042 8  -4227199.038 7                  -3293922.902 8       236.000          89.000         129.000                  
G06  23234074.083    23234073.516    23234077.260                    -7922666.526 8  -7922666.530 8                  -6173504.859 8       183.000         102.000         229.000                  
G11  24002409.990    24002409.795    24002410.568                    -4911997.974 8  -4911997.961 6                  -3827529.067 7       174.000          34.000          77.000                  
G12  25367321.829    25367319.053    25367320.524                     2556457.581 7   2556457.614 6                   1992039.396 6        52.000          19.000          18.000                  
G25  21596187.636    21596186.938    21596190.719                   -15004406.757 8 -15004406.758 8                 -11691746.189 8       294.000         211.000         425.000                  
G26  21518463.522    21518463.093    21518467.288                   -15368312.702 8 -15368312.699 8                 -11975310.704 9       279.000         184.000         863.000                  
G28  20258582.265    20258582.214    20258582.404                   -24463891.831 9 -24463891.834 9                 -19062775.857 9       670.000         555.000         554.000                  
G29  22706529.767    22706529.216    22706529.514                   -11669607.527 8 -11669607.527 8                  -9093199.919 9       309.000         210.000         617.000                  
G31  19570734.855    19570734.498    19570734.074                   -26608566.537 9 -26608566.536 9                 -20733946.677 9       901.000        1781.000        1971.000                  
G32  24588816.129    24588814.858    24588818.314                    -1459013.812 7  -1459013.816 6                  -1136895.896 7        68.000          23.000          82.000                  
> 2024 10 31 19 07 10.0000000  0 11
G03  21582186.762    21582186.677    21582189.289                   -10975994.569 8 -10975994.573 8                  -8552725.885 9       324.000         277.000         699.000                  
G04  22175612.537    22175612.529    22175614.309                    -3969112.156 8  -3969112.144 7                  -3092816.287 8       238.000          81.000         138.000                  
G06  23301419.650    23301418.780    23301422.606                    -7568764.718 8  -7568764.726 7                  -5897737.289 8       169.000          91.000         205.000                  
G11  24033103.455    24033102.345    24033103.823                    -4750705.115 8  -4750705.120 6                  -3701846.314 7       171.000          46.000          76.000                  
G12  25390686.049    25390682.819    25390681.860                     2679233.654 7   2679233.663 6                   2087709.722 6        52.000          23.000          18.000                  
G25  21590410.561    21590409.832    21590413.409                   -15034764.506 8 -15034764.506 8                 -11715401.318 8       295.000         206.000         445.000                  
G26  21472445.652    21472445.320    21472449.371                   -15610138.028 8 -15610138.026 8                 -12163745.946 9       279.000         193.000         818.000                  
G28  20226034.764    20226034.203    20226034.519                   -24634931.303 9 -24634931.309 9                 -19196053.235 9       676.000         560.000         564.000                  
G29  22655094.931    22655094.009    22655094.232                   -11939900.271 8 -11939900.273 8                  -9303817.486 9       308.000         222.000         634.000                  
G31  19557278.718    19557278.390    19557277.878                   -26679278.243 9 -26679278.243 9                 -20789046.563 9       902.000        1796.000        1970.000                  
G32  24525396.781    24525396.496    24525400.255                    -1792280.114 7  -1792280.131 6                  -1396583.880 7        65.000          21.000          80.000                  
> 2024 10 31 19 07 20.0000000  0 11
G03  21613152.118    21613151.941    21613154.423                   -10813270.952 8 -10813270.952 8                  -8425928.201 9       323.000         264.000         699.000                  
G04  22225045.203    22225045.680    22225047.120                    -3709338.655 8  -3709338.647 7                  -2890395.149 8       231.000          78.000         145.000                  
G06  23369165.926    23369165.624    23369169.347                    -7212752.424 8  -7212752.426 7                  -5620325.148 8       162.000          80.000         180.000                  
G11  24064372.238    24064371.992    24064373.189                    -4586384.950 8  -4586384.938 6                  -3573804.614 7       172.000          36.000          76.000                  
G12  25414374.395    25414375.392    25414376.620                     2803736.639 7   2803736.645 6                   2184734.849 6        53.000          22.000          16.000                  
G25  21585415.417    21585414.960    21585418.469                   -15061012.504 8 -15061012.504 8                 -11735853.924 8       299.000         213.000         485.000                  
G26  21427008.421    21427008.063    21427011.778                   -15848913.892 8 -15848913.895 8                 -12349805.037 9       293.000         199.000         782.000                  
G28  20194226.879    20194226.537    20194226.685                   -24802081.817 9 -24802081.822 9                 -19326300.319 9       683.000         575.000         567.000                  
G29  22604350.045    22604349.865    22604349.946                   -12206562.526 8 -12206562.527 8                  -9511606.184 9       316.000         225.000         647.000                  
G31  19544636.762    19544636.452    19544635.885                   -26745711.758 9 -26745711.758 9                 -20840812.887 9       893.000        1771.000        1967.000                  
G32  24462064.440    24462063.555    24462066.127                    -2125097.526 7  -2125097.505 6                  -1655922.117 7        63.000          18.000          86.000                  
> 2024 10 31 19 07 30.0000000  0 11
G03  21644553.601    21644553.743    21644556.185                   -10648253.334 8 -10648253.336 8                  -8297342.955 9       317.000         265.000         709.000                  
G04  22274795.124    22274794.583    22274796.662                    -3447902.876 8  -3447902.874 7                  -2686678.774 8       224.000          77.000         145.000                  
G06  23437304.609    23437304.287    23437307.920                    -6854681.021 8  -6854681.025 7                  -5341308.475 8       150.000          66.000         148.000                  
G11  24096213.656    24096213.364    24096214.530                    -4419056.908 8  -4419056.923 6                  -3443419.112 7       169.000          35.000          72.000                  
G12  25438393.207    25438391.861    25438392.498                     2929944.991 7   2929944.991 6                   2283078.177 6        54.000          18.000          16.000                  
G25  21581203.454    21581202.852    21581206.151                   -15083145.234 8 -15083145.239 8                 -11753099.670 8       298.000         210.000         492.000                  
G26  21382162.724    21382162.257    21382166.183                   -16084579.457 8 -16084579.455 8                 -12533440.605 9       304.000         220.000         774.000                  
G28  20163166.815    20163166.504    20163166.534                   -24965303.723 9 -24965303.729 9                 -19453486.201 9       688.000         587.000         567.000                  
G29  22554309.365    22554308.847    22554309.164                   -12469529.248 8 -12469529.247 8                  -9716515.285 9       310.000         216.000         655.000                  
G31  19532813.938    19532813.668    19532812.878                   -26807841.219 9 -26807841.218 9                 -20889225.392 9       910.000        1833.000        2012.000                  
G32  24398821.766    24398821.909    24398826.585                    -2457428.870 7  -2457428.861 6                  -1914881.621 7        62.000          24.000          82.000                  
> 2024 10 31 19 07 40.0000000  0 11
G03  21676382.235    21676382.518    21676385.069                   -10480991.495 8 -10480991.498 8                  -8167009.079 9       315.000         247.000         718.000                  
G04  22324851.142    22324850.924    22324852.863                    -3184855.400 8  -3184855.398 7                  -2481706.725 8       226.000          69.000         142.000                  
G06  23505820.600    23505820.242    23505823.978                    -6494628.201 8  -6494628.204 7                  -5060747.801 8       136.000          59.000         132.000                  
G11  24128618.586    24128617.837    24128619.460                    -4248767.211 8  -4248767.219 6                  -3310725.720 7       166.000          37.000          68.000                  
G12  25462726.354    25462723.282    25462725.092                     3057810.048 7   3057810.025 6                   2382711.883 6        51.000          19.000          16.000                  
G25  21577770.938    21577769.609    21577772.850                   -15101185.898 8 -15101185.900 8                 -11767157.149 8       296.000         212.000         498.000                  
G26  21337915.643    21337914.922    21337918.935                   -16317100.383 8 -16317100.380 8                 -12714625.771 9       315.000         234.000         749.000                  
G28  20132856.655    20132856.352    20132856.526                   -25124584.681 9 -25124584.686 9                 -19577601.299 9       685.000         582.000         568.000                  
G29  22504978.749    22504978.276    22504978.790                   -12728762.706 8 -12728762.711 8                  -9918515.508 9       305.000         211.000         664.000                  
G31  19521809.902    19521809.467    19521808.772                   -26865668.430 9 -26865668.430 9                 -20934285.567 9       919.000        1848.000        2080.000                  
G32  24335676.989    24335675.888    24335680.035                    -2789263.255 7  -2789263.262 6                  -2173453.893 7        61.000          23.000          80.000                  
> 2024 10 31 19 07 50.0000000  0 11
G03  21708638.262    21708638.030    21708640.675                   -10311487.905 8 -10311487.907 8                  -8034928.423 9       306.000         231.000         725.000                  
G04  22375213.632    22375213.332    22375215.386                    -2920199.031 8  -2920199.022 7                  -2275480.997 8       228.000          79.000         139.000                  
G06  23574707.364    23574707.626    23574710.882                    -6132624.616 8  -6132624.609 7                  -4778667.062 8       123.000          54.000         118.000                  
G11  24161587.402    24161586.162    24161587.803                    -4075516.387 8  -4075516.362 6                  -3175725.083 7       165.000          39.000          59.000                  
G12  25487372.634    25487371.289    25487374.108                     3187332.856 7   3187332.859 6                   2483613.671 6        53.000          20.000          20.000                  
G25  21575120.907    21575119.781    21575123.125                   -15115110.094 8 -15115110.095 8                 -11778007.081 8       292.000         218.000         500.000                  
G26  21294282.224    21294281.596    21294285.325                   -16546395.757 8 -16546395.756 8                 -12893297.493 9       327.000         255.000         697.000                  
G28  20103307.673    20103307.352    20103307.704                   -25279865.692 9 -25279865.697 9                 -19698599.528 9       684.000         581.000         571.000                  
G29  22456375.162    22456374.496    22456374.844                   -12984177.640 8 -12984177.642 8                 -10117540.063 9       306.000         210.000         689.000                  
G31  19511632.732    19511632.436    19511631.857                   -26919148.678 9 -26919148.678 9                 -20975958.468 9       906.000        1800.000        2103.000                  
G32  24272638.738    24272636.315    24272640.169                    -3120542.712 7  -3120542.705 6                  -2431593.742 7        62.000          25.000          82.000                  
> 2024 10 31 19 08  0.0000000  0 11
G03  21741307.663    21741307.632    21741310.415                   -10139807.342 8 -10139807.342 8                  -7901151.306 9       294.000         226.000         734.000                  
G04  22425870.035    22425869.499    22425871.411                    -2653998.857 8  -2653998.845 7                  -2068052.094 8       231.000          81.000         141.000                  
G06  23643948.734    23643947.688    23643951.220                    -5768762.923 8  -5768762.915 6                  -4495138.440 8       116.000          46.000         103.000                  
G11  24195107.426    24195107.042    24195107.410                    -3899366.923 8  -3899366.918 6                  -3038465.690 7       164.000          36.000          55.000                  
G12  25512324.490    25512322.583    25512323.864                     3318450.858 7   3318450.854 6                   2585776.685 6        55.000          19.000          17.000                  
G25  21573246.519    21573245.894    21573249.322                   -15124957.229 8 -15124957.232 8                 -11785680.160 9       291.000         212.000         512.000                  
G26  21251266.377    21251265.557    21251269.205                   -16772447.736 8 -16772447.735 8                 -13069442.067 9       336.000         268.000         678.000                  
G28  20074519.303    20074518.858    20074519.118                   -25431151.339 9 -25431151.345 9                 -19816484.616 9       685.000         580.000         594.000                  
G29  22408501.627    22408501.135    22408501.774                   -13235753.268 8 -13235753.270 8                 -10313573.206 9       308.000         209.000         733.000                  
G31  19502279.363    19502279.055    19502278.372                   -26968300.733 9 -26968300.733 9                 -21014258.693 9       890.000        1764.000        2064.000                  
G32  24209698.744    24209700.873    24209703.879                    -3451271.455 7  -3451271.458 6                  -2689304.538 7        62.000          26.000          85.000                  
> 2024 10 31 19 08 10.0000000  0 11
G03  21774391.130    21774390.993    21774393.917                    -9965953.707 8  -9965953.707 8                  -7765681.174 9       292.000         214.000         745.000                  
G04  22476819.425    22476818.823    22476820.652                    -2386258.757 8  -2386258.750 7                  -1859423.343 8       238.000          84.000         149.000                  
G06  23713535.983    23713535.631    23713539.408                    -5403073.618 8  -5403073.628 6                  -4210185.776 7       109.000          39.000          93.000                  
G11  24229178.029    24229178.548    24229179.222                    -3720320.231 8  -3720320.223 6                  -2898948.722 7       162.000          41.000          53.000                  
G12  25537576.367    25537575.601    25537573.254                     3451157.921 7   3451157.922 6                   2689185.144 6        55.000          22.000          16.000                  
G25  21572152.808    21572152.161    21572155.385                   -15130705.392 8 -15130705.395 8                 -11790159.209 9       290.000         206.000         510.000                  
G26  21208882.469    21208881.965    21208885.626                   -16995175.772 8 -16995175.770 8                 -13242996.540 9       344.000         277.000         710.000                  
G28  20046501.516    20046501.454    20046501.741                   -25578384.237 9 -25578384.242 9                 -19931211.732 9       687.000         582.000         599.000                  
G29  22361375.061    22361374.830    22361375.360                   -13483406.014 8 -13483406.018 8                 -10506549.663 9       317.000         225.000         731.000                  
G31  19493757.881    19493757.579    19493756.901                   -27013083.393 9 -27013083.392 9                 -21049154.706 9       884.000        1732.000        1987.000                  
G32  24146881.912    24146881.062    24146884.906                    -3781391.161 7  -3781391.163 6                  -2946540.717 7        67.000          25.000          86.000                  
> 2024 10 31 19 08 20.0000000  0 11
G03  21807879.811    21807880.023    21807883.103                    -9789969.056 8  -9789969.055 8                  -7628550.621 9       289.000         212.000         737.000                  
G04  22528053.766    22528053.313    22528054.735                    -2117021.402 8  -2117021.391 7                  -1649628.104 8       249.000          95.000         141.000                  
G06  23783459.901    23783458.547    23783461.980                    -5035626.045 8  -5035626.060 6                  -3923863.071 7       105.000          35.000          87.000                  
G11  24263793.766    24263792.912    24263793.996                    -3538417.542 8  -3538417.540 6                  -2757206.457 6       158.000          30.000          40.000                  
G12  25563124.336    25563122.791    25563121.387                     3585413.132 7   3585413.146 6                   2793799.597 6        54.000          25.000          16.000                  
G25  21571835.634    21571834.800    21571838.074                   -15132373.236 8 -15132373.237 8                 -11791458.851 9       297.000         209.000         507.000                  
G26  21167138.750    21167138.445    21167142.328                   -17214539.104 8 -17214539.104 8                 -13413929.072 9       349.000         295.000         767.000                  
G28  20019258.712    20019258.656    20019259.026                   -25721547.152 9 -25721547.158 9                 -20042767.465 9       693.000         598.000         605.000                  
G29  22315003.650    22315003.304    22315003.735                   -13727092.102 8 -13727092.104 8                 -10696435.174 9       332.000         249.000         721.000                  
G31  19486068.306    19486068.002    19486067.471                   -27053492.927 9 -27053492.927 9                 -21080642.857 9       879.000        1698.000        1983.000                  
G32  24084180.684    24084180.166    24084184.536                    -4110882.584 7  -4110882.567 6                  -3203287.290 7        73.000          20.000          94.000                  
> 2024 10 31 19 08 30.0000000  0 11
G03  21841767.773    21841767.470    21841770.441                    -9611890.500 8  -9611890.502 8                  -7489788.304 9       288.000         219.000         729.000                  
G04  22579566.035    22579565.581    22579566.885                    -1846323.749 8  -1846323.744 7                  -1438694.899 8       257.000          98.000         143.000                  
G06  23853704.374    23853704.395    23853707.973                    -4666484.250 7  -4666484.239 6                  -3636220.157 7        98.000          36.000          75.000                  
G11  24298945.863    24298944.290    24298945.494                    -3353695.156 8  -3353695.143 6                  -2613267.023 6       151.000          35.000          40.000                  
G12  25588958.806    25588958.529    25588959.037                     3721181.527 7   3721181.540 6                   2899595.302 6        52.000          25.000          16.000                  
G25  21572291.820    21572291.235    21572294.492                   -15129975.152 8 -15129975.154 8                 -11789590.240 9       293.000         209.000         513.000                  
G26  21126044.830    21126043.934    21126047.833                   -17430492.726 8 -17430492.724 8                 -13582204.703 9       359.000         312.000         819.000                  
G28  19992794.469    19992794.252    19992794.835                   -25860618.315 9 -25860618.322 9                 -20151134.651 9       699.000         610.000         608.000                  
G29  22269395.938    22269395.369    22269395.808                   -13966763.476 8 -13966763.478 8                 -10883192.217 9       338.000         259.000         729.000                  
G31  19479212.027    19479211.735    19479211.197                   -27089523.373 9 -27089523.373 9                 -21108718.617 9       876.000        1701.000        1980.000                  
G32  24021605.989    24021604.668    24021608.960                    -4439721.522 7  -4439721.546 6                  -3459525.405 7        81.000          29.000          89.000                  
> 2024 10 31 19 08 40.0000000  0 11
G03  21876049.551    21876049.462    21876052.537                    -9431738.148 8  -9431738.154 8                  -7349410.113 9       285.000         209.000         695.000                  
G04  22631351.609    22631351.901    22631353.231                    -1574185.048 8  -1574185.041 7                  -1226638.685 8       265.000          98.000         141.000                  
G06  23924264.293    23924263.534    23924266.187                    -4295694.315 7  -4295694.328 6                  -3347293.039 7        93.000          30.000          68.000                  
G11  24334628.989    24334629.212    24334629.728                    -3166171.980 8  -3166171.967 6                  -2467145.172 6       147.000          22.000          40.000                  
G12  25615079.050    25615078.615    25615079.032                     3858444.745 6   3858444.751 6                   3006554.032 6        49.000          20.000          19.000                  
G25  21573522.447    21573521.884    21573525.125                   -15123508.858 8 -15123508.859 8                 -11784551.719 8       290.000         202.000         495.000                  
G26  21085611.104    21085610.401    21085614.125                   -17642973.623 8 -17642973.622 8                 -13747774.285 9       384.000         351.000         854.000                  
G28  19967116.072    19967115.910    19967116.324                   -25995559.289 9 -25995559.297 9                 -20256283.494 9       712.000         626.000         610.000                  
G29  22224564.261    22224563.726    22224564.346                   -14202354.885 8 -14202354.887 8                 -11066770.044 9       349.000         276.000         737.000                  
G31  19473193.489    19473193.135    19473192.622                   -27121151.885 9 -27121151.885 9                 -21133364.369 9       861.000        1644.000        1951.000                  
G32  23959161.888    23959160.434    23959165.123                    -4767865.415 7  -4767865.401 6                  -3715221.917 7        86.000          22.000          90.000                  
> 2024 10 31 19 08 50.0000000  0 10
G03  21910719.037    21910718.679    21910721.898                    -9249550.807 8  -9249550.810 8                  -7207446.153 9       290.000         214.000         680.000                  
G04  22683405.350    22683404.771    22683406.328                    -1300644.465 8  -1300644.461 8                  -1013490.260 8       266.000         102.000         136.000                  
G06  23995125.669    23995123.674    23995126.798                    -3923321.192 7  -3923321.188 6                  -3057132.289 7        90.000          28.000          57.000                  
G11  24370840.196    24370839.022    24370840.048                    -2975886.621 8  -2975886.618 6                  -2318870.881 6       143.000          30.000          36.000                  
G25  21575524.582    21575523.293    21575526.569                   -15112991.775 8 -15112991.773 8                 -11776356.755 8       291.000         196.000         482.000                  
G26  21045846.491    21045845.801    21045849.458                   -17851938.537 8 -17851938.536 8                 -13910604.089 9       401.000         374.000         923.000                  
G28  19942227.332    19942227.081    19942227.525                   -26126351.567 9 -26126351.575 9                 -20358199.636 9       721.000         641.000         627.000                  
G29  22180517.948    22180517.361    22180518.024                   -14433821.174 8 -14433821.174 8                 -11247133.522 9       353.000         286.000         712.000                  
G31  19468012.977    19468012.673    19468012.397                   -27148375.215 9 -27148375.215 9                 -21154577.436 9       840.000        1566.000        1947.000                  
G32  23896854.959    23896853.805    23896857.805                    -5095290.918 7  -5095290.934 6                  -3970358.670 8        96.000          30.000         101.000                  
> 2024 10 31 19 09  0.0000000  0 10
G03  21945772.651    21945772.231    21945775.158                    -9065344.763 8  -9065344.767 8                  -7063909.072 9       289.000         224.000         668.000                  
G04  22735721.868    22735721.863    22735723.451                    -1025717.425 8  -1025717.424 8                   -799261.488 8       264.000         103.000         125.000                  
G06  24066281.047    24066277.907    24066280.907                    -3549406.885 7  -3549406.878 6                  -2765770.617 6        86.000          28.000          49.000                  
G11  24407572.718    24407571.422    24407572.778                    -2782855.568 8  -2782855.573 6                  -2168457.056 6       141.000          34.000          34.000                  
G25  21578297.246    21578296.234    21578299.700                   -15098419.801 8 -15098419.805 8                 -11765002.123 8       286.000         199.000         465.000                  
G26  21006763.068    21006762.612    21006766.348                   -18057321.965 8 -18057321.964 8                 -14070643.132 9       415.000         397.000         970.000                  
G28  19918135.744    19918135.469    19918135.937                   -26252954.536 9 -26252954.545 9                 -20456851.422 9       729.000         654.000         641.000                  
G29  22137269.206    22137268.822    22137269.309                   -14661094.626 8 -14661094.628 8                 -11424229.822 9       353.000         280.000         695.000                  
G31  19463675.543    19463675.359    19463674.988                   -27171168.871 9 -27171168.871 9                 -21172338.802 9       845.000        1570.000        1960.000                  
G32  23834692.389    23834692.877    23834696.628                    -5421951.640 8  -5421951.652 6                  -4224899.467 8       101.000          29.000         105.000                  
> 2024 10 31 19 09 10.0000000  0 10
G03  21981199.041    21981198.924    21981202.150                    -8879175.923 8  -8879175.925 8                  -6918842.547 9       297.000         229.000         681.000                  
G04  22788292.655    22788291.955    22788293.769                     -749458.856 8   -749458.849 8                   -583995.206 8       264.000         104.000         132.000                  
G06  24137709.881    24137708.744    24137712.579                    -3174032.313 7  -3174032.314 6                  -2473271.134 6        81.000          28.000          47.000                  
G11  24444817.528    24444815.957    24444817.118                    -2587134.894 8  -2587134.897 6                  -2015947.412 6       140.000          22.000          35.000                  
G25  21581835.097    21581834.172    21581837.564                   -15079828.986 8 -15079828.986 8                 -11750515.948 8       287.000         203.000         479.000                  
G26  20968366.240    20968365.849    20968369.613                   -18259097.947 8 -18259097.946 8                 -14227871.195 9       430.000         426.000         994.000                  
G28  19894841.415    19894841.074    19894841.722                   -26375367.464 9 -26375367.473 9                 -20552238.238 9       723.000         643.000         660.000                  
G29  22094823.940    22094823.183    22094823.887                   -14884147.500 8 -14884147.500 8                 -11598037.291 9       354.000         279.000         677.000                  
G31  19460178.152    19460177.891    19460177.503                   -27189548.116 9 -27189548.116 9                 -21186660.295 9       840.000        1557.000        1953.000                  
G32  23772678.017    23772678.082    23772681.775                    -5747840.176 8  -5747840.173 6                  -4478838.550 8       108.000          28.000         116.000                  
> 2024 10 31 19 09 20.0000000  0 10
G03  22016999.897    22017000.098    22017003.097                    -8691041.000 8  -8691040.998 8                  -6772243.976 9       297.000         225.000         678.000                  
G04  22841117.006    22841116.463    22841118.597                     -471864.606 8   -471864.602 7                   -367688.170 8       249.000          97.000         120.000                  
G06  24209413.780    24209414.064    24209417.870                    -2797219.112 7  -2797219.127 6                  -2179650.603 6        75.000          31.000          47.000                  
G11  24482573.996    24482572.619    24482573.807                    -2388722.309 8  -2388722.302 6                  -1861340.218 6       142.000          26.000          30.000                  
G25  21586141.865    21586140.888    21586144.423                   -15057197.316 8 -15057197.318 8                 -11732881.026 8       289.000         199.000         486.000                  
G26  20930672.010    20930671.608    20930675.494                   -18457181.917 8 -18457181.916 8                 -14382222.319 9       425.000         427.000        1034.000                  
G28  19872355.589    19872355.306    19872355.822                   -26493531.452 9 -26493531.461 9                 -20644314.087 9       723.000         646.000         663.000                  
G29  22053197.735    22053197.346    22053197.795                   -15102894.149 8 -15102894.150 8                 -11768489.269 9       355.000         281.000         652.000                  
G31  19457528.712    19457528.591    19457528.160                   -27203470.724 9 -27203470.723 9                 -21197509.132 9       837.000        1552.000        1976.000                  
G32  23710823.173    23710822.992    23710826.666                    -6072890.090 8  -6072890.105 6                  -4732124.156 8       112.000          37.000         127.000                  
> 2024 10 31 19 09 30.0000000  0 10
G03  22053163.592    22053163.111    22053166.223                    -8501002.803 8  -8501002.805 8                  -6624162.324 9       300.000         226.000         675.000                  
G04  22894183.822    22894183.480    22894185.619                     -192996.289 8   -192996.282 7                   -150388.364 8       249.000          85.000         115.000                  
G06  24281376.466    24281377.320    24281380.184                    -2419054.720 7  -2419054.709 6                  -1884977.200 6        70.000          26.000          39.000                  
G11  24520830.267    24520829.595    24520830.875                    -2187681.541 8  -2187681.540 6                  -1704685.139 6       138.000          32.000          29.000                  
G25  21591208.776    21591208.047    21591211.486                   -15030569.697 8 -15030569.698 8                 -11712132.354 8       295.000         209.000         480.000                  
G26  20893684.072    20893683.440    20893687.330                   -18651555.925 8 -18651555.924 8                 -14533682.573 9       436.000         448.000        1051.000                  
G28  19850676.514    19850676.363    19850676.887                   -26607454.584 9 -26607454.593 9                 -20733085.302 9       717.000         639.000         655.000                  
G29  22012394.621    22012394.148    22012394.643                   -15317315.485 8 -15317315.487 8                 -11935570.871 9       355.000         273.000         618.000                  
G31  19455722.895    19455722.662    19455722.321                   -27212960.906 9 -27212960.905 9                 -21204904.067 9       834.000        1541.000        2018.000                  
G32  23649128.397    23649127.778    23649131.202                    -6397100.706 8  -6397100.688 6                  -4984755.760 8       117.000          41.000         138.000                  
> 2024 10 31 19 09 40.0000000  0 11
G03  22089686.837    22089686.720    22089689.576                    -8309071.218 8  -8309071.219 8                  -6474605.318 9       302.000         230.000         665.000                  
G04  22947491.628    22947491.201    22947493.288                       87137.563 8     87137.570 7                     67897.591 8       241.000          89.000         113.000                  
G06  24353590.886    24353589.637    24353593.485                    -2039573.261 7  -2039573.253 6                  -1589277.545 6        62.000          22.000          31.000                  
G11  24559585.144    24559584.926    24559586.013                    -1984023.845 8  -1984023.854 6                  -1545990.856 6       137.000          34.000          27.000                  
G16  24247623.657    24247636.347    24247652.985                     -204948.836 7   -204948.831 6                   -159702.995 6        77.000          17.000          17.000                  
G25  21597037.246    21597037.034    21597040.541                   -14999938.915 8 -14999938.915 8                 -11688264.299 8       283.000         203.000         491.000                  
G26  20857415.303    20857414.817    20857418.512                   -18842149.361 8 -18842149.360 8                 -14682196.927 9       462.000         499.000        1054.000                  
G28  19829813.030    19829812.954    19829813.458                   -26717093.143 9 -26717093.152 9                 -20818518.036 9       711.000         636.000         664.000                  
G29  21972428.567    21972427.828    21972428.307                   -15527340.004 8 -15527340.006 8                 -12099226.392 9       349.000         267.000         605.000                  
G31  19454765.790    19454765.418    19454765.234                   -27217991.420 9 -27217991.419 9                 -21208824.015 9       841.000        1546.000        2102.000                  
G32  23587602.547    23587602.577    23587606.278                    -6720418.023 8  -6720418.042 6                  -5236691.281 8       118.000          40.000         146.000                  
> 2024 10 31 19 09 50.0000000  0 11
G03  22126562.369    22126562.269    22126565.120                    -8115289.498 8  -8115289.501 8                  -6323606.691 9       300.000         238.000         662.000                  
G04  23001032.409    23001032.374    23001033.961                      368495.268 8    368495.284 7                    287137.297 8       234.000          78.000         104.000                  
G06  24426043.202    24426040.329    24426044.300                    -1658841.762 7  -1658841.758 6                  -1292603.815 6        56.000          24.000          29.000                  
G11  24598829.894    24598828.270    24598829.423                    -1777794.434 8  -1777794.421 6                  -1385292.700 6       134.000          21.000          31.000                  
G16  24204934.106    24204941.594    24204948.627                     -429291.280 7   -429291.261 6                   -334513.935 6        78.000          22.000          18.000                  
G25  21603623.280    21603622.405    21603626.086                   -14965332.106 8 -14965332.109 8                 -11661298.028 9       284.000         194.000         518.000                  
G26  20821873.198    20821872.506    20821876.290                   -19028925.534 8 -19028925.533 9                 -14827736.803 9       477.000         544.000        1058.000                  
G28  19809766.844    19809766.686    19809767.238                   -26822436.863 9 -26822436.872 9                 -20900604.093 9       711.000         633.000         686.000                  
G29  21933305.527    21933305.255    21933305.861                   -15732930.389 8 -15732930.389 8                 -12259426.718 9       353.000         279.000         610.000                  
G31  19454655.688    19454655.539    19454655.307                   -27218568.925 9 -27218568.925 9                 -21209274.058 9       841.000        1559.000        2115.000                  
G32  23526251.371    23526251.068    23526254.803                    -7042821.337 8  -7042821.342 6                  -5487914.593 8       127.000          42.000         150.000                  
> 2024 10 31 19 10  0.0000000  0 10
G03  22163781.794    22163782.025    22163784.765                    -7919698.449 8  -7919698.449 8                  -6171198.044 9       297.000         226.000         633.000                  
G04  23054798.390    23054797.877    23054800.048                      651036.768 8    651036.779 7                    507299.328 7       227.000          76.000          93.000                  
G11  24638554.992    24638553.662    24638555.405                    -1569036.500 8  -1569036.507 6                  -1222624.268 6       131.000          28.000          22.000                  
G16  24162495.633    24162501.278    24162526.853                     -652298.891 7   -652298.873 6                   -508287.408 6        82.000          22.000          18.000                  
G25  21610960.470    21610959.822    21610963.237                   -14926775.195 8 -14926775.195 8                 -11631253.743 9       284.000         195.000         507.000                  
G26  20787064.395    20787063.859    20787067.634                   -19211846.248 8 -19211846.248 9                 -14970272.429 9       487.000         561.000        1043.000                  
G28  19790540.221    19790539.842    19790540.299                   -26923474.544 9 -26923474.553 9                 -20979334.723 9       707.000         626.000         690.000                  
G29  21895033.969    21895033.705    21895034.475                   -15934048.066 8 -15934048.069 8                 -12416141.765 9       343.000         274.000         618.000                  
G31  19455392.352    19455392.029    19455391.599                   -27214699.140 9 -27214699.140 9                 -21206258.644 9       860.000        1623.000        2037.000                  
G32  23465078.280    23465078.323    23465081.550                    -7364287.581 8  -7364287.592 6                  -5738407.717 8       135.000          41.000         161.000                  
> 2024 10 31 19 10 10.0000000  0 10
G03  22201344.847    22201344.664    22201347.551                    -7722305.065 8  -7722305.064 8                  -6017385.083 9       296.000         225.000         636.000                  
G04  23108788.806    23108788.441    23108790.300                      934757.486 8    934757.490 7                    728380.268 7       219.000          74.000          95.000                  
G11  24678759.469    24678758.692    24678759.608                    -1357759.093 8  -1357759.112 6                  -1057992.680 6       128.000          27.000          26.000                  
G16  24120326.240    24120329.166    24120341.016                     -873904.401 7   -873904.383 6                   -680966.344 6        82.000          20.000          16.000                  
G25  21619051.073    21619050.056    21619053.587                   -14884260.289 8 -14884260.289 8                 -11598125.315 9       287.000         203.000         522.000                  
G26  20753003.252    20753002.617    20753006.384                   -19390839.097 8 -19390839.096 9                 -15109747.369 9       499.000         588.000        1029.000                  
G28  19772141.254    19772140.929    19772141.453                   -27020161.504 9 -27020161.513 9                 -21054675.225 9       709.000         618.000         734.000                  
G29  21857627.701    21857627.086    21857627.862                   -16130620.986 8 -16130620.990 8                 -12569315.514 9       355.000         277.000         623.000                  
G31  19456980.167    19456979.990    19456979.619                   -27206354.246 9 -27206354.246 9                 -21199756.160 9       857.000        1629.000        2050.000                  
G32  23404094.929    23404094.408    23404097.998                    -7684758.877 8  -7684758.883 7                  -5988125.573 8       145.000          59.000         171.000                  
> 2024 10 31 19 10 20.0000000  0 10
G03  22239242.967    22239243.080    22239245.814                    -7523148.872 8  -7523148.875 8                  -5862198.522 9       290.000         215.000         628.000                  
G04  23162997.191    23162996.077    23162997.996                     1219619.507 8   1219619.514 7                    950350.565 7       215.000          72.000          79.000                  
G11  24719434.997    24719435.493    24719435.866                    -1144004.474 8  -1144004.485 6                   -891430.729 6       123.000          28.000          28.000                  
G16  24078427.717    24078430.220    24078454.624                    -1094073.616 7  -1094073.625 6                   -852527.334 6        80.000          20.000          20.000                  
G25  21627889.451    21627888.591    21627892.251                   -14837813.587 8 -14837813.587 8                 -11561933.121 9       284.000         196.000         520.000                  
G26  20719696.779    20719696.245    20719699.901                   -19565865.519 9 -19565865.518 9                 -15246131.578 9       514.000         618.000         971.000                  
G28  19754572.255    19754571.977    19754572.540                   -27112486.800 9 -27112486.812 9                 -21126617.002 9       707.000         623.000         758.000                  
G29  21821093.266    21821092.718    21821093.461                   -16322610.726 8 -16322610.728 8                 -12718917.910 9       368.000         293.000         612.000                  
G31  19459418.620    19459418.336    19459418.038                   -27193540.494 9 -27193540.494 9                 -21189771.452 9       850.000        1589.000        2022.000                  
G32  23343305.462    23343304.534    23343308.492                    -8004210.337 8  -8004210.347 7                  -6237048.747 8       160.000          64.000         179.000                  
> 2024 10 31 19 10 30.0000000  0 10
G03  22277469.056    22277468.861    22277471.847                    -7322270.005 8  -7322270.005 8                  -5705669.624 9       282.000         212.000         607.000                  
G04  23217413.806    23217413.562    23217415.162                     1505584.520 8   1505584.548 7                   1173180.349 7       210.000          61.000          82.000                  
G11  24760575.974    24760574.879    24760576.037                     -927816.081 8   -927816.060 6                   -722972.293 6       122.000          26.000          22.000                  
G16  24036810.986    24036811.699    24036819.503                    -1312772.644 7  -1312772.628 6                  -1022940.406 6        79.000          19.000          21.000                  
G25  21637471.320    21637470.153    21637473.820                   -14787462.621 8 -14787462.618 8                 -11522698.666 9       284.000         194.000         524.000                  
G26  20687152.307    20687151.872    20687155.353                   -19736888.029 9 -19736888.028 9                 -15379395.861 9       529.000         661.000         958.000                  
G28  19737835.202    19737834.694    19737835.429                   -27200441.001 9 -27200441.010 9                 -21195152.754 9       700.000         617.000         774.000                  
G29  21785437.946    21785437.545    21785438.210                   -16509980.354 8 -16509980.355 8                 -12864920.197 9       371.000         306.000         584.000                  
G31  19462705.988    19462705.651    19462705.308                   -27176265.592 9 -27176265.592 9                 -21176310.484 9       847.000        1577.000        1987.000                  
G32  23282715.093    23282714.076    23282717.671                    -8322617.289 8  -8322617.297 7                  -6485158.020 8       175.000          73.000         180.000                  
> 2024 10 31 19 10 40.0000000  0 10
G03  22316016.295    22316016.324    22316019.333                    -7119702.280 8  -7119702.280 8                  -5547824.700 9       279.000         197.000         595.000                  
G04  23272035.300    23272034.526    23272036.236                     1792620.454 8   1792620.465 7                   1396844.534 7       205.000          60.000          71.000                  
G11  24802170.844    24802170.499    24802171.235                     -709231.498 8   -709231.516 6                   -552646.822 6       117.000          30.000          26.000                  
G16  23995483.792    23995481.360    23995482.768                    -1529961.544 7  -1529961.561 6                  -1192178.344 6        82.000          22.000          25.000                  
G25  21647791.335    21647790.387    21647794.192                   -14733229.498 8 -14733229.496 8                 -11480439.157 9       284.000         199.000         521.000                  
G26  20655377.977    20655377.475    20655381.029                   -19903863.501 9 -19903863.500 9                 -15509506.606 9       535.000         670.000         996.000                  
G28  19721932.673    19721932.285    19721932.970                   -27284009.247 9 -27284009.257 9                 -21260270.867 9       698.000         609.000         790.000                  
G29  21750670.013    21750669.340    21750670.111                   -16692687.749 8 -16692687.749 8                 -13007289.596 9       386.000         332.000         556.000                  
G31  19466841.571    19466841.382    19466841.088                   -27154532.123 9 -27154532.122 9                 -21159375.321 9       845.000        1575.000        1947.000                  
G32  23222329.136    23222328.057    23222331.286                    -8639948.752 8  -8639948.757 7                  -6732429.265 8       192.000          85.000         191.000                  
> 2024 10 31 19 10 50.0000000  0 10
G03  22354881.675    22354881.989    22354884.963                    -6915461.344 8  -6915461.344 8                  -5388675.904 9       270.000         191.000         587.000                  
G04  23326857.714    23326857.053    23326858.333                     2080713.793 8   2080713.800 7                   1621332.629 7       198.000          53.000          69.000                  
G11  24844217.335    24844217.524    24844218.749                     -488269.651 8   -488269.667 6                   -380468.727 6       111.000          23.000          22.000                  
G16  23954450.312    23954450.177    23954451.130                    -1745581.982 7  -1745582.002 6                  -1360194.181 6        87.000          22.000          23.000                  
G25  21658849.336    21658848.485    21658852.184                   -14675119.020 8 -14675119.022 8                 -11435158.326 9       279.000         195.000         523.000                  
G26  20624385.304    20624384.800    20624388.330                   -20066731.313 9 -20066731.311 9                 -15636416.577 9       543.000         693.000        1080.000                  
G28  19706870.798    19706870.471    19706871.270                   -27363159.515 9 -27363159.525 9                 -21321946.406 9       696.000         606.000         829.000                  
G29  21716800.327    21716799.868    21716800.402                   -16870673.540 8 -16870673.542 8                 -13145979.834 9       391.000         340.000         541.000                  
G31  19471828.621    19471828.390    19471828.098                   -27128325.374 9 -27128325.374 9                 -21138954.482 9       843.000        1571.000        1974.000                  
G32  23162156.349    23162156.321    23162159.195                    -8956155.260 8  -8956155.259 7                  -6978823.930 8       203.000         100.000         196.000                  
> 2024 10 31 19 11  0.0000000  0 10
G03  22394058.163    22394058.354    22394061.161                    -6709589.640 8  -6709589.641 8                  -5228256.464 9       266.000         180.000         577.000                  
G04  23381873.728    23381873.343    23381875.386                     2369824.730 8   2369824.731 7                   1846613.679 7       195.000          60.000          63.000                  
G11  24886708.758    24886708.269    24886710.991                     -264977.339 8   -264977.368 6                   -206474.807 6       106.000          18.000          19.000                  
G16  23913724.235    23913722.264    23913724.183                    -1959602.067 7  -1959602.060 6                  -1526963.001 6        89.000          22.000          28.000                  
G25  21670639.418    21670638.626    21670641.948                   -14613163.218 8 -14613163.219 8                 -11386881.126 9       283.000         197.000         503.000                  
G26  20594180.420    20594180.045    20594183.713                   -20225458.024 9 -20225458.025 9                 -15760099.718 9       540.000         685.000        1160.000                  
G28  19692650.466    19692650.319    19692651.032                   -27437887.151 9 -27437887.161 9                 -21380175.730 9       693.000         599.000         827.000                  
G29  21683835.732    21683834.924    21683835.279                   -17043905.719 8 -17043905.718 8                 -13280965.953 9       393.000         344.000         534.000                  
G31  19477664.477    19477664.212    19477663.764                   -27097658.210 9 -27097658.209 9                 -21115057.987 9       843.000        1561.000        1893.000                  
G32  23102202.869    23102202.545    23102205.627                    -9271213.666 8  -9271213.668 8                  -7224323.937 8       215.000         118.000         219.000                  
> 2024 10 31 19 11 10.0000000  0 10
G03  22433538.017    22433537.806    22433540.767                    -6502123.262 8  -6502123.266 8                  -5066594.418 9       263.000         179.000         560.000                  
G04  23437077.194    23437076.430    23437078.613                     2659919.480 8   2659919.477 7                   2072661.422 7       193.000          54.000          51.000                  
G11  24929635.332    24929635.292    24929637.949                      -39395.213 8    -39395.205 6                    -30696.573 6       101.000          25.000          24.000                  
G16  23873309.635    23873307.340    23873309.359                    -2171984.146 7  -2171984.150 6                  -1692455.454 6        89.000          22.000          32.000                  
