     3.03           OBSERVATION DATA    M (MIXED)           RINEX VERSION / TYPE
BJPP                CNES                20241031 192227 UTC PGM / RUN BY / DATE 
MARKER                                                      MARKER NAME         
SPACECRAFT                                                  MARKER TYPE         
OBSERVER            CNES                                    OBSERVER / AGENCY   
RECNUM              BLACKJACK           RECVERS             REC # / TYPE / VERS 
ANTNUM              BLACKJACK                               ANT # / TYPE        
        0.0000        0.0000        0.0000                  ANTENNA: DELTA H/E/N
G   12 C1C C1W C2W C2X L1C L1W L2X L2W S1C S1W S2W S2X      SYS / # / OBS TYPES 
DBHZ                                                        SIGNAL STRENGTH UNIT
This rinex produced from the following file(s):             COMMENT             
/tmp/mesos_work/slaves/d197f515-9ebc-49f2-8adc-fe7a9d3e6458-COMMENT             
S53/frameworks/8c1b9f46-52ed-4aff-9edf-38d17bf6761e-3405/exeCOMMENT             
cutors/toil-91572/runs/d2b191e3-ed98-41c7-b690-72f3f7f5176e/COMMENT             
642755a4e0b451b8a158b6e011710050/577d/9a38/tmp452czinl2rd9xrCOMMENT             
7h/stga6af20b2-b410-4b55-9b33-e481a2239370/SWOT_IVK_20241031COMMENT             
T185209_20241031T173659_20241031T190652_O_APID1280.PTM_0    COMMENT             
  2024    10    31    17    36   40.0000000                 TIME OF FIRST OBS   
G L1C                                                       SYS / PHASE SHIFT   
G L1W -0.25000                                              SYS / PHASE SHIFT   
G L2W                                                       SYS / PHASE SHIFT   
G L2X  0.25000                                              SYS / PHASE SHIFT   
                                                            END OF HEADER       
> 2024 10 31 17 36 40.0000000  0  7
G10  23699891.765    23699891.127    23699895.853                    -5453189.724 8  -5453189.722 7                  -4249241.523 8       165.000          66.000         159.000                  
G12  21571210.673    21571210.045    21571210.975                   -16473420.127 8 -16473420.129 8                 -12836436.355 9       362.000         315.000         789.000                  
G24  22441069.996    22441069.989    22441073.727                   -13723287.033 8 -13723287.038 8                 -10693475.180 9       258.000         168.000         537.000                  
G25  19364489.170    19364488.384    19364491.992                   -26106828.304 9 -26106828.305 9                 -20342985.845 9       865.000        1824.000        1887.000                  
G28  23343966.811    23343966.392    23343967.468                    -8679443.075 8  -8679443.072 7                  -6763206.506 8       209.000          58.000         132.000                  
G29  20889122.666    20889122.205    20889123.484                   -20191224.477 9 -20191224.478 9                 -15733421.111 9       647.000         924.000        1289.000                  
G32  20820655.294    20820655.053    20820657.930                   -22604596.102 9 -22604596.103 9                 -17613977.292 9       788.000        1565.000        1428.000                  
> 2024 10 31 17 36 50.0000000  0  7
G10  23685705.780    23685705.363    23685709.964                    -5527738.191 8  -5527738.181 7                  -4307331.492 8       165.000          69.000         148.000                  
G12  21616700.171    21616699.901    21616700.593                   -16234371.266 8 -16234371.267 8                 -12650164.660 9       351.000         295.000         791.000                  
G24  22425914.133    22425913.992    22425917.748                   -13802932.318 8 -13802932.319 8                 -10755536.577 9       265.000         172.000         526.000                  
G25  19397822.560    19397821.751    19397825.410                   -25931660.970 9 -25931660.970 9                 -20206491.922 9       849.000        1755.000        1988.000                  
G28  23391612.214    23391611.588    23391612.993                    -8429066.584 8  -8429066.590 7                  -6568108.142 8       205.000          59.000         136.000                  
G29  20836066.602    20836066.186    20836067.337                   -20470036.713 9 -20470036.715 9                 -15950677.458 9       680.000        1019.000        1252.000                  
G32  20849482.279    20849482.013    20849484.801                   -22453110.208 9 -22453110.209 9                 -17495936.461 9       800.000        1620.000        1294.000                  
> 2024 10 31 17 37  0.0000000  0  7
G10  23671694.479    23671694.197    23671699.326                    -5601366.228 8  -5601366.227 7                  -4364704.271 8       165.000          67.000         156.000                  
G12  21662816.323    21662815.992    21662816.779                   -15992029.955 8 -15992029.955 8                 -12461327.426 9       340.000         268.000         787.000                  
G24  22411217.138    22411216.879    22411220.842                   -13880166.376 8 -13880166.376 8                 -10815719.110 9       265.000         171.000         527.000                  
G25  19432139.527    19432138.798    19432142.501                   -25751324.151 9 -25751324.152 9                 -20065969.836 9       821.000        1634.000        2117.000                  
G28  23439618.294    23439618.006    23439619.409                    -8176792.315 8  -8176792.305 7                  -6371531.007 8       209.000          55.000         134.000                  
G29  20783898.851    20783898.399    20783899.604                   -20744180.182 9 -20744180.184 9                 -16164295.811 9       704.000        1094.000        1270.000                  
G32  20878883.224    20878883.021    20878885.726                   -22298607.534 9 -22298607.536 9                 -17375544.901 9       803.000        1626.000        1202.000                  
> 2024 10 31 17 37 10.0000000  0  8
G10  23657858.145    23657857.048    23657862.577                    -5674080.863 8  -5674080.859 7                  -4421365.326 8       165.000          78.000         151.000                  
G12  21709545.037    21709544.746    21709545.633                   -15746468.370 8 -15746468.372 8                 -12269980.902 9       326.000         264.000         750.000                  
G23  24551115.403    24551112.320    24551121.776                     -232445.140 8   -232445.135 6                   -181128.314 6       114.000          28.000          21.000                  
G24  22396976.961    22396976.879    22396980.641                   -13955000.129 8 -13955000.130 8                 -10874031.285 9       271.000         176.000         515.000                  
G25  19467428.176    19467427.352    19467431.176                   -25565881.638 9 -25565881.639 9                 -19921469.296 9       792.000        1517.000        2213.000                  
G28  23487977.548    23487976.534    23487978.070                    -7922666.245 8  -7922666.240 7                  -6173510.931 8       206.000          60.000         129.000                  
G29  20732630.220    20732629.587    20732630.800                   -21013600.037 9 -21013600.039 9                 -16374233.438 9       725.000        1178.000        1298.000                  
G32  20908850.961    20908850.587    20908853.228                   -22141127.699 9 -22141127.702 9                 -17252833.493 9       807.000        1640.000        1138.000                  
> 2024 10 31 17 37 20.0000000  0  8
G10  23644200.205    23644199.975    23644204.936                    -5745852.055 8  -5745852.059 7                  -4477291.259 8       163.000          74.000         153.000                  
G12  21756880.304    21756879.882    21756880.603                   -15497721.911 8 -15497721.913 8                 -12076152.668 9       325.000         248.000         726.000                  
G23  24498479.265    24498477.727    24498485.110                     -509051.831 8   -509051.835 6                   -396666.853 6       118.000          29.000          17.000                  
G24  22383198.472    22383198.121    22383202.066                   -14027407.751 8 -14027407.754 8                 -10930452.978 9       273.000         174.000         524.000                  
G25  19503683.132    19503682.259    19503686.037                   -25375361.253 9 -25375361.253 9                 -19773011.980 9       763.000        1402.000        2232.000                  
G28  23536686.468    23536686.524    23536687.577                    -7666697.370 8  -7666697.368 7                  -5974054.924 8       206.000          57.000         121.000                  
G29  20682277.384    20682276.835    20682278.192                   -21278205.458 9 -21278205.459 9                 -16580419.567 9       732.000        1187.000        1402.000                  
G32  20939384.311    20939384.092    20939386.912                   -21980673.626 9 -21980673.628 9                 -17127804.503 9       802.000        1626.000        1127.000                  
> 2024 10 31 17 37 30.0000000  0  8
G10  23630723.307    23630721.725    23630727.072                    -5816680.628 8  -5816680.623 7                  -4532482.703 8       167.000          69.000         147.000                  
G12  21804808.764    21804808.172    21804809.169                   -15245857.009 8 -15245857.008 8                 -11879894.500 9       325.000         255.000         706.000                  
G23  24445881.327    24445879.652    24445899.988                     -785461.998 8   -785461.987 6                   -612050.448 6       122.000          29.000          12.000                  
G24  22369880.208    22369880.208    22369884.061                   -14097394.697 8 -14097394.698 8                 -10984988.438 9       276.000         189.000         506.000                  
G25  19540892.890    19540892.064    19540895.897                   -25179822.733 9 -25179822.733 9                 -19620644.439 9       739.000        1315.000        2264.000                  
G28  23585739.246    23585738.801    23585739.903                    -7408925.672 8  -7408925.660 7                  -5773194.148 8       204.000          52.000         119.000                  
G29  20632852.107    20632851.717    20632853.073                   -21537936.867 9 -21537936.869 9                 -16782807.772 9       738.000        1205.000        1466.000                  
G32  20970477.337    20970477.056    20970480.059                   -21817279.492 9 -21817279.493 9                 -17000484.560 9       787.000        1559.000        1127.000                  
> 2024 10 31 17 37 40.0000000  0  8
G10  23617424.635    23617424.030    23617429.071                    -5886563.838 8  -5886563.834 7                  -4586937.522 8       170.000          76.000         140.000                  
G12  21853318.603    21853318.209    21853319.082                   -14990936.632 8 -14990936.632 8                 -11681255.457 9       328.000         262.000         684.000                  
G23  24393322.938    24393323.042    24393329.217                    -1061653.456 8  -1061653.446 6                   -827262.748 6       125.000          22.000          32.000                  
G24  22357022.801    22357022.435    22357026.374                   -14164963.112 8 -14164963.113 8                 -11037639.342 8       279.000         189.000         493.000                  
G25  19579046.742    19579045.968    19579049.887                   -24979323.275 9 -24979323.276 9                 -19464411.244 9       704.000        1206.000        2329.000                  
G28  23635127.566    23635127.188    23635128.900                    -7149387.650 8  -7149387.640 7                  -5570957.035 8       199.000          55.000         106.000                  
G29  20584366.225    20584365.794    20584367.291                   -21792731.851 9 -21792731.853 9                 -16981349.421 9       732.000        1192.000        1567.000                  
G32  21002123.897    21002123.680    21002126.727                   -21650976.216 9 -21650976.218 9                 -16870897.766 9       775.000        1508.000        1116.000                  
> 2024 10 31 17 37 50.0000000  0  8
G10  23604310.804    23604310.342    23604316.054                    -5955476.559 8  -5955476.559 7                  -4640636.156 8       173.000          72.000         138.000                  
G12  21902402.500    21902401.862    21902402.662                   -14733001.421 8 -14733001.423 8                 -11480267.208 9       334.000         259.000         659.000                  
G23  24340816.031    24340815.877    24340820.853                    -1337581.470 8  -1337581.478 6                  -1042271.352 6       126.000          29.000          28.000                  
G24  22344628.765    22344628.659    22344632.742                   -14230093.170 8 -14230093.175 8                 -11088390.241 8       277.000         194.000         489.000                  
G25  19618137.716    19618137.102    19618141.050                   -24773898.610 9 -24773898.611 9                 -19304340.235 9       683.000        1125.000        2318.000                  
G28  23684850.528    23684849.558    23684851.094                    -6888097.489 8  -6888097.486 6                  -5367354.647 8       193.000          49.000         101.000                  
G29  20536835.964    20536835.375    20536836.915                   -22042506.368 9 -22042506.369 9                 -17175979.027 9       732.000        1185.000        1644.000                  
G32  21034322.454    21034322.122    21034325.295                   -21481772.666 9 -21481772.668 9                 -16739051.029 9       763.000        1469.000        1074.000                  
> 2024 10 31 17 38  0.0000000  0  8
G10  23591383.549    23591381.869    23591387.413                    -6023419.513 8  -6023419.513 7                  -4693579.150 8       175.000          79.000         141.000                  
G12  21952046.823    21952046.394    21952047.309                   -14472118.438 8 -14472118.438 8                 -11276982.010 9       334.000         269.000         674.000                  
G23  24288362.651    24288362.343    24288367.310                    -1613226.873 8  -1613226.888 6                  -1257060.321 6       133.000          27.000          34.000                  
G24  22332697.622    22332697.919    22332701.985                   -14292791.195 8 -14292791.197 8                 -11137246.064 9       275.000         191.000         504.000                  
G25  19658154.249    19658153.535    19658157.600                   -24563611.376 9 -24563611.377 9                 -19140480.221 9       673.000        1090.000        2327.000                  
G28  23734897.769    23734897.211    23734899.358                    -6625095.348 8  -6625095.348 6                  -5162418.278 8       190.000          49.000         103.000                  
G29  20490271.712    20490271.215    20490272.898                   -22287203.013 9 -22287203.015 9                 -17366651.864 9       729.000        1179.000        1814.000                  
G32  21067066.327    21067065.970    21067069.003                   -21309703.916 9 -21309703.917 9                 -16604971.680 9       767.000        1479.000        1052.000                  
> 2024 10 31 17 38 10.0000000  0  8
G10  23578639.237    23578638.138    23578643.740                    -6090389.441 8  -6090389.431 7                  -4745763.983 8       180.000          76.000         136.000                  
G12  22002240.625    22002240.066    22002240.860                   -14208350.645 8 -14208350.644 8                 -11071448.942 9       337.000         269.000         686.000                  
G23  24235967.858    24235967.198    24235972.641                    -1888566.341 8  -1888566.327 6                  -1471610.832 6       136.000          32.000          28.000                  
G24  22321229.219    22321229.323    22321233.516                   -14353059.909 8 -14353059.909 8                 -11184208.936 9       275.000         184.000         515.000                  
G25  19699084.698    19699084.076    19699088.073                   -24348521.047 9 -24348521.049 9                 -18972877.553 9       672.000        1093.000        2259.000                  
G28  23785264.543    23785264.016    23785266.137                    -6360417.437 8  -6360417.450 6                  -4956176.165 7       187.000          43.000          93.000                  
G29  20444685.403    20444684.876    20444686.600                   -22526761.345 9 -22526761.346 9                 -17553320.829 9       742.000        1217.000        1933.000                  
G32  21100349.180    21100349.016    21100352.052                   -21134801.359 9 -21134801.361 9                 -16468684.181 9       774.000        1489.000        1047.000                  
> 2024 10 31 17 38 20.0000000  0  8
G10  23566084.976    23566084.692    23566090.450                    -6156361.670 8  -6156361.673 7                  -4797171.437 8       174.000          84.000         136.000                  
G12  22052974.936    22052974.765    22052975.690                   -13941739.501 8 -13941739.501 8                 -10863700.298 9       340.000         282.000         716.000                  
G23  24183639.431    24183639.407    24183644.276                    -2163554.849 8  -2163554.853 6                  -1685887.945 6       141.000          35.000          37.000                  
G24  22310226.570    22310226.423    22310230.837                   -14410880.939 8 -14410880.941 8                 -11229264.538 9       277.000         186.000         523.000                  
G25  19740921.862    19740921.119    19740925.213                   -24128666.569 9 -24128666.569 9                 -18801562.577 9       673.000        1100.000        2176.000                  
G28  23835947.288    23835947.235    23835949.088                    -6094078.607 8  -6094078.611 6                  -4748639.858 7       187.000          46.000          93.000                  
G29  20400092.324    20400091.794    20400093.540                   -22761100.212 9 -22761100.213 9                 -17735922.687 9       742.000        1220.000        2048.000                  
G32  21134169.511    21134169.252    21134172.443                   -20957075.273 9 -20957075.274 9                 -16330196.545 9       740.000        1375.000        1063.000                  
> 2024 10 31 17 38 30.0000000  0  8
G10  23553720.585    23553720.707    23553726.325                    -6221336.795 8  -6221336.783 7                  -4847801.955 8       181.000          73.000         138.000                  
G12  22104238.018    22104237.584    22104238.906                   -13672352.321 8 -13672352.323 8                 -10653788.539 9       348.000         292.000         731.000                  
G23  24131382.399    24131381.044    24131386.525                    -2438172.434 8  -2438172.434 6                  -1899876.024 6       146.000          33.000          40.000                  
G24  22299688.380    22299688.137    22299692.465                   -14466261.506 8 -14466261.513 8                 -11272418.504 9       278.000         191.000         542.000                  
G25  19783653.012    19783652.445    19783656.504                   -23904113.000 9 -23904113.001 9                 -18626585.987 9       677.000        1111.000        2050.000                  
G28  23886938.943    23886938.246    23886940.253                    -5826119.038 8  -5826119.030 6                  -4539840.702 7       177.000          37.000          84.000                  
G29  20356502.892    20356502.437    20356504.139                   -22990164.840 9 -22990164.841 9                 -17914414.761 9       750.000        1247.000        2111.000                  
G32  21168520.224    21168519.970    21168523.404                   -20776561.490 9 -20776561.492 9                 -16189536.702 9       691.000        1201.000        1094.000                  
> 2024 10 31 17 38 40.0000000  0  8
G10  23541547.007    23541547.048    23541553.060                    -6285311.732 8  -6285311.730 7                  -4897653.137 8       185.000          85.000         138.000                  
G12  22156017.434    22156016.733    22156018.104                   -13400252.408 8 -13400252.410 8                 -10441762.980 9       351.000         303.000         746.000                  
G23  24079198.956    24079198.619    24079203.880                    -2712395.217 8  -2712395.236 6                  -2113556.454 6       153.000          32.000          43.000                  
G24  22289613.974    22289613.366    22289617.869                   -14519205.583 8 -14519205.585 8                 -11313673.922 9       276.000         183.000         557.000                  
G25  19827266.926    19827266.179    19827270.240                   -23674922.488 9 -23674922.489 9                 -18447996.212 9       682.000        1139.000        1914.000                  
G28  23938232.158    23938231.043    23938233.213                    -5556575.298 8  -5556575.297 6                  -4329807.171 7       171.000          47.000          75.000                  
G29  20313927.995    20313927.543    20313929.318                   -23213897.710 9 -23213897.712 9                 -18088752.226 9       755.000        1257.000        2163.000                  
G32  21203395.415    21203395.068    21203398.702                   -20593292.463 9 -20593292.465 9                 -16046729.941 9       665.000        1124.000        1093.000                  
> 2024 10 31 17 38 50.0000000  0  8
G10  23529569.317    23529568.418    23529574.522                    -6348261.793 8  -6348261.780 7                  -4946705.744 8       183.000          82.000         138.000                  
G12  22208304.693    22208304.389    22208305.668                   -13125481.521 8 -13125481.523 8                 -10227656.169 9       349.000         293.000         755.000                  
G23  24027100.325    24027099.341    24027105.487                    -2986177.518 8  -2986177.516 6                  -2326893.646 6       161.000          37.000          44.000                  
G24  22280005.535    22280005.351    22280010.248                   -14569695.753 8 -14569695.756 8                 -11353017.226 9       273.000         185.000         590.000                  
G25  19871755.216    19871754.324    19871758.511                   -23441136.363 9 -23441136.363 9                 -18265825.456 9       679.000        1120.000        1843.000                  
G28  23989822.970    23989822.732    23989825.371                    -5285462.364 8  -5285462.364 6                  -4118550.946 7       168.000          44.000          68.000                  
G29  20272382.791    20272382.199    20272384.049                   -23432220.711 9 -23432220.712 9                 -18258874.217 9       756.000        1266.000        2224.000                  
G32  21238792.821    21238792.507    21238796.038                   -20407279.287 9 -20407279.288 9                 -15901784.899 9       661.000        1099.000        1060.000                  
> 2024 10 31 17 39  0.0000000  0  8
G10  23517784.462    23517783.199    23517789.185                    -6410197.140 8  -6410197.135 7                  -4994967.704 8       187.000          85.000         130.000                  
G12  22261085.731    22261085.384    22261086.911                   -12848116.340 8 -12848116.341 8                 -10011527.860 9       339.000         276.000         746.000                  
G23  23975087.174    23975087.104    23975092.538                    -3259508.217 8  -3259508.212 6                  -2539878.907 6       164.000          45.000          42.000                  
G24  22270862.208    22270861.428    22270866.300                   -14617749.887 8 -14617749.889 8                 -11390462.339 9       271.000         187.000         609.000                  
G25  19917103.221    19917102.464    19917106.722                   -23202831.488 9 -23202831.489 9                 -18080133.617 9       672.000        1113.000        1734.000                  
G28  24041704.872    24041702.909    24041706.117                    -5012830.093 8  -5012830.089 6                  -3906110.884 7       165.000          37.000          69.000                  
G29  20231874.645    20231874.329    20231876.181                   -23645091.674 9 -23645091.676 9                 -18424747.878 9       756.000        1268.000        2241.000                  
G32  21274703.480    21274703.371    21274706.866                   -20218568.179 9 -20218568.180 9                 -15754737.599 9       649.000        1063.000        1065.000                  
> 2024 10 31 17 39 10.0000000  0  9
G10  23506198.968    23506199.050    23506205.315                    -6471076.328 8  -6471076.329 7                  -5042406.696 8       186.000          83.000         141.000                  
G12  22314356.187    22314355.237    22314357.099                   -12568182.123 8 -12568182.127 8                  -9793397.747 9       325.000         262.000         746.000                  
G15  24967222.840    24967220.661    24967230.949                     -279663.722 7   -279663.718 6                   -217921.652 6        95.000          29.000          18.000                  
G23  23923172.320    23923171.736    23923177.156                    -3532324.399 8  -3532324.426 6                  -2752463.218 6       169.000          44.000          43.000                  
G24  22262187.716    22262187.483    22262192.128                   -14663334.513 8 -14663334.513 8                 -11425983.172 9       277.000         187.000         648.000                  
G25  19963306.510    19963305.603    19963309.785                   -22960033.780 9 -22960033.781 9                 -17890940.887 9       672.000        1103.000        1593.000                  
G28  24093874.104    24093873.872    24093876.527                    -4738676.768 8  -4738676.753 6                  -3692485.654 7       160.000          42.000          67.000                  
G29  20192421.933    20192421.608    20192423.545                   -23852417.993 9 -23852417.995 9                 -18586301.051 9       764.000        1283.000        2247.000                  
G32  21311128.644    21311128.532    21311132.166                   -20027153.978 9 -20027153.979 9                 -15605584.020 9       635.000        1009.000        1046.000                  
> 2024 10 31 17 39 20.0000000  0  9
G10  23494810.527    23494810.056    23494816.138                    -6530928.850 8  -6530928.846 7                  -5089045.694 8       189.000          87.000         139.000                  
G12  22368096.697    22368095.808    22368097.821                   -12285774.775 8 -12285774.780 8                  -9573340.533 9       324.000         256.000         726.000                  
G15  24905450.883    24905450.542    24905453.579                     -604276.920 7   -604276.906 6                   -470867.032 6        88.000          29.000          16.000                  
G23  23871354.270    23871353.950    23871358.929                    -3804633.888 8  -3804633.889 7                  -2964652.671 6       175.000          52.000          46.000                  
G24  22253975.921    22253975.793    22253980.749                   -14706487.508 8 -14706487.509 8                 -11459609.243 9       276.000         192.000         685.000                  
G25  20010345.810    20010345.110    20010349.308                   -22712840.789 9 -22712840.791 9                 -17698323.282 9       659.000        1057.000        1472.000                  
G28  24146320.896    24146320.390    24146323.181                    -4463071.657 8  -4463071.653 6                  -3477729.212 7       161.000          40.000          66.000                  
G29  20154028.262    20154027.804    20154029.756                   -24054179.214 9 -24054179.216 9                 -18743517.784 9       776.000        1343.000        2265.000                  
G32  21348055.883    21348055.449    21348059.200                   -19833102.741 9 -19833102.743 9                 -15454375.625 9       614.000         945.000         990.000                  
> 2024 10 31 17 39 30.0000000  0  9
G10  23483624.395    23483623.816    23483630.608                    -6589712.680 8  -6589712.676 7                  -5134851.940 8       187.000          81.000         148.000                  
G12  22422303.263    22422302.751    22422304.641                   -12000918.747 8 -12000918.746 8                  -9351375.280 9       319.000         244.000         703.000                  
G15  24843789.770    24843788.393    24843795.594                     -928312.517 7   -928312.508 6                   -723362.194 6        80.000          24.000          23.000                  
G23  23819644.395    23819643.511    23819648.558                    -4076372.726 8  -4076372.724 6                  -3176397.387 6       183.000          50.000          50.000                  
G24  22246233.903    22246233.531    22246238.493                   -14747175.524 8 -14747175.524 8                 -11491314.551 9       280.000         183.000         724.000                  
G25  20058216.614    20058215.895    20058220.238                   -22461279.114 9 -22461279.114 9                 -17502301.519 9       649.000        1020.000        1423.000                  
G28  24199044.439    24199043.645    24199046.637                    -4186012.459 8  -4186012.465 6                  -3261839.796 7       156.000          34.000          59.000                  
G29  20116710.838    20116710.466    20116712.394                   -24250284.300 9 -24250284.302 9                 -18896327.135 9       802.000        1432.000        2281.000                  
G32  21385485.365    21385485.165    21385488.993                   -19636409.183 9 -19636409.184 9                 -15301108.289 9       589.000         880.000         937.000                  
> 2024 10 31 17 39 40.0000000  0  9
G10  23472638.728    23472638.121    23472645.295                    -6647445.602 8  -6647445.593 7                  -5179839.271 8       185.000          82.000         141.000                  
G12  22476959.681    22476959.573    22476961.423                   -11713698.178 8 -11713698.178 8                  -9127567.569 9       321.000         246.000         661.000                  
G15  24782239.102    24782237.118    24782244.126                    -1251767.511 7  -1251767.509 6                   -975404.898 6        82.000          27.000          22.000                  
G23  23768042.724    23768043.071    23768048.526                    -4347536.525 8  -4347536.533 7                  -3387693.980 6       186.000          52.000          49.000                  
G24  22238955.248    22238955.067    22238960.106                   -14785425.330 8 -14785425.331 8                 -11521119.959 9       277.000         189.000         745.000                  
G25  20106902.363    20106901.594    20106906.111                   -22205435.705 9 -22205435.704 9                 -17302943.349 9       632.000         966.000        1401.000                  
G28  24252033.500    24252031.987    24252036.069                    -3907556.698 8  -3907556.692 6                  -3044862.191 7       152.000          36.000          54.000                  
G29  20080475.479    20080475.090    20080477.039                   -24440703.465 9 -24440703.467 9                 -19044705.898 9       830.000        1530.000        2291.000                  
G32  21423407.638    21423407.441    21423411.184                   -19437128.068 9 -19437128.069 9                 -15145824.691 9       575.000         827.000         883.000                  
> 2024 10 31 17 39 50.0000000  0  9
G10  23461857.667    23461857.351    23461864.295                    -6704102.802 8  -6704102.798 7                  -5223988.341 8       188.000          90.000         144.000                  
G12  22532058.264    22532058.139    22532060.135                   -11424154.578 8 -11424154.580 8                  -8901949.712 9       324.000         248.000         602.000                  
G15  24720804.776    24720804.460    24720811.641                    -1574596.253 7  -1574596.260 6                  -1226959.610 6        82.000          23.000          26.000                  
G23  23716560.911    23716560.377    23716565.557                    -4618078.115 8  -4618078.111 7                  -3598505.667 6       191.000          51.000          50.000                  
G24  22232144.050    22232143.484    22232148.819                   -14821221.505 8 -14821221.509 8                 -11549013.440 9       284.000         186.000         744.000                  
G25  20156394.096    20156393.406    20156398.107                   -21945355.491 9 -21945355.492 9                 -17100283.781 9       601.000         877.000        1342.000                  
G28  24305285.348    24305284.131    24305288.150                    -3627719.303 8  -3627719.332 6                  -2826808.047 7       145.000          31.000          51.000                  
G29  20045335.524    20045335.263    20045337.223                   -24625365.666 9 -24625365.667 9                 -19188598.708 9       851.000        1618.000        2301.000                  
G32  21461820.019    21461819.764    21461823.643                   -19235271.753 9 -19235271.753 9                 -14988534.450 9       561.000         784.000         844.000                  
> 2024 10 31 17 40  0.0000000  0  9
G10  23451282.389    23451282.131    23451289.161                    -6759677.267 8  -6759677.273 7                  -5267293.677 8       188.000          88.000         154.000                  
G12  22587588.238    22587587.704    22587589.805                   -11132347.250 8 -11132347.249 8                  -8674567.941 9       330.000         258.000         579.000                  
G15  24659497.044    24659496.779    24659503.137                    -1896770.616 7  -1896770.621 6                  -1478004.361 6        81.000          20.000          31.000                  
G23  23665202.327    23665201.892    23665207.387                    -4887967.876 8  -4887967.881 7                  -3808809.363 7       194.000          56.000          56.000                  
G24  22225798.607    22225798.596    22225803.686                   -14854566.646 8 -14854566.648 8                 -11574997.013 9       277.000         194.000         770.000                  
G25  20206680.277    20206679.423    20206684.174                   -21681101.650 9 -21681101.651 9                 -16894372.039 9       579.000         815.000        1317.000                  
G28  24358793.706    24358793.048    24358797.126                    -3346532.989 8  -3346532.999 6                  -2607702.845 7       141.000          33.000          52.000                  
G29  20011301.151    20011300.672    20011302.723                   -24804218.920 9 -24804218.922 9                 -19327965.055 9       864.000        1668.000        2311.000                  
G32  21500716.639    21500716.239    21500720.384                   -19030870.559 9 -19030870.560 9                 -14829261.188 9       539.000         725.000         841.000                  
> 2024 10 31 17 40 10.0000000  0  9
G10  23440913.187    23440912.168    23440919.768                    -6814172.844 8  -6814172.847 7                  -5309758.267 8       190.000          86.000         156.000                  
G12  22643535.285    22643534.728    22643536.922                   -10838346.064 8 -10838346.062 8                  -8445476.662 9       331.000         264.000         543.000                  
G15  24598318.522    24598316.879    24598323.724                    -2218273.246 7  -2218273.242 6                  -1728525.572 6        84.000          28.000          36.000                  
G23  23613971.872    23613971.618    23613976.366                    -5157186.839 8  -5157186.824 6                  -4018590.301 7       200.000          50.000          57.000                  
G24  22219917.345    22219917.073    22219922.371                   -14885474.637 8 -14885474.643 8                 -11599081.492 9       281.000         193.000         781.000                  
G25  20257746.329    20257745.554    20257750.357                   -21412748.703 9 -21412748.705 9                 -16685266.190 9       556.000         761.000        1291.000                  
G28  24412551.674    24412550.465    24412555.127                    -3064041.306 8  -3064041.299 6                  -2387580.496 6       134.000          29.000          47.000                  
G29  19978379.608    19978379.120    19978381.174                   -24977223.402 9 -24977223.404 9                 -19462773.904 9       867.000        1680.000        2266.000                  
G32  21540089.564    21540089.197    21540093.354                   -18823965.873 9 -18823965.874 9                 -14668037.152 9       517.000         677.000         832.000                  
> 2024 10 31 17 40 20.0000000  0  9
G10  23430755.275    23430754.589    23430761.915                    -6867554.012 8  -6867554.017 7                  -5351354.415 8       186.000          96.000         149.000                  
G12  22699893.804    22699893.452    22699895.687                   -10542181.351 8 -10542181.354 8                  -8214699.522 9       328.000         258.000         503.000                  
G15  24537276.645    24537275.784    24537281.602                    -2539047.182 7  -2539047.186 6                  -1978478.959 6        83.000          29.000          30.000                  
G23  23562879.746    23562879.868    23562884.897                    -5425676.415 8  -5425676.413 7                  -4227802.838 7       209.000          60.000          58.000                  
G24  22214504.712    22214504.224    22214509.659                   -14913920.216 8 -14913920.219 8                 -11621247.184 9       282.000         199.000         765.000                  
G25  20309585.845    20309585.042    20309589.880                   -21140332.157 9 -21140332.159 9                 -16472993.899 9       544.000         719.000        1283.000                  
G28  24466555.360    24466554.904    24466560.091                    -2780248.395 8  -2780248.404 6                  -2166444.244 6       128.000          29.000          49.000                  
G29  19946585.602    19946585.306    19946587.428                   -25144301.527 9 -25144301.529 9                 -19592964.797 9       869.000        1676.000        2275.000                  
G32  21579938.646    21579938.167    21579942.364                   -18614559.844 9 -18614559.843 9                 -14504864.011 9       519.000         669.000         826.000                  
> 2024 10 31 17 40 30.0000000  0  9
G10  23420804.722    23420803.961    23420811.468                    -6919845.793 8  -6919845.786 7                  -5392101.618 8       190.000          94.000         152.000                  
G12  22756647.061    22756646.548    22756649.007                   -10243944.021 8 -10243944.024 8                  -7982307.361 8       324.000         255.000         484.000                  
G15  24476372.536    24476372.675    24476377.460                    -2859095.879 7  -2859095.864 6                  -2227867.178 6        85.000          24.000          39.000                  
G23  23511926.092    23511925.952    23511931.822                    -5693438.326 8  -5693438.321 7                  -4436448.289 7       212.000          63.000          71.000                  
G24  22209553.378    22209553.213    22209558.704                   -14939939.020 8 -14939939.017 8                 -11641521.852 9       284.000         204.000         779.000                  
G25  20362180.182    20362179.296    20362184.288                   -20863948.488 9 -20863948.489 9                 -16257630.332 9       522.000         662.000        1291.000                  
G28  24520794.818    24520795.009    24520799.489                    -2495218.832 8  -2495218.865 6                  -1944344.382 6       119.000          31.000          40.000                  
G29  19915922.778    19915922.230    19915924.420                   -25305437.643 9 -25305437.644 9                 -19718525.530 9       866.000        1659.000        2377.000                  
G32  21620251.540    21620251.194    21620255.469                   -18402715.317 9 -18402715.318 9                 -14339790.728 9       515.000         669.000         857.000                  
> 2024 10 31 17 40 40.0000000  0  9
G10  23411069.022    23411068.781    23411076.498                    -6971006.199 8  -6971006.202 7                  -5431967.167 8       194.000          96.000         160.000                  
G12  22813789.679    22813789.500    22813792.052                    -9943657.891 8  -9943657.891 8                  -7748318.728 8       325.000         254.000         462.000                  
G15  24415619.923    24415618.502    24415624.848                    -3178355.534 7  -3178355.516 6                  -2476640.540 6        91.000          29.000          39.000                  
G23  23461123.524    23461123.226    23461128.587                    -5960407.065 8  -5960407.062 7                  -4644475.635 7       218.000          69.000          69.000                  
G24  22205070.269    22205069.966    22205075.501                   -14963499.987 8 -14963499.987 8                 -11659881.300 9       296.000         204.000         768.000                  
G25  20415523.913    20415522.782    20415527.895                   -20583627.492 8 -20583627.494 9                 -16039198.713 9       498.000         608.000        1274.000                  
G28  24575272.859    24575270.255    24575276.635                    -2208950.249 8  -2208950.257 6                  -1721279.040 6       119.000          21.000          38.000                  
G29  19886405.692    19886405.286    19886407.540                   -25460550.522 9 -25460550.524 9                 -19839392.815 9       863.000        1663.000        2416.000                  
G32  21661029.022    21661028.811    21661033.452                   -18188428.298 8 -18188428.299 9                 -14172814.183 9       498.000         627.000         853.000                  
> 2024 10 31 17 40 50.0000000  0  9
G10  23401545.899    23401545.668    23401553.182                    -7021052.891 8  -7021052.890 7                  -5470964.823 8       198.000          98.000         156.000                  
G12  22871307.108    22871306.627    22871309.149                    -9641406.044 8  -9641406.045 8                  -7512798.360 8       323.000         246.000         428.000                  
G15  24355015.771    24355015.588    24355021.640                    -3496821.773 7  -3496821.763 6                  -2724795.626 7        92.000          32.000          52.000                  
G23  23410472.788    23410472.932    23410478.227                    -6226576.566 8  -6226576.567 7                  -4851880.154 7       225.000          71.000          71.000                  
G24  22201048.929    22201048.777    22201054.357                   -14984632.021 8 -14984632.024 8                 -11676348.042 9       295.000         218.000         740.000                  
G25  20469599.290    20469598.598    20469603.674                   -20299458.935 8 -20299458.936 9                 -15817768.984 9       486.000         579.000        1217.000                  
G28  24629972.599    24629971.027    24629976.923                    -1921499.812 8  -1921499.814 6                  -1497292.804 6       115.000          30.000          34.000                  
G29  19858038.917    19858038.317    19858040.609                   -25609620.187 9 -25609620.188 9                 -19955551.083 9       863.000        1653.000        2371.000                  
G32  21702260.755    21702260.550    21702265.436                   -17971754.538 8 -17971754.538 9                 -14003977.823 9       467.000         554.000         810.000                  
> 2024 10 31 17 41  0.0000000  0  9
G10  23392238.595    23392238.465    23392245.799                    -7069963.543 8  -7069963.544 7                  -5509077.197 8       201.000          98.000         163.000                  
G12  22929190.193    22929189.523    22929192.277                    -9337231.438 8  -9337231.439 8                  -7275779.747 8       317.000         244.000         428.000                  
G15  24294573.048    24294572.523    24294579.436                    -3814450.192 8  -3814450.196 6                  -2972297.822 7       103.000          26.000          69.000                  
G23  23359983.335    23359983.244    23359988.525                    -6491900.531 8  -6491900.522 7                  -5058625.793 7       228.000          65.000          79.000                  
G24  22197491.773    22197491.822    22197497.560                   -15003324.308 8 -15003324.307 8                 -11690913.656 9       297.000         212.000         771.000                  
G25  20524397.703    20524396.923    20524402.102                   -20011492.846 8 -20011492.847 9                 -15593380.123 9       467.000         544.000        1256.000                  
G28  24684895.417    24684893.357    24684899.923                    -1632884.660 8  -1632884.652 6                  -1272398.998 6       108.000          25.000          38.000                  
G29  19830833.016    19830832.454    19830834.764                   -25752588.204 9 -25752588.206 9                 -20066954.802 9       868.000        1661.000        2525.000                  
G32  21743943.934    21743943.455    21743948.487                   -17752709.921 8 -17752709.924 9                 -13833294.025 9       448.000         507.000         810.000                  
> 2024 10 31 17 41 10.0000000  0  9
G10  23383146.980    23383146.641    23383154.402                    -7117739.855 8  -7117739.854 7                  -5546305.625 8       198.000          98.000         159.000                  
G12  22987426.565    22987425.587    22987428.617                    -9031200.707 8  -9031200.707 8                  -7037314.776 8       312.000         232.000         426.000                  
G15  24234293.095    24234293.529    24234298.986                    -4131220.179 8  -4131220.187 6                  -3219131.121 7       110.000          32.000          72.000                  
G23  23309659.289    23309658.844    23309663.779                    -6756356.424 8  -6756356.420 7                  -5264694.995 7       230.000          73.000          78.000                  
G24  22194396.851    22194396.648    22194402.454                   -15019590.389 8 -15019590.389 8                 -11703588.688 9       293.000         216.000         768.000                  
G25  20579904.582    20579903.869    20579908.955                   -19719803.544 8 -19719803.546 9                 -15366090.047 9       452.000         502.000        1216.000                  
G28  24740031.623    24740030.056    24740036.711                    -1343145.855 8  -1343145.854 6                  -1046629.631 6       109.000          28.000          25.000                  
G29  19804794.417    19804793.884    19804796.152                   -25889421.849 9 -25889421.851 9                 -20173578.474 9       868.000        1688.000        2625.000                  
G32  21786070.380    21786070.044    21786075.228                   -17531334.471 8 -17531334.473 8                 -13660793.976 9       438.000         479.000         790.000                  
> 2024 10 31 17 41 20.0000000  0  9
G10  23374275.606    23374275.866    23374283.401                    -7164358.050 8  -7164358.046 7                  -5582631.579 8       198.000         100.000         152.000                  
G12  23046008.147    23046007.161    23046010.221                    -8723354.977 8  -8723354.978 8                  -6797435.513 8       300.000         217.000         413.000                  
G15  24174187.141    24174186.149    24174191.450                    -4447085.466 8  -4447085.434 6                  -3465259.452 7       127.000          36.000          80.000                  
G23  23259508.626    23259508.349    23259513.239                    -7019896.059 8  -7019896.060 7                  -5470050.217 7       232.000          71.000          90.000                  
G24  22191765.958    22191765.494    22191771.131                   -15033418.625 8 -15033418.624 8                 -11714364.081 9       293.000         220.000         753.000                  
G25  20636110.598    20636109.764    20636115.017                   -19424440.095 8 -19424440.096 8                 -15135936.993 9       438.000         475.000        1179.000                  
G28  24795379.279    24795377.407    24795384.729                    -1052298.956 8  -1052298.941 6                   -819996.821 6       103.000          23.000          27.000                  
G29  19779933.872    19779933.481    19779935.749                   -26020064.577 9 -26020064.579 9                 -20275378.043 9       866.000        1688.000        2755.000                  
G32  21828637.855    21828637.563    21828642.582                   -17307642.826 8 -17307642.827 8                 -13486489.086 9       427.000         449.000         788.000                  
> 2024 10 31 17 41 30.0000000  0  9
G10  23365625.120    23365623.958    23365631.789                    -7209822.196 8  -7209822.203 7                  -5618058.256 8       202.000          93.000         156.000                  
G12  23104921.019    23104920.870    23104924.261                    -8413762.849 8  -8413762.851 8                  -6556195.426 8       287.000         206.000         407.000                  
G15  24114255.002    24114254.360    24114259.923                    -4762027.439 8  -4762027.440 7                  -3710668.306 7       139.000          51.000          94.000                  
G23  23209536.846    23209536.279    23209541.258                    -7282498.828 8  -7282498.827 7                  -5674675.400 7       236.000          80.000          99.000                  
G24  22189595.406    22189594.990    22189600.488                   -15044825.530 8 -15044825.529 8                 -11723252.703 9       295.000         210.000         729.000                  
G25  20693000.917    20693000.192    20693005.471                   -19125479.611 8 -19125479.613 8                 -14902981.048 9       418.000         426.000        1181.000                  
G28  24850928.562    24850927.284    24850935.130                     -760387.325 8   -760387.337 6                   -592534.348 6       101.000          26.000          27.000                  
G29  19756256.638    19756256.183    19756258.548                   -26144489.345 9 -26144489.347 9                 -20372332.436 9       868.000        1670.000        2982.000                  
G32  21871637.746    21871637.407    21871642.692                   -17081677.598 8 -17081677.600 8                 -13310412.562 9       399.000         408.000         782.000                  
> 2024 10 31 17 41 40.0000000  0  9
G10  23357197.388    23357196.686    23357204.890                    -7254108.557 8  -7254108.552 7                  -5652567.146 8       200.000          94.000         154.000                  
G12  23164159.790    23164159.170    23164162.815                    -8102464.924 8  -8102464.923 8                  -6313626.136 8       275.000         178.000         390.000                  
G15  24054507.303    24054507.222    24054512.331                    -5075999.445 8  -5075999.445 7                  -3955321.342 8       148.000          52.000         112.000                  
G23  23159752.265    23159751.982    23159756.926                    -7544116.112 8  -7544116.110 7                  -5878532.668 7       239.000          75.000         100.000                  
G24  22187887.307    22187887.272    22187892.838                   -15053800.110 8 -15053800.109 8                 -11730245.987 9       294.000         217.000         724.000                  
G25  20750566.666    20750565.706    20750571.161                   -18822971.505 8 -18822971.506 8                 -14667260.710 9       404.000         400.000        1147.000                  
G28  24906677.958    24906676.357    24906684.350                     -467426.390 7   -467426.382 6                   -364254.299 6        95.000          26.000          24.000                  
G29  19733772.781    19733772.278    19733774.702                   -26262643.046 9 -26262643.048 9                 -20464400.276 9       876.000        1703.000        3050.000                  
G32  21915067.697    21915067.098    21915072.406                   -16853453.624 8 -16853453.624 8                 -13132575.961 9       380.000         372.000         750.000                  
> 2024 10 31 17 41 50.0000000  0 10
G10  23348993.586    23348993.299    23349000.841                    -7297218.761 8  -7297218.761 7                  -5686159.536 8       203.000          99.000         144.000                  
G12  23223709.916    23223709.640    23223713.614                    -7789526.924 8  -7789526.926 8                  -6069778.864 8       265.000         170.000         369.000                  
G15  23994948.271    23994948.827    23994953.749                    -5388980.120 8  -5388980.125 7                  -4199201.924 8       160.000          57.000         122.000                  
G18  24299191.682    24299223.981    24299240.033                     -427540.689 7   -427540.715 6                   -333151.465 6        77.000          17.000          16.000                  
G23  23110159.706    23110159.582    23110164.571                    -7804724.478 8  -7804724.480 7                  -6081603.758 7       243.000          78.000          99.000                  
G24  22186639.873    22186639.496    22186645.273                   -15060357.021 8 -15060357.024 8                 -11735355.358 9       293.000         212.000         722.000                  
G25  20808792.643    20808792.146    20808797.728                   -18516990.778 8 -18516990.778 8                 -14428834.425 9       393.000         380.000        1122.000                  
G28  24962619.502    24962617.414    24962626.057                     -173456.912 7   -173456.888 6                   -135188.355 6        90.000          22.000          23.000                  
G29  19712487.121    19712486.699    19712489.168                   -26374499.724 9 -26374499.726 9                 -20551561.337 9       882.000        1735.000        3142.000                  
G32  21958919.233    21958919.127    21958924.418                   -16623011.261 8 -16623011.259 8                 -12953010.732 9       365.000         345.000         707.000                  
> 2024 10 31 17 42  0.0000000  0 10
G10  23341013.815    23341014.191    23341021.690                    -7339149.360 8  -7339149.359 7                  -5718832.729 8       201.000          99.000         149.000                  
G12  23283561.616    23283560.947    23283564.816                    -7475009.148 8  -7475009.148 8                  -5824700.588 8       254.000         151.000         350.000                  
G15  23935583.865    23935583.733    23935588.610                    -5700942.717 8  -5700942.723 7                  -4442289.196 8       171.000          71.000         144.000                  
G18  24224324.105    24224355.446    24224364.348                     -820971.345 7   -820971.321 6                   -639718.250 6        87.000          20.000          19.000                  
G23  23060764.797    23060764.767    23060769.661                    -8064295.174 8  -8064295.171 7                  -6283866.278 8       250.000          88.000         107.000                  
G24  22185850.700    22185849.994    22185855.855                   -15064506.144 8 -15064506.145 8                 -11738588.510 9       296.000         210.000         741.000                  
G25  20867666.655    20867666.199    20867671.711                   -18207607.357 8 -18207607.357 8                 -14187756.681 9       387.000         359.000        1155.000                  
G28  25018746.160    25018743.496    25018751.804                      121485.570 7    121485.567 6                     94635.748 6        86.000          22.000          19.000                  
G29  19692405.381    19692404.964    19692407.409                   -26480030.166 9 -26480030.168 9                 -20633792.856 9       895.000        1784.000        3380.000                  
G32  22003186.881    22003186.359    22003191.903                   -16390385.763 8 -16390385.765 8                 -12771744.357 9       353.000         324.000         720.000                  
> 2024 10 31 17 42 10.0000000  0 10
G10  23333264.744    23333264.100    23333271.850                    -7379875.669 8  -7379875.673 7                  -5750567.503 8       201.000          95.000         145.000                  
G12  23343706.015    23343705.368    23343709.236                    -7158950.261 8  -7158950.268 8                  -5578421.445 8       247.000         142.000         325.000                  
G15  23876422.283    23876421.799    23876426.830                    -6011839.177 8  -6011839.181 7                  -4684545.713 8       180.000          75.000         155.000                  
G18  24149624.944    24149655.963    24149680.568                    -1213515.112 7  -1213515.105 6                   -945598.955 6        91.000          21.000          20.000                  
G23  23011576.449    23011576.655    23011581.406                    -8322777.981 8  -8322777.983 7                  -6485281.095 8       253.000          87.000         116.000                  
G24  22185521.275    22185520.840    22185526.603                   -15066236.363 8 -15066236.364 8                 -11739936.793 9       297.000         218.000         745.000                  
G25  20927179.255    20927178.254    20927183.926                   -17894870.045 8 -17894870.047 8                 -13944065.513 9       373.000         336.000        1142.000                  
G28  25075055.800    25075053.045    25075060.867                      417386.807 7    417386.769 6                    325206.931 6        85.000          23.000          21.000                  
G29  19673536.859    19673536.287    19673538.719                   -26579185.788 9 -26579185.790 9                 -20711056.976 9       909.000        1836.000        3466.000                  
