     3.03           OBSERVATION DATA    M (MIXED)           RINEX VERSION / TYPE
BJPP                CNES                20241031 091233 UTC PGM / RUN BY / DATE 
MARKER                                                      MARKER NAME         
SPACECRAFT                                                  MARKER TYPE         
OBSERVER            CNES                                    OBSERVER / AGENCY   
RECNUM              BLACKJACK           RECVERS             REC # / TYPE / VERS 
ANTNUM              BLACKJACK                               ANT # / TYPE        
        0.0000        0.0000        0.0000                  ANTENNA: DELTA H/E/N
G   12 C1C C1W C2W C2X L1C L1W L2X L2W S1C S1W S2W S2X      SYS / # / OBS TYPES 
DBHZ                                                        SIGNAL STRENGTH UNIT
This rinex produced from the following file(s):             COMMENT             
/tmp/mesos_work/slaves/d197f515-9ebc-49f2-8adc-fe7a9d3e6458-COMMENT             
S23/frameworks/8c1b9f46-52ed-4aff-9edf-38d17bf6761e-2899/exeCOMMENT             
cutors/toil-52068/runs/887ebc48-9e2f-46ee-9a13-5f92984a2911/COMMENT             
00677c7557bd5512a041c8f0bab17bd2/7845/5ecd/tmp5viojqllr4a4whCOMMENT             
v7/stg7e57da3e-434a-4dbf-8b1b-e354d6622330/SWOT_KRX_20241031COMMENT             
T083440_20241031T071009_20241031T082749_O_APID1280.PTM_0    COMMENT             
  2024    10    31     7     9   50.0000000                 TIME OF FIRST OBS   
G L1C                                                       SYS / PHASE SHIFT   
G L1W -0.25000                                              SYS / PHASE SHIFT   
G L2W                                                       SYS / PHASE SHIFT   
G L2X  0.25000                                              SYS / PHASE SHIFT   
                                                            END OF HEADER       
> 2024 10 31 07 09 50.0000000  0 10
G03  22207017.946    22207017.908    22207020.640                   -11112286.993 8 -11112286.995 8                  -8658926.048 9       272.000         188.000         598.000                  
G04  23240734.038    23240733.925    23240734.829                    -2950486.062 8  -2950486.035 7                  -2299080.386 7       198.000          61.000          65.000                  
G06  24513766.952    24513768.565    24513772.433                    -2232278.258 7  -2232278.243 6                  -1739439.712 6        51.000          22.000          24.000                  
G11  24656801.482    24656801.007    24656803.080                    -2311357.136 8  -2311357.144 6                  -1801060.925 6       117.000          28.000          25.000                  
G25  21462049.573    21462048.598    21462052.336                   -15403174.186 8 -15403174.189 8                 -12002474.761 9       274.000         179.000         517.000                  
G26  20885826.369    20885826.246    20885830.335                   -19440115.187 8 -19440115.187 8                 -15148142.920 9       426.000         433.000         902.000                  
G28  19721706.838    19721706.564    19721707.147                   -26809018.310 9 -26809018.317 9                 -20890143.040 9       671.000         554.000         711.000                  
G29  21862142.827    21862141.968    21862142.676                   -16650844.752 8 -16650844.753 8                 -12974685.335 9       352.000         283.000         555.000                  
G31  19517807.206    19517806.809    19517806.523                   -26737181.951 9 -26737181.951 9                 -20834167.378 9       797.000        1406.000        1878.000                  
G32  23299341.671    23299340.579    23299344.683                    -3208897.555 8  -3208897.547 7                  -2500442.811 8       171.000          75.000         185.000                  
> 2024 10 31 07 10  0.0000000  0  9
G03  22246646.503    22246646.462    22246649.305                   -10904037.479 8 -10904037.483 8                  -8496653.735 9       265.000         173.000         607.000                  
G04  23295813.112    23295811.923    23295814.342                    -2661046.367 8  -2661046.355 7                  -2073543.029 7       190.000          53.000          68.000                  
G11  24695399.717    24695400.093    24695402.838                    -2108520.948 8  -2108520.935 6                  -1643006.830 6       114.000          26.000          26.000                  
G25  21469333.322    21469332.513    21469336.239                   -15364896.606 8 -15364896.605 8                 -11972648.089 9       273.000         187.000         529.000                  
G26  20852688.606    20852687.886    20852691.980                   -19614257.919 8 -19614257.918 8                 -15283838.550 9       440.000         460.000         840.000                  
G28  19704546.392    19704546.108    19704546.690                   -26899196.605 9 -26899196.613 9                 -20960411.773 9       668.000         541.000         741.000                  
G29  21823138.316    21823137.508    21823138.169                   -16855814.784 8 -16855814.786 8                 -13134402.229 9       349.000         282.000         583.000                  
G31  19521108.554    19521108.199    19521107.933                   -26719833.181 9 -26719833.182 9                 -20820648.857 9       796.000        1415.000        1899.000                  
G32  23239076.059    23239075.886    23239079.728                    -3525592.951 8  -3525592.954 7                  -2747218.388 8       184.000          88.000         191.000                  
> 2024 10 31 07 10 10.0000000  0 10
G03  22286598.427    22286598.394    22286601.335                   -10694088.500 8 -10694088.503 8                  -8333057.188 9       259.000         174.000         597.000                  
G04  23351084.525    23351084.167    23351086.315                    -2370589.573 8  -2370589.571 7                  -1847213.123 7       188.000          55.000          62.000                  
G11  24734474.331    24734474.018    24734476.431                    -1903185.257 8  -1903185.279 6                  -1483005.102 6       115.000          26.000          24.000                  
G16  24231534.314    24231569.139    24231584.292                     -192425.465 7   -192425.476 6                   -149943.973 6        70.000          22.000          20.000                  
G25  21477380.718    21477379.844    21477383.436                   -15322607.973 8 -15322607.975 8                 -11939695.931 9       278.000         189.000         544.000                  
G26  20820288.204    20820287.889    20820291.715                   -19784521.917 8 -19784521.915 9                 -15416511.798 9       458.000         502.000         826.000                  
G28  19688221.394    19688221.171    19688221.761                   -26984985.009 9 -26984985.015 9                 -21027259.872 9       667.000         549.000         761.000                  
G29  21784999.367    21784998.788    21784999.519                   -17056234.812 8 -17056234.817 8                 -13290573.675 9       354.000         282.000         601.000                  
G31  19525245.782    19525245.337    19525244.974                   -26698092.736 9 -26698092.736 9                 -20803708.260 9       800.000        1405.000        1918.000                  
G32  23179019.075    23179018.845    23179022.330                    -3841194.580 8  -3841194.584 7                  -2993141.658 8       198.000          99.000         225.000                  
> 2024 10 31 07 10 20.0000000  0 10
G03  22326870.554    22326870.287    22326873.181                   -10482458.385 8 -10482458.388 8                  -8168150.660 9       252.000         164.000         600.000                  
G04  23406547.455    23406547.173    23406548.729                    -2079130.916 8  -2079130.884 6                  -1620102.556 7       181.000          45.000          57.000                  
G11  24774021.509    24774019.468    24774022.493                    -1695369.237 8  -1695369.213 6                  -1321070.611 6       113.000          22.000          23.000                  
G16  24191058.394    24191092.319    24191096.373                     -405128.071 7   -405128.073 6                   -315685.140 6        74.000          20.000          18.000                  
G25  21486190.629    21486189.753    21486193.439                   -15276311.891 8 -15276311.890 8                 -11903621.069 9       273.000         184.000         532.000                  
G26  20788637.584    20788637.237    20788640.990                   -19950847.936 8 -19950847.937 9                 -15546116.477 9       475.000         529.000         854.000                  
G28  19672737.721    19672737.517    19672738.110                   -27066351.988 9 -27066351.996 9                 -21090662.713 9       669.000         541.000         776.000                  
G29  21747738.135    21747737.836    21747738.533                   -17252042.897 8 -17252042.899 8                 -13443151.401 9       363.000         288.000         585.000                  
G31  19530221.054    19530220.704    19530220.354                   -26671947.067 9 -26671947.068 9                 -20783335.004 9       801.000        1412.000        1888.000                  
G32  23119179.188    23119179.097    23119182.575                    -4155654.550 8  -4155654.555 8                  -3238175.347 8       205.000         101.000         229.000                  
> 2024 10 31 07 10 30.0000000  0 10
G03  22367456.121    22367455.877    22367458.729                   -10269180.517 8 -10269180.520 8                  -8001960.164 9       244.000         157.000         586.000                  
G04  23462195.014    23462194.821    23462196.448                    -1786700.425 8  -1786700.401 6                  -1392234.753 6       174.000          47.000          47.000                  
G11  24814031.900    24814031.743    24814033.640                    -1485107.353 8  -1485107.365 6                  -1157230.253 6       114.000          23.000          23.000                  
G16  24150857.595    24150890.629    24150913.816                     -616389.087 7   -616389.085 6                   -480305.137 6        75.000          19.000          16.000                  
G25  21495758.917    21495758.560    21495762.100                   -15226027.997 8 -15226028.000 8                 -11864438.812 9       274.000         177.000         535.000                  
G26  20757744.372    20757744.046    20757747.800                   -20113192.416 8 -20113192.415 9                 -15672618.642 9       483.000         552.000         867.000                  
G28  19658098.429    19658098.239    19658098.746                   -27143282.066 9 -27143282.075 9                 -21150608.213 9       664.000         536.000         794.000                  
G29  21711363.347    21711363.081    21711363.716                   -17443193.072 8 -17443193.070 8                 -13592099.574 9       370.000         308.000         567.000                  
G31  19536034.112    19536033.878    19536033.452                   -26641398.683 9 -26641398.684 9                 -20759531.064 9       791.000        1392.000        1788.000                  
G32  23059562.853    23059562.816    23059566.375                    -4468939.674 8  -4468939.680 8                  -3482293.535 8       208.000         112.000         251.000                  
> 2024 10 31 07 10 40.0000000  0 10
G03  22408345.729    22408345.658    22408349.126                   -10054301.129 8 -10054301.135 8                  -7834521.725 9       238.000         149.000         584.000                  
G04  23518020.199    23518019.323    23518021.367                    -1493340.768 8  -1493340.765 6                  -1163642.911 6       168.000          44.000          46.000                  
G11  24854501.721    24854499.131    24854501.086                    -1272447.444 8  -1272447.454 6                   -991521.335 6       108.000          32.000          27.000                  
G16  24110934.684    24110967.683    24110983.560                     -826180.866 7   -826180.851 6                   -643778.818 6        76.000          23.000          19.000                  
G25  21506081.116    21506079.454    21506083.327                   -15171789.689 8 -15171789.693 8                 -11822175.196 9       277.000         186.000         544.000                  
G26  20727614.714    20727614.329    20727618.091                   -20271525.384 8 -20271525.383 9                 -15795994.957 9       489.000         555.000         909.000                  
G28  19644303.832    19644303.483    19644304.073                   -27215773.683 9 -27215773.692 9                 -21207095.179 9       663.000         543.000         801.000                  
G29  21675881.603    21675880.814    21675881.306                   -17629653.285 8 -17629653.285 8                 -13737393.224 9       373.000         304.000         576.000                  
G31  19542681.993    19542681.676    19542681.291                   -26606464.024 9 -26606464.024 9                 -20732309.250 9       776.000        1333.000        1738.000                  
G32  23000174.429    23000173.923    23000177.505                    -4781029.682 8  -4781029.681 8                  -3725480.462 8       210.000         107.000         276.000                  
> 2024 10 31 07 10 50.0000000  0 10
G03  22449539.788    22449539.814    22449542.981                    -9837825.563 8  -9837825.563 8                  -7665839.499 9       231.000         144.000         581.000                  
G04  23574020.515    23574020.837    23574022.541                    -1199053.830 8  -1199053.825 6                   -934328.491 6       165.000          41.000          45.000                  
G11  24895423.615    24895422.020    24895424.373                    -1057396.585 8  -1057396.579 6                   -823949.342 6       108.000          27.000          22.000                  
G16  24071306.909    24071338.155    24071361.221                    -1034434.918 7  -1034434.908 6                   -806055.016 6        76.000          20.000          18.000                  
G25  21517155.451    21517154.688    21517158.261                   -15113590.343 8 -15113590.341 8                 -11776825.062 9       272.000         180.000         527.000                  
G26  20698261.595    20698261.131    20698265.076                   -20425776.755 8 -20425776.754 9                 -15916190.851 9       474.000         542.000         978.000                  
G28  19631361.580    19631361.422    19631361.917                   -27283785.322 9 -27283785.331 9                 -21260091.251 9       664.000         543.000         798.000                  
G29  21641305.217    21641304.813    21641305.402                   -17811351.434 8 -17811351.436 8                 -13878976.186 9       380.000         319.000         550.000                  
G31  19550168.981    19550168.748    19550168.232                   -26567119.590 9 -26567119.589 9                 -20701651.256 9       779.000        1342.000        1705.000                  
G32  22941024.772    22941024.095    22941027.698                    -5091863.111 8  -5091863.113 8                  -3967688.239 8       223.000         124.000         302.000                  
> 2024 10 31 07 11  0.0000000  0 10
G03  22491024.799    22491024.635    22491027.804                    -9619820.938 8  -9619820.943 8                  -7495965.798 9       223.000         140.000         576.000                  
G04  23630186.146    23630186.364    23630187.149                     -903903.046 8   -903903.034 6                   -704340.957 6       160.000          39.000          44.000                  
G11  24936789.091    24936786.335    24936787.820                     -840024.161 8   -840024.176 6                   -654568.288 6       102.000          23.000          26.000                  
G16  24031969.070    24032002.655    24032033.376                    -1241144.500 7  -1241144.517 6                   -967127.715 6        80.000          19.000          20.000                  
G25  21528973.742    21528972.656    21528976.347                   -15051486.048 8 -15051486.048 8                 -11728432.129 9       272.000         187.000         509.000                  
G26  20669686.913    20669686.393    20669690.244                   -20575938.723 8 -20575938.723 9                 -16033200.181 9       474.000         535.000        1044.000                  
G28  19619267.872    19619267.592    19619268.136                   -27347338.217 9 -27347338.225 9                 -21309612.945 9       664.000         539.000         819.000                  
G29  21607637.305    21607636.784    21607637.264                   -17988278.393 8 -17988278.395 8                 -14016841.348 9       383.000         329.000         554.000                  
G31  19558487.729    19558487.392    19558487.034                   -26523404.718 9 -26523404.718 9                 -20667587.718 9       781.000        1346.000        1791.000                  
G32  22882113.749    22882113.605    22882116.898                    -5401440.241 8  -5401440.244 8                  -4208917.077 8       234.000         138.000         319.000                  
> 2024 10 31 07 11 10.0000000  0 10
G03  22532800.518    22532800.515    22532804.082                    -9400286.661 8  -9400286.664 8                  -7324900.160 9       230.000         140.000         576.000                  
G04  23686516.803    23686516.780    23686518.533                     -607884.063 8   -607884.075 6                   -473676.905 6       153.000          35.000          31.000                  
G11  24978595.411    24978592.757    24978594.710                     -620332.125 7   -620332.134 6                   -483379.713 6        99.000          21.000          20.000                  
G16  23992944.214    23992973.330    23992997.742                    -1446235.275 7  -1446235.280 6                  -1126938.341 6        83.000          22.000          15.000                  
G25  21541536.774    21541535.974    21541539.557                   -14985466.116 8 -14985466.119 8                 -11676988.083 9       276.000         188.000         503.000                  
G26  20641904.537    20641903.887    20641907.709                   -20721936.715 8 -20721936.713 9                 -16146964.837 9       482.000         545.000        1106.000                  
G28  19608031.207    19608031.062    19608031.559                   -27406387.182 9 -27406387.190 9                 -21355625.142 9       668.000         546.000         825.000                  
G29  21574891.837    21574891.063    21574891.547                   -18160358.530 8 -18160358.530 8                 -14150929.777 9       391.000         346.000         543.000                  
G31  19567643.066    19567642.943    19567642.496                   -26475292.131 9 -26475292.131 9                 -20630097.393 9       775.000        1329.000        1792.000                  
G32  22823455.225    22823454.818    22823458.104                    -5709693.551 8  -5709693.552 8                  -4449114.371 8       250.000         171.000         340.000                  
> 2024 10 31 07 11 20.0000000  0 10
G03  22574856.612    22574856.917    22574860.087                    -9179280.452 8  -9179280.453 8                  -7152687.572 9       235.000         147.000         571.000                  
G04  23743002.980    23743001.963    23743003.906                     -311050.801 8   -311050.812 6                   -242378.335 6       147.000          44.000          30.000                  
G11  25020828.900    25020828.437    25020830.363                     -398381.272 7   -398381.284 6                   -310431.099 6        92.000          17.000          21.000                  
G16  23954226.942    23954255.909    23954266.296                    -1649691.208 7  -1649691.227 6                  -1285477.336 6        80.000          18.000          15.000                  
G25  21554836.021    21554835.270    21554838.686                   -14915578.861 8 -14915578.862 8                 -11622530.507 8       277.000         185.000         484.000                  
G26  20614917.089    20614916.790    20614920.598                   -20863755.390 8 -20863755.390 9                 -16257472.940 9       485.000         563.000        1175.000                  
G28  19597648.913    19597648.731    19597649.298                   -27460946.135 9 -27460946.145 9                 -21398138.650 9       672.000         563.000         823.000                  
G29  21543071.255    21543070.737    21543071.393                   -18327575.321 8 -18327575.322 8                 -14281228.589 9       398.000         349.000         570.000                  
G31  19577629.456    19577629.243    19577628.754                   -26422813.699 9 -26422813.699 9                 -20589205.128 9       779.000        1331.000        1779.000                  
G32  22765049.979    22765049.828    22765053.167                    -6016613.706 8  -6016613.703 8                  -4688272.868 8       268.000         178.000         357.000                  
> 2024 10 31 07 11 30.0000000  0 10
G03  22617189.614    22617189.948    22617192.986                    -8956819.583 8  -8956819.584 8                  -6979341.484 9       239.000         146.000         544.000                  
G04  23799641.016    23799640.144    23799641.436                      -13416.590 8    -13416.587 6                    -10455.676 6       143.000          40.000          33.000                  
G11  25063492.150    25063490.686    25063492.232                     -174192.021 7   -174191.998 6                   -135738.186 6        91.000          24.000          20.000                  
G16  23915830.440    23915859.958    23915885.018                    -1851455.882 7  -1851455.865 6                  -1442694.550 6        88.000          19.000          17.000                  
G25  21568869.303    21568868.329    21568872.146                   -14841833.386 8 -14841833.388 8                 -11565066.559 8       270.000         177.000         460.000                  
G26  20588735.756    20588735.360    20588739.247                   -21001339.617 8 -21001339.616 9                 -16364681.469 9       486.000         563.000        1177.000                  
G28  19588126.069    19588125.837    19588126.468                   -27510989.580 9 -27510989.589 9                 -21437133.542 9       682.000         573.000         821.000                  
G29  21512187.168    21512186.473    21512186.960                   -18489873.096 8 -18489873.099 8                 -14407694.377 9       405.000         365.000         555.000                  
G31  19588448.169    19588447.645    19588447.345                   -26365962.029 9 -26365962.029 9                 -20544905.139 9       771.000        1302.000        1784.000                  
G32  22706908.337    22706908.213    22706911.430                    -6322150.917 8  -6322150.921 8                  -4926353.801 8       279.000         197.000         384.000                  
> 2024 10 31 07 11 40.0000000  0 10
G03  22659793.841    22659793.440    22659796.331                    -8732937.543 8  -8732937.546 8                  -6804887.989 9       245.000         154.000         538.000                  
G04  23856425.748    23856424.584    23856426.778                      284988.988 8    284988.982 6                    222068.078 6       139.000          29.000          31.000                  
G11  25106572.259    25106570.488    25106573.909                       52198.445 7     52198.455 6                     40669.825 6        88.000          22.000          20.000                  
G16  23877765.198    23877794.755    23877815.491                    -2051489.423 7  -2051489.400 6                  -1598566.192 6        84.000          20.000          17.000                  
G25  21583632.221    21583631.179    21583634.690                   -14764255.522 8 -14764255.524 8                 -11504616.282 8       261.000         162.000         452.000                  
G26  20563367.364    20563366.768    20563370.784                   -21134651.416 8 -21134651.417 9                 -16468560.828 9       491.000         570.000        1228.000                  
G28  19579463.984    19579463.646    19579464.295                   -27556509.533 9 -27556509.542 9                 -21472603.640 9       702.000         603.000         835.000                  
G29  21482246.142    21482245.696    21482246.005                   -18647213.861 8 -18647213.862 8                 -14530297.559 9       418.000         384.000         569.000                  
G31  19600096.832    19600096.512    19600096.210                   -26304747.119 9 -26304747.119 9                 -20497205.230 9       766.000        1288.000        1786.000                  
G32  22649036.061    22649035.944    22649039.336                    -6626271.544 8  -6626271.544 8                  -5163330.967 8       287.000         209.000         418.000                  
> 2024 10 31 07 11 50.0000000  0 10
G03  22702658.656    22702658.476    22702661.391                    -8507680.574 8  -8507680.577 8                  -6629363.125 9       246.000         160.000         514.000                  
G04  23913349.016    23913348.404    23913349.427                      584123.794 8    584123.774 6                    455160.024 6       135.000          24.000          36.000                  
G11  25150063.853    25150060.962    25150063.885                      280740.000 7    280740.025 6                    218754.083 6        84.000          21.000          23.000                  
G16  23840036.416    23840063.658    23840076.978                    -2249764.500 7  -2249764.500 6                  -1753055.170 6        89.000          22.000          17.000                  
G25  21599116.371    21599115.364    21599118.878                   -14682885.008 8 -14682885.011 8                 -11441210.698 8       257.000         168.000         446.000                  
G26  20538816.647    20538816.079    20538820.155                   -21263666.462 8 -21263666.460 9                 -16569092.050 9       496.000         578.000        1294.000                  
G28  19571661.542    19571661.197    19571661.757                   -27597511.739 9 -27597511.748 9                 -21504553.431 9       714.000         621.000         821.000                  
G29  21453253.330    21453252.466    21453252.988                   -18799573.212 8 -18799573.214 8                 -14649019.120 9       433.000         417.000         601.000                  
G31  19612571.445    19612571.174    19612570.847                   -26239192.505 9 -26239192.505 9                 -20446123.737 9       763.000        1271.000        1778.000                  
G32  22591437.467    22591437.270    22591440.734                    -6928954.216 8  -6928954.220 8                  -5399187.581 8       291.000         204.000         439.000                  
> 2024 10 31 07 12  0.0000000  0 10
G03  22745784.357    22745784.338    22745787.126                    -8281053.668 8  -8281053.670 8                  -6452770.780 9       248.000         157.000         513.000                  
G04  23970410.579    23970410.548    23970412.251                      883986.903 8    883986.901 6                    688819.521 6       128.000          24.000          25.000                  
G11  25193961.077    25193958.810    25193962.451                      511423.363 7    511423.346 6                    398507.263 6        79.000          21.000          23.000                  
G16  23802652.123    23802680.297    23802695.125                    -2446212.997 7  -2446212.982 6                  -1906092.307 6        95.000          23.000          20.000                  
G25  21615322.334    21615321.384    21615325.044                   -14597721.142 8 -14597721.145 8                 -11374849.251 8       259.000         155.000         435.000                  
G26  20515095.948    20515095.432    20515099.402                   -21388320.218 9 -21388320.217 9                 -16666224.856 9       502.000         592.000        1290.000                  
G28  19564725.214    19564725.041    19564725.559                   -27633961.820 9 -27633961.830 9                 -21532956.097 9       724.000         646.000         826.000                  
G29  21425220.211    21425219.752    21425220.232                   -18946886.870 8 -18946886.870 8                 -14763808.965 9       441.000         430.000         628.000                  
G31  19625875.124    19625874.755    19625874.475                   -26169281.667 9 -26169281.667 9                 -20391647.781 9       755.000        1265.000        1806.000                  
G32  22534124.063    22534124.103    22534127.484                    -7230136.864 8  -7230136.866 8                  -5633875.365 8       288.000         207.000         475.000                  
> 2024 10 31 07 12 10.0000000  0 10
G03  22789158.017    22789157.972    22789161.059                    -8053122.433 8  -8053122.433 8                  -6275162.078 9       245.000         163.000         504.000                  
G04  24027599.224    24027599.607    24027601.784                     1184516.912 8   1184516.897 6                    922998.606 6       117.000          26.000          24.000                  
G11  25238252.698    25238249.653    25238252.960                      744178.454 7    744178.432 6                    579874.786 6        78.000          22.000          18.000                  
G16  23765617.722    23765645.147    23765662.963                    -2640827.388 7  -2640827.360 6                  -2057699.301 6        91.000          18.000          19.000                  
G25  21632239.057    21632237.886    21632241.420                   -14508824.663 8 -14508824.659 8                 -11305579.284 8       252.000         157.000         421.000                  
G26  20492205.842    20492205.112    20492208.979                   -21508609.629 9 -21508609.628 9                 -16759956.888 9       521.000         632.000        1220.000                  
G28  19558650.065    19558649.786    19558650.350                   -27665887.157 9 -27665887.168 9                 -21557833.010 9       722.000         649.000         856.000                  
G29  21398147.984    21398147.370    21398147.965                   -19089152.547 8 -19089152.547 8                 -14874665.353 9       445.000         448.000         657.000                  
G31  19639998.960    19639998.719    19639998.549                   -26095059.579 9 -26095059.579 9                 -20333812.401 9       735.000        1192.000        1809.000                  
G32  22477096.941    22477096.607    22477100.319                    -7529817.877 8  -7529817.877 8                  -5867393.181 8       283.000         203.000         492.000                  
> 2024 10 31 07 12 20.0000000  0 10
G03  22832780.266    22832780.457    22832783.545                    -7823885.749 8  -7823885.750 8                  -6096536.156 8       237.000         145.000         497.000                  
G04  24084916.883    24084917.000    24084918.138                     1485719.194 8   1485719.183 6                   1157701.583 6       114.000          28.000          31.000                  
G11  25282937.122    25282935.873    25282938.392                      979001.243 7    979001.250 6                    762853.519 6        79.000          23.000          18.000                  
G16  23728948.589    23728973.304    23728991.171                    -2833533.623 7  -2833533.612 6                  -2207821.016 6        94.000          22.000          18.000                  
G25  21649866.451    21649865.777    21649869.305                   -14416190.411 8 -14416190.416 8                 -11233396.761 8       252.000         155.000         424.000                  
G26  20470159.058    20470158.460    20470162.257                   -21624465.969 9 -21624465.969 9                 -16850234.595 9       527.000         644.000        1152.000                  
G28  19553443.295    19553442.885    19553443.562                   -27693249.467 9 -27693249.478 9                 -21579154.312 9       728.000         664.000         857.000                  
G29  21372049.259    21372048.786    21372049.318                   -19226302.392 8 -19226302.392 8                 -14981535.382 9       454.000         459.000         705.000                  
G31  19654947.394    19654947.069    19654946.851                   -26016505.660 9 -26016505.660 9                 -20272601.573 9       728.000        1175.000        1775.000                  
G32  22420368.493    22420368.232    22420371.752                    -7827928.445 8  -7827928.446 8                  -6099687.232 9       285.000         209.000         524.000                  
> 2024 10 31 07 12 30.0000000  0 10
G03  22876640.476    22876640.025    22876643.351                    -7593401.738 8  -7593401.740 8                  -5916938.288 8       229.000         134.000         492.000                  
G04  24142351.461    24142351.569    24142352.860                     1787539.867 8   1787539.860 6                   1392886.430 6       106.000          24.000          26.000                  
G11  25328005.576    25328003.437    25328005.657                     1215828.475 7   1215828.445 6                    947394.192 6        74.000          22.000          20.000                  
G16  23692643.366    23692667.114    23692688.888                    -3024317.117 7  -3024317.123 6                  -2356451.503 6        90.000          22.000          18.000                  
G25  21668195.106    21668194.236    21668197.769                   -14319873.382 8 -14319873.382 8                 -11158344.544 8       247.000         151.000         430.000                  
G26  20448957.216    20448956.874    20448960.759                   -21735880.697 9 -21735880.697 9                 -16937051.300 9       510.000         602.000        1142.000                  
G28  19549100.440    19549100.214    19549100.759                   -27716070.814 9 -27716070.826 9                 -21596937.160 9       731.000         667.000         884.000                  
G29  21346925.369    21346925.039    21346925.499                   -19358329.234 8 -19358329.236 8                 -15084413.469 9       455.000         452.000         742.000                  
G31  19670712.250    19670712.166    19670711.970                   -25933659.611 9 -25933659.611 9                 -20208046.227 9       722.000        1152.000        1682.000                  
G32  22363940.599    22363940.290    22363943.763                    -8124459.044 8  -8124459.045 8                  -6330749.984 9       289.000         207.000         552.000                  
> 2024 10 31 07 12 40.0000000  0 10
G03  22920733.690    22920734.296    22920737.318                    -7361686.965 8  -7361686.970 8                  -5736381.385 8       222.000         128.000         489.000                  
G04  24199901.108    24199901.556    24199901.904                     2089966.732 8   2089966.727 6                   1628543.578 6       104.000          24.000          21.000                  
G11  25373447.886    25373447.609    25373450.728                     1454637.990 7   1454637.991 6                   1133479.442 6        73.000          23.000          19.000                  
G16  23656713.931    23656735.656    23656758.659                    -3213121.767 7  -3213121.788 6                  -2503559.639 6        94.000          21.000          16.000                  
G25  21687221.708    21687220.729    21687224.455                   -14219887.788 8 -14219887.788 8                 -11080433.699 8       238.000         145.000         425.000                  
G26  20428610.548    20428610.033    20428613.878                   -21842804.860 9 -21842804.859 9                 -17020368.867 9       507.000         606.000        1157.000                  
G28  19545625.153    19545624.999    19545625.650                   -27734333.090 9 -27734333.101 9                 -21611167.520 9       733.000         667.000         903.000                  
G29  21322785.579    21322784.973    21322785.553                   -19485185.709 8 -19485185.710 8                 -15183262.706 9       451.000         454.000         765.000                  
G31  19687294.566    19687294.258    19687293.911                   -25846520.636 9 -25846520.636 9                 -20140145.746 9       717.000        1131.000        1613.000                  
G32  22307822.880    22307822.695    22307826.082                    -8419359.329 8  -8419359.333 8                  -6560542.475 9       293.000         215.000         585.000                  
> 2024 10 31 07 12 50.0000000  0 10
G03  22965056.156    22965055.990    22965059.213                    -7128773.394 8  -7128773.392 8                  -5554890.350 8       212.000         125.000         466.000                  
G04  24257560.761    24257561.692    24257563.508                     2392972.175 7   2392972.170 6                   1864651.600 6        95.000          25.000          24.000                  
G11  25419264.105    25419260.575    25419262.669                     1695391.927 7   1695391.928 6                   1321079.764 6        72.000          21.000          25.000                  
G16  23621170.438    23621188.782    23621212.081                    -3399907.480 7  -3399907.483 6                  -2649099.056 6        93.000          15.000          16.000                  
G25  21706940.412    21706939.695    21706943.422                   -14116264.100 8 -14116264.096 8                 -10999687.993 8       239.000         140.000         429.000                  
G26  20409123.991    20409123.560    20409127.641                   -21945205.896 8 -21945205.896 9                 -17100161.916 9       496.000         579.000        1163.000                  
G28  19543018.076    19543017.814    19543018.369                   -27748034.573 9 -27748034.585 9                 -21621844.055 9       736.000         682.000         901.000                  
G29  21299635.150    21299634.565    21299635.189                   -19606841.321 8 -19606841.320 8                 -15278059.312 9       442.000         435.000         765.000                  
G31  19704690.557    19704690.256    19704689.933                   -25755104.270 9 -25755104.271 9                 -20068912.241 9       717.000        1136.000        1612.000                  
G32  22252021.981    22252021.974    22252025.661                    -8712593.638 8  -8712593.638 8                  -6789036.804 9       285.000         214.000         601.000                  
> 2024 10 31 07 13  0.0000000  0 10
G03  23009597.327    23009597.358    23009600.807                    -6894706.840 8  -6894706.842 8                  -5372500.891 8       205.000         108.000         436.000                  
G04  24315323.544    24315322.752    24315326.386                     2696514.869 7   2696514.878 6                   2101178.249 6        90.000          25.000          20.000                  
G11  25465439.046    25465434.918    25465438.957                     1938038.431 7   1938038.422 6                   1510154.865 6        63.000          25.000          18.000                  
G16  23586014.405    23586030.846    23586056.562                    -3584647.705 7  -3584647.685 6                  -2793064.659 6        97.000          20.000          19.000                  
G25  21727342.953    21727342.261    21727346.102                   -14009047.376 8 -14009047.377 8                 -10916142.523 8       242.000         145.000         437.000                  
G26  20390502.113    20390501.397    20390505.462                   -22043066.211 8 -22043066.210 9                 -17176416.735 9       490.000         559.000        1178.000                  
G28  19541276.122    19541275.938    19541276.412                   -27757188.311 9 -27757188.322 9                 -21628976.821 9       751.000         700.000         902.000                  
G29  21277477.298    21277476.768    21277477.595                   -19723280.815 8 -19723280.815 8                 -15368791.414 9       438.000         439.000         764.000                  
G31  19722894.532    19722894.374    19722894.099                   -25659440.907 9 -25659440.906 9                 -19994369.397 9       704.000        1104.000        1568.000                  
G32  22196543.127    22196542.515    22196546.312                    -9004140.539 8  -9004140.541 8                  -7016216.382 9       287.000         212.000         615.000                  
> 2024 10 31 07 13 10.0000000  0 10
G03  23054357.009    23054357.567    23054360.526                    -6659491.845 8  -6659491.848 7                  -5189216.554 8       198.000         100.000         421.000                  
G04  24373187.891    24373187.730    24373190.192                     3000594.725 7   3000594.753 6                   2338123.541 6        88.000          21.000          18.000                  
G11  25511968.462    25511968.130    25511970.502                     2182566.444 7   2182566.453 6                   1700695.916 6        63.000          21.000          17.000                  
G16  23551262.202    23551273.377    23551306.743                    -3767275.336 8  -3767275.316 6                  -2935364.746 6       102.000          19.000          18.000                  
G25  21748429.391    21748427.991    21748431.703                   -13898242.279 8 -13898242.283 8                 -10829800.917 8       237.000         140.000         442.000                  
G26  20372754.696    20372754.223    20372758.343                   -22136328.091 8 -22136328.090 9                 -17249088.344 9       493.000         584.000        1223.000                  
G28  19540404.821    19540404.481    19540405.074                   -27761767.705 9 -27761767.717 9                 -21632545.191 9       759.000         722.000         897.000                  
G29  21256323.002    21256322.243    21256322.955                   -19834449.195 8 -19834449.197 8                 -15455416.147 9       447.000         446.000         755.000                  
G31  19741908.796    19741908.575    19741908.294                   -25559520.662 9 -25559520.661 9                 -19916509.496 9       693.000        1064.000        1511.000                  
G32  22141396.445    22141396.052    22141400.019                    -9293936.917 8  -9293936.918 8                  -7242031.883 9       295.000         216.000         632.000                  
> 2024 10 31 07 13 20.0000000  0 10
G03  23099323.169    23099323.430    23099326.724                    -6423193.600 8  -6423193.599 8                  -5005088.117 8       192.000         103.000         389.000                  
G04  24431142.480    24431143.334    24431146.293                     3305151.039 7   3305151.066 6                   2575439.924 6        82.000          24.000          16.000                  
G11  25558846.681    25558844.122    25558845.559                     2428904.031 7   2428904.028 6                   1892645.228 6        65.000          18.000          22.000                  
G16  23516912.732    23516918.510    23516957.554                    -3947783.970 8  -3947783.988 6                  -3075991.734 6       105.000          23.000          18.000                  
G25  21770184.532    21770183.602    21770187.447                   -13783914.897 8 -13783914.901 8                 -10740714.691 8       235.000         138.000         451.000                  
G26  20355881.898    20355881.466    20355885.543                   -22224995.645 9 -22224995.643 9                 -17318179.948 9       502.000         585.000        1278.000                  
G28  19540397.200    19540396.843    19540397.459                   -27761807.723 9 -27761807.734 9                 -21632576.399 9       764.000         719.000         892.000                  
G29  21236169.779    21236169.398    21236169.978                   -19940353.590 8 -19940353.593 8                 -15537939.064 9       452.000         463.000         746.000                  
G31  19761723.321    19761722.889    19761722.773                   -25455395.368 9 -25455395.367 9                 -19835372.940 9       691.000        1063.000        1498.000                  
G32  22086584.030    22086583.346    22086587.166                    -9581980.477 8  -9581980.476 8                  -7466481.454 9       299.000         225.000         640.000                  
> 2024 10 31 07 13 30.0000000  0 10
G03  23144496.433    23144496.444    23144499.530                    -6185809.211 8  -6185809.219 7                  -4820113.344 8       187.000          87.000         373.000                  
G04  24489191.013    24489189.657    24489193.383                     3610191.242 7   3610191.242 6                   2813133.527 6        76.000          23.000          23.000                  
G11  25606064.933    25606064.246    25606066.719                     2677047.171 7   2677047.164 6                   2086002.418 6        59.000          15.000          19.000                  
G16  23482980.505    23482982.625    23483024.385                    -4126099.511 8  -4126099.517 6                  -3214889.707 6       109.000          21.000          19.000                  
G25  21792610.893    21792610.303    21792613.801                   -13666063.914 8 -13666063.916 8                 -10648882.778 8       226.000         127.000         449.000                  
G26  20339895.354    20339894.775    20339898.869                   -22309006.086 8 -22309006.086 9                 -17383642.629 9       498.000         579.000        1295.000                  
G28  19541259.453    19541259.209    19541259.726                   -27757276.430 9 -27757276.441 9                 -21629045.548 9       762.000         741.000         891.000                  
G29  21217029.901    21217029.457    21217030.108                   -20040934.524 8 -20040934.526 8                 -15616313.844 9       464.000         483.000         749.000                  
G31  19782340.903    19782340.526    19782340.301                   -25347049.727 9 -25347049.728 9                 -19750947.803 9       698.000        1089.000        1486.000                  
G32  22032117.629    22032117.453    22032121.182                    -9868201.166 8  -9868201.169 8                  -7689510.597 9       306.000         242.000         660.000                  
> 2024 10 31 07 13 40.0000000  0 10
G03  23189865.001    23189864.846    23189868.173                    -5947395.784 8  -5947395.786 7                  -4634336.712 8       181.000          89.000         356.000                  
G04  24547320.955    24547319.592    24547322.359                     3915662.830 7   3915662.825 6                   3051162.272 6        76.000          18.000          18.000                  
G11  25653617.765    25653614.877    25653619.603                     2926931.490 7   2926931.476 6                   2280717.216 6        60.000          21.000          20.000                  
G16  23449468.388    23449468.253    23449512.805                    -4302208.138 8  -4302208.137 6                  -3352056.231 6       117.000          20.000          15.000                  
G25  21815696.096    21815695.539    21815699.319                   -13544748.844 8 -13544748.841 8                 -10554351.557 8       221.000         126.000         449.000                  
G26  20324795.103    20324794.632    20324798.751                   -22388357.811 9 -22388357.812 9                 -17445475.144 9       508.000         613.000        1395.000                  
G28  19542985.956    19542985.818    19542986.329                   -27748203.075 9 -27748203.086 9                 -21621975.422 9       760.000         740.000         869.000                  
G29  21198902.639    21198902.323    21198902.978                   -20136193.990 8 -20136193.991 8                 -15690542.028 9       465.000         492.000         767.000                  
G31  19803752.899    19803752.392    19803752.106                   -25234529.454 9 -25234529.454 9                 -19663269.695 9       701.000        1084.000        1462.000                  
G32  21978000.749    21978000.345    21978004.061                   -10152588.850 8 -10152588.850 8                  -7911111.418 9       313.000         251.000         687.000                  
> 2024 10 31 07 13 50.0000000  0 10
G03  23235426.950    23235426.314    23235429.562                    -5707969.597 8  -5707969.594 7                  -4447770.916 8       177.000          75.000         331.000                  
G04  24605528.621    24605528.589    24605533.363                     4221554.037 7   4221554.035 6                   3289517.843 6        68.000          18.000          16.000                  
G11  25701495.183    25701493.398    25701500.050                     3178533.159 7   3178533.155 6                   2476768.308 6        57.000          27.000          19.000                  
G16  23416386.075    23416385.418    23416431.948                    -4476055.500 8  -4476055.482 6                  -3487461.792 6       120.000          21.000          18.000                  
G25  21839437.114    21839436.685    21839440.198                   -13419989.150 8 -13419989.150 8                 -10457136.199 8       215.000         114.000         428.000                  
G26  20310589.485    20310588.915    20310593.060                   -22463009.744 9 -22463009.743 9                 -17503645.533 9       526.000         645.000        1504.000                  
G28  19545579.123    19545578.802    19545579.227                   -27734577.374 9 -27734577.384 9                 -21611358.048 9       762.000         741.000         868.000                  
G29  21181795.054    21181794.879    21181795.357                   -20226094.821 8 -20226094.822 8                 -15760594.649 9       474.000         492.000         760.000                  
G31  19825957.799    19825957.694    19825957.311                   -25117840.448 9 -25117840.448 9                 -19572343.232 9       696.000        1068.000        1427.000                  
G32  21924241.881    21924241.705    21924245.373                   -10435092.567 8 -10435092.568 8                  -8131244.207 9       318.000         260.000         696.000                  
> 2024 10 31 07 14  0.0000000  0 10
G03  23281174.544    23281174.073    23281177.650                    -5467562.268 8  -5467562.267 7                  -4260440.593 8       174.000          83.000         303.000                  
G04  24663812.381    24663813.212    24663816.643                     4527838.425 7   4527838.446 6                   3528182.018 6        60.000          22.000          18.000                  
G11  25749695.030    25749690.820    25749695.373                     3431812.749 7   3431812.715 6                   2674127.871 6        55.000          22.000          18.000                  
G16  23383742.728    23383741.043    23383789.254                    -4647602.858 8  -4647602.860 6                  -3621069.322 6       120.000          24.000          18.000                  
G25  21863827.241    21863825.889    21863829.984                   -13291820.409 8 -13291820.406 8                 -10357264.475 8       215.000         114.000         411.000                  
G26  20297282.517    20297282.128    20297286.441                   -22532937.105 9 -22532937.105 9                 -17558134.427 9       525.000         646.000        1559.000                  
G28  19549037.162    19549036.825    19549037.344                   -27716405.344 9 -27716405.354 9                 -21597198.072 9       758.000         725.000         859.000                  
G29  21165711.622    21165710.813    21165711.460                   -20310616.788 8 -20310616.789 8                 -15826455.984 9       475.000         500.000         772.000                  
G31  19848952.353    19848951.923    19848951.729                   -24997004.771 9 -24997004.771 9                 -19478185.601 9       694.000        1053.000        1449.000                  
G32  21870848.540    21870848.183    21870851.903                   -10715676.648 8 -10715676.649 8                  -8349881.089 9       326.000         270.000         702.000                  
> 2024 10 31 07 14 10.0000000  0 10
G03  23327101.077    23327100.473    23327103.875                    -5226218.002 8  -5226217.997 7                  -4072380.196 8       170.000          79.000         285.000                  
G04  24722163.687    24722163.925    24722165.426                     4834475.449 7   4834475.459 6                   3767126.353 6        55.000          19.000          20.000                  
G11  25798200.994    25798197.460    25798202.311                     3686718.060 7   3686718.083 6                   2872755.403 6        53.000          23.000          20.000                  
G16  23351539.843    23351538.537    23351587.132                    -4816824.588 8  -4816824.593 6                  -3752870.559 6       122.000          25.000          18.000                  
G25  21888856.415    21888855.390    21888859.080                   -13160291.387 8 -13160291.387 8                 -10254774.360 8       217.000         115.000         396.000                  
G26  20284876.865    20284876.685    20284880.818                   -22598129.215 9 -22598129.215 9                 -17608933.525 9       539.000         676.000        1526.000                  
G28  19553356.464    19553356.143    19553356.704                   -27693706.876 9 -27693706.887 9                 -21579510.982 9       752.000         713.000         859.000                  
G29  21150652.105    21150651.652    21150652.336                   -20389753.715 8 -20389753.716 8                 -15888121.187 9       471.000         491.000         801.000                  
G31  19872728.697    19872728.457    19872728.335                   -24872058.326 9 -24872058.328 9                 -19380824.773 9       683.000        1024.000        1525.000                  
G32  21817824.582    21817824.553    21817828.144                   -10994318.477 8 -10994318.480 8                  -8567004.568 9       338.000         284.000         737.000                  
> 2024 10 31 07 14 20.0000000  0  9
G03  23373204.557    23373204.693    23373207.782                    -4983939.994 8  -4983939.988 7                  -3883592.212 8       163.000          67.000         281.000                  
G04  24780583.708    24780583.846    24780585.322                     5141466.992 7   5141466.962 6                   4006365.425 6        54.000          20.000          19.000                  
G16  23319793.176    23319790.963    23319841.607                    -4983654.344 8  -4983654.332 6                  -3882814.351 6       124.000          21.000          20.000                  
G25  21914522.863    21914522.464    21914525.945                   -13025410.619 8 -13025410.617 8                 -10149672.501 8       212.000         109.000         376.000                  
G26  20273382.280    20273381.715    20273385.814                   -22658535.591 9 -22658535.589 9                 -17656003.486 9       536.000         678.000        1443.000                  
G28  19558540.916    19558540.679    19558541.225                   -27666462.031 9 -27666462.041 9                 -21558281.231 9       739.000         691.000         849.000                  
G29  21136626.212    21136625.768    21136626.394                   -20463459.980 8 -20463459.982 8                 -15945554.632 9       472.000         490.000         793.000                  
G31  19897288.333    19897288.108    19897287.987                   -24742996.839 9 -24742996.840 9                 -19280257.419 9       676.000        1003.000        1539.000                  
G32  21765182.985    21765182.498    21765186.024                   -11270954.229 8 -11270954.231 8                  -8782564.871 9       354.000         317.000         756.000                  
> 2024 10 31 07 14 30.0000000  0  8
G03  23419474.089    23419474.354    23419477.411                    -4740792.342 8  -4740792.338 7                  -3694126.586 8       161.000          64.000         269.000                  
G04  24839059.203    24839058.257    24839060.882                     5448753.688 7   5448753.696 6                   4245829.683 6        52.000          20.000          20.000                  
G25  21940814.806    21940813.925    21940817.571                   -12887248.236 8 -12887248.235 8                 -10042013.561 8       218.000         114.000         373.000                  
G26  20262795.820    20262795.278    20262799.384                   -22714167.988 9 -22714167.987 9                 -17699353.480 9       527.000         654.000        1401.000                  
G28  19564582.603    19564582.325    19564583.001                   -27634713.147 9 -27634713.157 9                 -21533541.902 9       732.000         687.000         858.000                  
G29  21123630.630    21123630.010    21123630.748                   -20531752.902 8 -20531752.904 9                 -15998769.929 9       468.000         501.000         798.000                  
G31  19922620.018    19922619.849    19922619.689                   -24609877.759 9 -24609877.759 9                 -19176528.297 9       670.000         990.000        1556.000                  
G32  21712923.045    21712922.668    21712926.207                   -11545581.026 8 -11545581.027 8                  -8996559.688 9       366.000         339.000         786.000                  
> 2024 10 31 07 14 40.0000000  0  7
G03  23465908.534    23465908.875    23465912.174                    -4496776.933 8  -4496776.943 7                  -3503984.791 8       155.000          64.000         265.000                  
G25  21967728.796    21967728.211    21967731.899                   -12745812.823 8 -12745812.825 8                  -9931804.233 8       218.000         116.000         353.000                  
G26  20253127.005    20253126.607    20253130.734                   -22764977.201 9 -22764977.200 9                 -17738945.125 9       521.000         644.000        1375.000                  
G28  19571485.045    19571484.720    19571485.312                   -27598441.173 9 -27598441.181 9                 -21505278.067 9       722.000         664.000         847.000                  
G29  21111673.073    21111672.742    21111673.455                   -20594589.263 8 -20594589.264 9                 -16047733.404 9       472.000         501.000         794.000                  
